$GNRMC,085155.000,A,1831.074792,N,07348.916944,E,0.18,128.16,031025,,,A,V*0D
$GNGGA,085155.000,1831.074792,N,07348.916944,E,1,15,1.15,678.897,M,-64.657,M,,*50
$GNVTG,128.16,T,,M,0.18,N,0.33,K,A*26
$GNGSA,A,3,03,16,04,26,194,31,,,,,,,1.42,1.15,0.84,1*35
$GNGSA,A,3,16,05,,,,,,,,,,,1.42,1.15,0.84,3*0F
$GNGSA,A,3,09,06,,,,,,,,,,,1.42,1.15,0.84,6*07
$GPGSV,3,1,09,03,72,292,42,16,68,101,34,04,39,341,32,26,38,046,20,1*6E
$GPGSV,3,2,09,194,22,069,18,31,21,039,21,07,12,256,,08,11,171,14,1*51
$GPGSV,3,3,09,09,10,312,,1*55
$GAGSV,1,1,03,16,67,116,31,05,48,014,34,31,06,038,,7*46
$GIGSV,2,1,07,09,72,295,34,06,40,256,32,07,,,24,02,,,19,1*75
$GIGSV,2,2,07,01,,,30,05,,,21,03,,,34,1*7A
$GNGLL,1831.074792,N,07348.916944,E,085155.000,A,A*40
$PQTMANTENNASTATUS,1,0,1*4F
$GNRMC,085156.000,A,1831.074768,N,07348.916932,E,0.15,128.16,031025,,,A,V*07
$GNGGA,085156.000,1831.074768,N,07348.916932,E,1,15,1.15,678.870,M,-64.657,M,,*5E
$GNVTG,128.16,T,,M,0.15,N,0.28,K,A*21
$GNGSA,A,3,03,16,04,26,194,31,,,,,,,1.42,1.15,0.84,1*35
$GNGSA,A,3,16,05,,,,,,,,,,,1.42,1.15,0.84,3*0F
$GNGSA,A,3,09,06,,,,,,,,,,,1.42,1.15,0.84,6*07
$GPGSV,3,1,09,03,72,292,42,16,68,101,33,04,39,341,32,26,38,046,21,1*68
$GPGSV,3,2,09,194,22,069,18,31,21,039,21,07,12,256,,08,11,171,14,1*51
$GPGSV,3,3,09,09,10,312,,1*55
$GAGSV,1,1,03,16,67,116,31,05,48,014,34,31,06,038,,7*46
$GIGSV,2,1,07,09,72,295,33,06,40,256,33,07,,,23,02,,,20,1*7E
$GIGSV,2,2,07,01,,,28,05,,,21,03,,,35,1*72
$GNGLL,1831.074768,N,07348.916932,E,085156.000,A,A*47
$PQTMANTENNASTATUS,1,0,1*4F
$GNRMC,085157.000,A,1831.074738,N,07348.916938,E,0.16,128.16,031025,,,A,V*0A
$GNGGA,085157.000,1831.074738,N,07348.916938,E,1,15,1.15,678.853,M,-64.657,M,,*51
$GNVTG,128.16,T,,M,0.16,N,0.30,K,A*2B
$GNGSA,A,3,03,16,04,26,194,31,,,,,,,1.42,1.15,0.84,1*35
$GNGSA,A,3,16,05,,,,,,,,,,,1.42,1.15,0.84,3*0F
$GNGSA,A,3,09,06,,,,,,,,,,,1.42,1.15,0.84,6*07
$GPGSV,3,1,09,03,72,292,42,16,68,101,33,04,39,341,32,26,38,046,20,1*69
$GPGSV,3,2,09,194,22,069,18,31,21,039,20,07,12,256,,08,11,171,15,1*51
$GPGSV,3,3,09,09,10,312,,1*55
$GAGSV,1,1,03,16,67,116,31,05,48,014,34,31,06,038,,7*46
$GIGSV,2,1,07,09,72,295,33,06,40,256,33,07,,,21,02,,,19,1*76
$GIGSV,2,2,07,01,,,28,05,,,20,03,,,35,1*73
$GNGLL,1831.074738,N,07348.916938,E,085157.000,A,A*49
$PQTMANTENNASTATUS,1,0,1*4F
$GNRMC,085158.000,A,1831.074714,N,07348.916962,E,0.12,128.16,031025,,,A,V*00
$GNGGA,085158.000,1831.074714,N,07348.916962,E,1,15,1.15,678.840,M,-64.656,M,,*5C
$GNVTG,128.16,T,,M,0.12,N,0.22,K,A*2C
$GNGSA,A,3,03,16,04,26,194,31,,,,,,,1.42,1.15,0.84,1*35
$GNGSA,A,3,16,05,,,,,,,,,,,1.42,1.15,0.84,3*0F
$GNGSA,A,3,09,06,,,,,,,,,,,1.42,1.15,0.84,6*07
$GPGSV,3,1,09,03,72,292,42,16,68,101,33,04,39,341,32,26,38,046,19,1*63
$GPGSV,3,2,09,194,22,069,18,31,21,039,19,07,12,256,,08,11,171,16,1*58
$GPGSV,3,3,09,09,10,312,,1*55
$GAGSV,1,1,03,16,67,116,31,05,48,014,34,31,06,038,,7*46
$GIGSV,2,1,07,09,72,295,33,06,40,256,32,07,,,20,02,,,19,1*76
$GIGSV,2,2,07,01,,,29,05,,,21,03,,,35,1*73
$GNGLL,1831.074714,N,07348.916962,E,085158.000,A,A*47
$PQTMANTENNASTATUS,1,0,1*4F
$GNRMC,085159.000,A,1831.074690,N,07348.916962,E,0.37,128.16,031025,,,A,V*0B
$GNGGA,085159.000,1831.074690,N,07348.916962,E,1,15,1.15,678.787,M,-64.656,M,,*54
$GNVTG,128.16,T,,M,0.37,N,0.68,K,A*25
$GNGSA,A,3,03,16,04,26,194,31,,,,,,,1.42,1.15,0.84,1*35
$GNGSA,A,3,16,05,,,,,,,,,,,1.42,1.15,0.84,3*0F
$GNGSA,A,3,09,06,,,,,,,,,,,1.42,1.15,0.84,6*07
$GPGSV,3,1,09,03,72,292,42,16,68,101,32,04,39,341,31,26,38,046,19,1*61
$GPGSV,3,2,09,194,22,069,18,31,21,039,19,07,12,256,,08,11,171,16,1*58
$GPGSV,3,3,09,09,10,312,,1*55
$GAGSV,1,1,03,16,67,116,30,05,48,014,34,31,06,038,,7*47
$GIGSV,2,1,07,09,72,295,33,06,40,256,32,07,,,19,02,,,19,1*7C
$GIGSV,2,2,07,01,,,29,05,,,20,03,,,35,1*72
$GNGLL,1831.074690,N,07348.916962,E,085159.000,A,A*4B
$PQTMANTENNASTATUS,1,0,1*4F
$GNRMC,085200.000,A,1831.074726,N,07348.916860,E,0.65,314.63,031025,,,A,V*03
$GNGGA,085200.000,1831.074726,N,07348.916860,E,1,15,1.15,678.812,M,-64.657,M,,*56
$GNVTG,314.63,T,,M,0.65,N,1.21,K,A*21
$GNGSA,A,3,03,16,04,26,194,31,,,,,,,1.42,1.15,0.84,1*35
$GNGSA,A,3,16,05,,,,,,,,,,,1.42,1.15,0.84,3*0F
$GNGSA,A,3,09,06,,,,,,,,,,,1.42,1.15,0.84,6*07
$GPGSV,3,1,09,03,73,287,42,16,68,101,32,04,39,341,31,26,38,046,19,1*64
$GPGSV,3,2,09,194,22,069,18,31,21,039,20,07,12,256,,08,11,171,16,1*52
$GPGSV,3,3,09,09,10,312,,1*55
$GAGSV,1,1,03,16,67,116,30,05,48,014,35,31,06,038,,7*46
$GIGSV,2,1,07,09,72,295,34,06,40,256,33,07,,,18,02,,,19,1*7B
$GIGSV,2,2,07,01,,,30,05,,,21,03,,,35,1*7B
$GNGLL,1831.074726,N,07348.916860,E,085200.000,A,A*4B
$PQTMANTENNASTATUS,1,0,1*4F
$PAIR010,0,0,2386,463938*37
$PAIR010,0,1,2386,463938*36
$PAIR010,0,3,2386,464058*3C
$PAIR010,0,2,2386,464058*3D
$GNRMC,085201.000,A,1831.074732,N,07348.916836,E,0.38,314.63,031025,,,A,V*0C
$GNGGA,085201.000,1831.074732,N,07348.916836,E,1,15,1.15,678.895,M,-64.656,M,,*5F
$GNVTG,314.63,T,,M,0.38,N,0.70,K,A*2C
$GNGSA,A,3,03,16,04,26,194,31,,,,,,,1.42,1.15,0.84,1*35
$GNGSA,A,3,16,05,,,,,,,,,,,1.42,1.15,0.84,3*0F
$GNGSA,A,3,09,06,,,,,,,,,,,1.42,1.15,0.84,6*07
$GPGSV,3,1,09,03,73,287,42,16,68,101,31,04,39,342,31,26,38,046,18,1*65
$GPGSV,3,2,09,194,22,069,19,31,21,039,19,07,12,256,,08,11,171,16,1*59
$GPGSV,3,3,09,09,10,312,,1*55
$GAGSV,1,1,03,16,67,116,29,05,48,014,34,31,06,038,,7*4F
$GIGSV,2,1,07,09,72,295,35,06,40,256,33,03,,,35,07,,,19,1*74
$GIGSV,2,2,07,02,,,18,01,,,31,05,,,22,1*77
$GNGLL,1831.074732,N,07348.916836,E,085201.000,A,A*4C
$PQTMANTENNASTATUS,1,0,1*4F
$GNRMC,085202.000,A,1831.074834,N,07348.916710,E,0.57,314.63,031025,,,A,V*04
$GNGGA,085202.000,1831.074834,N,07348.916710,E,1,15,1.15,678.952,M,-64.657,M,,*55
$GNVTG,314.63,T,,M,0.57,N,1.06,K,A*25
$GNGSA,A,3,03,16,04,26,194,31,,,,,,,1.42,1.15,0.84,1*35
$GNGSA,A,3,16,05,,,,,,,,,,,1.42,1.15,0.84,3*0F
$GNGSA,A,3,09,06,,,,,,,,,,,1.42,1.15,0.84,6*07
$GPGSV,3,1,09,03,73,287,41,16,68,101,31,04,39,342,33,26,38,046,20,1*6F
$GPGSV,3,2,09,194,22,069,20,31,21,039,19,07,12,256,,08,11,171,15,1*50
$GPGSV,3,3,09,09,10,312,,1*55
$GAGSV,1,1,03,16,67,116,29,05,48,014,34,31,06,038,,7*4F
$GIGSV,2,1,07,09,72,295,34,06,40,256,33,03,,,35,07,,,27,1*78
$GIGSV,2,2,07,02,,,30,01,,,32,05,,,23,1*7F
$GNGLL,1831.074834,N,07348.916710,E,085202.000,A,A*4D
$PQTMANTENNASTATUS,1,0,1*4F
$GNRMC,085203.000,A,1831.074900,N,07348.916614,E,0.59,307.38,031025,,,A,V*04
$GNGGA,085203.000,1831.074900,N,07348.916614,E,1,15,1.15,678.945,M,-64.656,M,,*50
$GNVTG,307.38,T,,M,0.59,N,1.08,K,A*29
$GNGSA,A,3,03,16,04,26,194,31,,,,,,,1.42,1.15,0.84,1*35
$GNGSA,A,3,16,05,,,,,,,,,,,1.42,1.15,0.84,3*0F
$GNGSA,A,3,09,06,,,,,,,,,,,1.42,1.15,0.84,6*07
$GPGSV,3,1,09,03,73,287,40,16,68,101,31,04,39,342,34,26,38,046,22,1*6B
$GPGSV,3,2,09,194,22,069,20,31,21,039,20,07,12,256,,08,11,171,14,1*5B
$GPGSV,3,3,09,09,10,312,,1*55
$GAGSV,1,1,03,16,67,116,30,05,48,014,34,31,06,038,,7*47
$GIGSV,2,1,07,09,72,295,33,06,40,256,33,03,,,35,07,,,28,1*70
$GIGSV,2,2,07,02,,,30,01,,,32,05,,,23,1*7F
$GNGLL,1831.074900,N,07348.916614,E,085203.000,A,A*4F
$PQTMANTENNASTATUS,1,0,1*4F
$GNRMC,085204.000,A,1831.074954,N,07348.916578,E,0.57,307.38,031025,,,A,V*05
$GNGGA,085204.000,1831.074954,N,07348.916578,E,1,15,1.15,678.989,M,-64.656,M,,*5F
$GNVTG,307.38,T,,M,0.57,N,1.05,K,A*2A
$GNGSA,A,3,03,16,04,26,194,31,,,,,,,1.42,1.15,0.84,1*35
$GNGSA,A,3,16,05,,,,,,,,,,,1.42,1.15,0.84,3*0F
$GNGSA,A,3,09,06,,,,,,,,,,,1.42,1.15,0.84,6*07
$GPGSV,3,1,09,03,73,287,39,16,68,101,31,04,39,342,34,26,38,046,23,1*64
$GPGSV,3,2,09,194,22,069,20,31,21,039,21,07,13,257,,08,11,171,14,1*5A
$GPGSV,3,3,09,09,10,312,,1*55
$GAGSV,1,1,03,16,67,116,30,05,48,014,33,31,06,038,,7*40
$GIGSV,2,1,07,09,72,295,33,06,40,256,33,03,,,35,07,,,27,1*7F
$GIGSV,2,2,07,02,,,30,01,,,32,05,,,23,1*7F
$GNGLL,1831.074954,N,07348.916578,E,085204.000,A,A*40
$PQTMANTENNASTATUS,1,0,1*4F
$GNRMC,085205.000,A,1831.074774,N,07348.916596,E,0.38,307.38,031025,,,A,V*01
$GNGGA,085205.000,1831.074774,N,07348.916596,E,1,15,1.15,678.963,M,-64.657,M,,*57
$GNVTG,307.38,T,,M,0.38,N,0.71,K,A*21
$GNGSA,A,3,03,16,04,26,194,31,,,,,,,1.42,1.15,0.84,1*35
$GNGSA,A,3,16,05,,,,,,,,,,,1.42,1.15,0.84,3*0F
$GNGSA,A,3,09,06,,,,,,,,,,,1.42,1.15,0.84,6*07
$GPGSV,3,1,09,03,73,287,39,16,68,101,31,04,39,342,34,26,38,046,24,1*63
$GPGSV,3,2,09,194,22,069,20,31,21,039,21,07,13,257,,08,12,170,14,1*58
$GPGSV,3,3,09,09,10,312,,1*55
$GAGSV,1,1,03,16,67,116,29,05,48,014,31,31,06,038,,7*4A
$GIGSV,2,1,07,09,72,295,34,06,40,256,34,03,,,35,07,,,26,1*7E
$GIGSV,2,2,07,02,,,29,01,,,33,05,,,23,1*76
$GNGLL,1831.074774,N,07348.916596,E,085205.000,A,A*4D
$PQTMANTENNASTATUS,1,0,1*4F
$GNRMC,085206.000,A,1831.074732,N,07348.916584,E,0.38,307.38,031025,,,A,V*03
$GNGGA,085206.000,1831.074732,N,07348.916584,E,1,15,1.15,678.929,M,-64.656,M,,*5A
$GNVTG,307.38,T,,M,0.38,N,0.70,K,A*20
$GNGSA,A,3,03,16,04,26,194,31,,,,,,,1.42,1.15,0.84,1*35
$GNGSA,A,3,16,05,,,,,,,,,,,1.42,1.15,0.84,3*0F
$GNGSA,A,3,09,06,,,,,,,,,,,1.42,1.15,0.84,6*07
$GPGSV,3,1,09,03,73,287,39,16,68,101,31,04,39,342,34,26,38,046,24,1*63
$GPGSV,3,2,09,194,22,069,21,31,21,039,22,07,13,257,,08,12,170,14,1*5A
$GPGSV,3,3,09,09,11,313,,1*55
$GAGSV,1,1,03,16,67,116,29,05,48,014,29,31,06,038,,7*43
$GIGSV,2,1,07,09,72,295,34,06,40,256,34,03,,,35,07,,,24,1*7C
$GIGSV,2,2,07,02,,,29,01,,,33,05,,,23,1*76
$GNGLL,1831.074732,N,07348.916584,E,085206.000,A,A*4F
$PQTMANTENNASTATUS,1,0,1*4F
$GNRMC,085207.000,A,1831.074696,N,07348.916632,E,0.40,307.38,031025,,,A,V*0C
$GNGGA,085207.000,1831.074696,N,07348.916632,E,1,15,1.15,678.891,M,-64.656,M,,*58
$GNVTG,307.38,T,,M,0.40,N,0.73,K,A*2C
$GNGSA,A,3,03,16,04,26,194,31,,,,,,,1.42,1.15,0.84,1*35
$GNGSA,A,3,16,05,,,,,,,,,,,1.42,1.15,0.84,3*0F
$GNGSA,A,3,09,06,,,,,,,,,,,1.42,1.15,0.84,6*07
$GPGSV,3,1,09,03,73,287,39,16,68,101,31,04,39,342,34,26,38,046,25,1*62
$GPGSV,3,2,09,194,22,069,21,31,21,039,24,07,13,257,,08,12,170,15,1*5D
$GPGSV,3,3,09,09,11,313,,1*55
$GAGSV,1,1,03,16,67,116,29,05,48,014,29,31,06,038,,7*43
$GIGSV,2,1,07,09,72,295,35,06,40,256,34,03,,,35,07,,,24,1*7D
$GIGSV,2,2,07,02,,,30,01,,,34,05,,,23,1*79
$GNGLL,1831.074696,N,07348.916632,E,085207.000,A,A*4F
$PQTMANTENNASTATUS,1,0,1*4F
$GNRMC,085208.000,A,1831.074672,N,07348.916698,E,0.24,307.38,031025,,,A,V*0B
$GNGGA,085208.000,1831.074672,N,07348.916698,E,1,15,1.15,678.870,M,-64.657,M,,*53
$GNVTG,307.38,T,,M,0.24,N,0.44,K,A*2A
$GNGSA,A,3,03,16,04,26,194,31,,,,,,,1.42,1.15,0.84,1*35
$GNGSA,A,3,16,05,,,,,,,,,,,1.42,1.15,0.84,3*0F
$GNGSA,A,3,09,06,,,,,,,,,,,1.42,1.15,0.84,6*07
$GPGSV,3,1,09,03,73,287,39,16,68,101,32,04,39,342,34,26,38,046,25,1*61
$GPGSV,3,2,09,194,22,069,23,31,21,039,25,07,13,257,,08,12,170,16,1*5D
$GPGSV,3,3,09,09,11,313,,1*55
$GAGSV,1,1,03,16,67,116,29,05,48,014,30,31,06,038,,7*4B
$GIGSV,2,1,07,09,72,295,34,06,40,256,33,07,,,31,02,,,29,1*73
$GIGSV,2,2,07,01,,,34,05,,,34,03,,,36,1*78
$GNGLL,1831.074672,N,07348.916698,E,085208.000,A,A*4A
$PQTMANTENNASTATUS,1,0,1*4F
$GNRMC,085209.000,A,1831.074696,N,07348.916560,E,0.22,307.38,031025,,,A,V*02
$GNGGA,085209.000,1831.074696,N,07348.916560,E,1,16,1.12,678.861,M,-64.657,M,,*58
$GNVTG,307.38,T,,M,0.22,N,0.40,K,A*28
$GNGSA,A,3,03,16,04,26,194,31,,,,,,,1.40,1.12,0.84,1*30
$GNGSA,A,3,16,05,,,,,,,,,,,1.40,1.12,0.84,3*0A
$GNGSA,A,3,09,06,,,,,,,,,,,1.40,1.12,0.84,6*02
$GPGSV,3,1,09,03,73,287,40,16,68,101,33,04,39,342,34,26,38,046,25,1*6E
$GPGSV,3,2,09,194,22,069,25,31,21,039,26,07,13,257,,08,12,170,16,1*58
$GPGSV,3,3,09,09,11,313,,1*55
$GAGSV,1,1,02,16,67,116,30,05,48,014,31,7*7C
$GIGSV,2,1,07,09,72,295,32,06,40,256,33,02,,,28,01,,,33,1*70
$GIGSV,2,2,07,05,,,32,03,,,36,07,,,29,1*74
$GNGLL,1831.074696,N,07348.916560,E,085209.000,A,A*45
$PQTMANTENNASTATUS,1,0,1*4F
$GNRMC,085210.000,A,1831.074702,N,07348.916590,E,0.29,307.38,031025,,,A,V*02
$GNGGA,085210.000,1831.074702,N,07348.916590,E,1,16,1.12,678.942,M,-64.656,M,,*52
$GNVTG,307.38,T,,M,0.29,N,0.53,K,A*21
$GNGSA,A,3,03,16,04,26,194,31,,,,,,,1.40,1.12,0.84,1*30
$GNGSA,A,3,16,05,,,,,,,,,,,1.40,1.12,0.84,3*0A
$GNGSA,A,3,09,06,,,,,,,,,,,1.40,1.12,0.84,6*02
$GPGSV,3,1,09,03,73,287,41,16,68,101,33,04,39,342,34,26,38,046,21,1*6B
$GPGSV,3,2,09,194,22,069,26,31,21,039,25,07,13,257,,08,12,170,17,1*59
$GPGSV,3,3,09,09,11,313,,1*55
$GAGSV,1,1,02,16,67,116,30,05,48,014,38,7*75
$GIGSV,2,1,07,09,72,295,32,06,40,256,32,05,,,32,03,,,37,1*7B
$GIGSV,2,2,07,07,,,28,02,,,26,01,,,33,1*70
$GNGLL,1831.074702,N,07348.916590,E,085210.000,A,A*4E
$PQTMANTENNASTATUS,1,0,1*4F
$GNRMC,085211.000,A,1831.074732,N,07348.916500,E,0.39,307.38,031025,,,A,V*08
$GNGGA,085211.000,1831.074732,N,07348.916500,E,1,16,1.12,679.021,M,-64.657,M,,*55
$GNVTG,307.38,T,,M,0.39,N,0.72,K,A*23
$GNGSA,A,3,03,16,04,26,194,31,,,,,,,1.40,1.12,0.84,1*30
$GNGSA,A,3,16,05,,,,,,,,,,,1.40,1.12,0.84,3*0A
$GNGSA,A,3,09,06,,,,,,,,,,,1.40,1.12,0.84,6*02
$GPGSV,3,1,09,03,73,287,41,16,68,101,32,04,39,342,34,26,38,046,16,1*6E
$GPGSV,3,2,09,194,22,069,27,31,21,039,25,07,13,257,,08,12,170,17,1*58
$GPGSV,3,3,09,09,11,313,,1*55
$GAGSV,1,1,02,16,67,116,29,05,48,014,37,7*72
$GIGSV,2,1,07,09,72,295,31,06,40,256,32,05,,,32,03,,,37,1*78
$GIGSV,2,2,07,07,,,27,02,,,25,01,,,31,1*7E
$GNGLL,1831.074732,N,07348.916500,E,085211.000,A,A*45
$PQTMANTENNASTATUS,1,0,1*4F
$GNRMC,085212.000,A,1831.074744,N,07348.916470,E,0.23,307.38,031025,,,A,V*07
$GNGGA,085212.000,1831.074744,N,07348.916470,E,1,16,1.12,679.069,M,-64.656,M,,*5C
$GNVTG,307.38,T,,M,0.23,N,0.42,K,A*2B
$GNGSA,A,3,03,16,04,26,194,31,,,,,,,1.40,1.12,0.84,1*30
$GNGSA,A,3,16,05,,,,,,,,,,,1.40,1.12,0.84,3*0A
$GNGSA,A,3,09,06,,,,,,,,,,,1.40,1.12,0.84,6*02
$GPGSV,3,1,09,03,73,287,41,16,68,101,33,04,39,342,34,26,38,046,22,1*68
$GPGSV,3,2,09,194,22,069,27,31,21,039,25,07,13,257,,08,12,170,17,1*58
$GPGSV,3,3,09,09,11,313,,1*55
$GAGSV,1,1,03,16,67,116,29,05,48,014,37,31,06,038,,7*4C
$GIGSV,2,1,07,09,72,295,31,06,40,256,32,03,,,37,07,,,19,1*73
$GIGSV,2,2,07,02,,,23,05,,,32,01,,,31,1*7E
$GNGLL,1831.074744,N,07348.916470,E,085212.000,A,A*41
$PQTMANTENNASTATUS,1,0,1*4F
