Timestamp,Temperature,Roll,Pitch,Yaw,Pressure,Altitude,Ax,Ay,Az,Gx,Gy,Gz,Mx,My,Mz
0,24.96,0.1,0.09,-0.17,1010.78,0.0,0.016,0.018,0.0,0.09,0.11,0.1,30,37,38
1,25.0,0.07,0.25,0.02,1013.44,0.0,0.013,0.033,0.0,0.1,0.1,0.09,47,46,30
2,25.21,0.19,-0.08,-0.02,1012.14,0.0,0.019,0.038,0.0,0.1,0.11,0.09,46,49,46
3,25.28,-0.01,-0.02,0.11,1013.36,0.0,0.027,0.044,0.0,0.1,0.11,0.1,42,32,47
4,24.75,-0.04,-0.1,0.19,1013.97,0.0,0.041,0.042,0.0,0.09,0.11,0.11,32,44,35
5,25.34,0.06,0.03,-0.08,1011.58,0.0,0.04,0.014,0.0,0.08,0.1,0.11,47,37,32
6,25.04,-0.06,0.05,-0.01,1013.15,0.0,0.032,0.021,0.0,0.09,0.11,0.11,45,40,36
7,25.3,-0.15,0.03,-0.11,1012.66,0.0,0.034,0.033,0.0,0.11,0.1,0.1,39,48,41
8,25.0,0.11,0.0,-0.12,1012.14,0.0,0.018,0.025,0.0,0.12,0.1,0.1,34,46,36
9,25.25,0.01,-0.16,-0.06,1012.11,0.0,0.025,0.01,0.0,0.1,0.09,0.1,38,43,34
10,25.19,-0.02,-0.13,0.0,1013.86,0.0,0.022,0.037,0.0,0.09,0.09,0.1,37,49,40
11,24.99,-0.02,-0.03,-0.06,1013.0,0.0,0.022,0.05,0.0,0.11,0.09,0.1,49,38,46
12,25.6,-0.1,-0.07,0.01,1015.06,0.0,0.023,0.039,0.0,0.11,0.1,0.09,47,30,31
13,24.9,0.12,-0.02,0.01,1012.45,0.0,0.027,0.03,0.0,0.11,0.09,0.1,40,47,40
14,24.8,-0.2,0.09,-0.09,1013.88,0.0,0.022,0.031,0.0,0.09,0.1,0.1,43,37,38
15,25.06,-0.16,0.16,0.09,1012.83,0.0,0.034,0.027,0.0,0.11,0.09,0.1,45,33,42
16,25.04,0.08,0.15,-0.21,1013.27,0.0,0.026,0.042,0.0,0.1,0.1,0.1,47,47,41
17,25.1,0.14,-0.15,0.01,1014.42,0.0,0.016,0.037,0.0,0.1,0.1,0.09,43,31,34
18,25.37,-0.01,-0.04,-0.13,1012.74,0.0,0.023,0.042,0.0,0.11,0.1,0.11,43,36,44
19,25.03,0.13,0.12,0.01,1011.49,0.0,0.026,0.04,0.0,0.1,0.1,0.09,38,47,35
20,24.99,0.04,-0.06,-0.03,1012.43,0.0,0.028,0.026,0.0,0.09,0.08,0.11,33,48,45
21,24.87,0.05,0.07,-0.08,1013.1,0.0,0.011,0.019,0.0,0.12,0.09,0.1,49,46,45
22,24.93,-0.08,-0.02,-0.0,1012.38,0.0,0.023,0.047,0.0,0.1,0.11,0.09,49,47,48
23,25.08,-0.11,0.08,-0.0,1014.44,0.0,0.035,0.042,0.0,0.11,0.11,0.1,44,46,31
24,24.78,-0.09,0.07,-0.05,1014.4,0.0,0.015,0.03,0.0,0.09,0.1,0.08,40,48,40
25,24.61,-0.09,-0.06,0.06,1013.8,0.0,0.011,0.037,0.0,0.09,0.12,0.1,40,38,35
26,24.7,-0.02,0.04,0.0,1013.71,0.0,0.024,0.04,0.0,0.1,0.08,0.09,40,42,39
27,24.54,-0.03,0.0,-0.17,1011.04,0.0,0.011,0.04,0.0,0.12,0.11,0.12,30,35,44
28,25.03,0.02,-0.1,-0.03,1012.65,0.0,0.03,0.024,0.0,0.1,0.1,0.09,34,42,34
29,24.97,-0.06,-0.16,-0.04,1013.19,0.0,0.022,0.026,0.0,0.1,0.1,0.09,42,33,45
30,24.87,-0.15,0.02,-0.03,1012.53,0.0,0.023,0.035,0.0,0.1,0.09,0.1,45,31,46
31,24.98,-0.01,0.03,-0.05,1013.65,0.0,0.027,0.041,0.0,0.1,0.1,0.12,48,46,47
32,24.96,-0.12,-0.17,-0.19,1013.49,0.0,0.012,0.034,0.0,0.1,0.09,0.11,35,43,34
33,24.81,0.02,-0.02,-0.11,1013.41,0.0,0.018,0.029,0.0,0.1,0.09,0.12,36,30,33
34,25.11,0.12,0.07,0.14,1013.72,0.0,0.018,0.02,0.0,0.09,0.09,0.11,34,49,37
35,25.16,0.07,0.09,-0.08,1013.41,0.0,0.029,0.036,0.0,0.11,0.1,0.11,31,34,45
36,24.99,0.02,0.04,-0.01,1013.98,0.0,0.026,0.051,0.0,0.11,0.1,0.1,38,49,49
37,24.73,-0.0,-0.18,-0.06,1013.55,0.0,0.033,0.025,0.0,0.1,0.09,0.11,40,41,36
38,25.03,0.14,0.02,0.16,1014.65,0.0,0.009,0.054,0.0,0.09,0.07,0.09,45,44,35
39,24.77,0.06,-0.05,0.05,1012.98,0.0,0.021,0.038,0.0,0.09,0.08,0.11,46,42,49
40,24.95,-0.06,0.11,0.03,1012.4,0.0,0.037,0.025,0.0,0.1,0.1,0.1,30,48,30
41,25.09,-0.09,0.03,-0.18,1012.83,0.0,0.041,0.029,0.0,0.11,0.12,0.09,46,42,47
42,24.73,-0.03,0.08,-0.05,1013.48,0.0,0.021,0.027,0.0,0.1,0.09,0.1,46,44,44
43,24.6,0.06,0.02,0.06,1012.64,0.0,0.02,0.022,0.0,0.09,0.11,0.08,36,46,40
44,24.88,-0.03,0.31,-0.16,1014.15,0.0,0.028,0.027,0.0,0.1,0.09,0.1,42,36,45
45,25.04,0.03,0.11,-0.1,1012.47,0.0,0.022,0.039,0.0,0.1,0.08,0.1,44,33,41
46,24.67,-0.05,-0.01,-0.03,1010.36,0.0,0.023,0.026,0.0,0.1,0.09,0.09,43,41,47
47,24.68,-0.05,0.18,0.1,1013.72,0.0,0.012,0.033,0.0,0.1,0.08,0.1,34,31,37
48,25.61,0.06,0.06,0.01,1013.24,10.0,0.029,0.025,5.0,0.1,0.1,0.11,42,45,37
49,25.12,-0.25,-0.04,-0.06,1012.58,20.0,0.03,0.027,10.0,0.11,0.1,0.11,36,31,30
50,25.16,0.07,0.08,0.04,1012.51,10.0,0.023,0.01,5.0,0.1,0.09,0.09,44,31,35
51,25.09,0.08,0.08,0.01,1012.47,0.0,0.042,0.009,0.0,0.11,0.1,0.1,34,46,40
52,25.02,0.1,-0.12,0.0,1013.44,0.0,0.034,0.033,0.0,0.11,0.09,0.1,36,31,43
53,24.61,0.04,0.02,-0.09,1013.7,0.0,0.014,0.028,0.0,0.11,0.08,0.11,41,41,41
54,24.84,0.08,-0.02,-0.06,1011.83,0.0,0.028,0.029,0.0,0.09,0.08,0.09,44,36,48
55,25.06,0.06,-0.13,0.14,1012.67,0.0,0.03,0.035,0.0,0.09,0.11,0.1,45,40,36
56,24.51,0.19,-0.11,-0.01,1011.56,0.0,0.024,0.034,0.0,0.1,0.1,0.11,41,38,42
57,24.98,-0.09,-0.15,-0.02,1013.87,0.0,0.007,0.033,0.0,0.1,0.11,0.09,37,43,49
58,25.13,0.13,-0.19,0.03,1011.78,0.0,0.032,0.022,0.0,0.1,0.1,0.09,31,37,32
59,24.98,-0.13,0.1,0.05,1012.65,0.0,0.029,0.041,0.0,0.11,0.11,0.1,35,43,34
60,24.87,-0.09,0.0,-0.04,1013.55,0.0,0.016,0.037,0.0,0.11,0.1,0.11,33,43,35
61,25.0,0.02,0.03,-0.01,1013.77,0.0,0.011,0.032,0.0,0.1,0.1,0.1,49,39,49
62,25.33,0.12,0.02,0.07,1010.92,0.0,0.013,0.022,0.0,0.1,0.09,0.09,34,44,36
63,24.85,0.09,0.01,0.04,1011.27,0.0,0.005,0.036,0.0,0.09,0.12,0.11,49,31,37
64,24.57,0.07,-0.04,-0.06,1014.21,0.0,0.022,0.043,0.0,0.1,0.1,0.11,38,46,34
65,24.97,-0.25,0.15,0.02,1013.83,0.0,0.024,0.045,0.0,0.1,0.09,0.1,37,38,48
66,24.95,-0.1,0.0,-0.04,1011.61,0.0,0.032,0.031,0.0,0.11,0.11,0.1,45,31,46
67,25.39,0.02,-0.01,-0.09,1011.84,0.0,0.023,0.033,0.0,0.1,0.1,0.1,35,34,40
68,24.73,-0.03,0.01,0.03,1011.94,0.0,0.029,0.027,0.0,0.11,0.09,0.11,40,36,47
69,25.04,-0.0,0.15,0.16,1012.6,0.0,0.013,0.035,0.0,0.09,0.11,0.11,39,32,46
70,24.76,0.13,-0.03,0.09,1012.89,0.0,0.015,0.039,0.0,0.1,0.1,0.11,34,33,49
71,24.95,-0.0,0.04,-0.03,1011.31,0.0,0.02,0.042,0.0,0.1,0.1,0.09,41,41,30
72,24.95,0.11,-0.05,0.3,1012.81,0.0,0.019,0.037,0.0,0.09,0.1,0.11,33,48,46
73,25.13,0.16,-0.07,-0.1,1013.37,0.0,0.024,0.023,0.0,0.08,0.11,0.11,38,45,45
74,25.14,-0.06,-0.04,-0.05,1012.33,0.0,0.017,0.025,0.0,0.08,0.09,0.11,45,47,49
75,25.33,-0.04,-0.08,-0.01,1014.1,0.0,0.026,0.03,0.0,0.1,0.09,0.1,36,34,46
76,24.81,0.07,-0.17,-0.03,1014.08,0.0,0.028,0.04,0.0,0.1,0.09,0.1,47,34,47
77,24.88,0.04,-0.07,-0.07,1013.35,0.0,0.014,0.034,0.0,0.09,0.11,0.11,32,46,37
78,24.95,-0.03,-0.01,0.09,1013.13,0.0,0.023,0.017,0.0,0.09,0.1,0.1,49,38,30
79,25.13,0.02,-0.02,-0.04,1012.89,0.0,0.022,0.04,0.0,0.1,0.09,0.1,41,43,33
80,24.75,0.19,-0.15,-0.03,1012.88,0.0,0.016,0.019,0.0,0.1,0.1,0.1,45,38,33
81,25.04,-0.06,0.05,0.03,1012.18,0.0,0.023,0.005,0.0,0.1,0.11,0.09,41,44,31
82,25.61,0.08,-0.07,-0.29,1013.91,0.0,0.035,0.026,0.0,0.1,0.1,0.1,49,49,36
83,25.13,-0.04,0.06,0.1,1012.54,0.0,0.018,0.039,0.0,0.1,0.09,0.09,34,45,38
84,24.76,-0.03,0.05,0.14,1011.62,0.0,0.023,0.037,0.0,0.09,0.1,0.11,30,42,31
85,24.99,0.08,-0.1,0.05,1014.94,0.0,0.007,0.038,0.0,0.1,0.11,0.09,38,46,38
86,25.13,-0.01,-0.09,0.13,1012.24,0.0,0.012,0.039,0.0,0.09,0.1,0.1,41,31,42
87,25.14,0.06,-0.04,0.11,1013.39,0.0,0.03,0.031,0.0,0.1,0.1,0.1,36,48,43
88,24.94,-0.12,0.1,0.05,1013.25,0.0,0.016,0.033,0.0,0.11,0.1,0.11,33,31,37
89,24.98,-0.04,-0.16,0.2,1013.08,0.0,0.012,0.021,0.0,0.09,0.09,0.09,39,46,30
90,24.8,-0.09,-0.05,0.13,1013.42,0.0,0.021,0.014,0.0,0.09,0.1,0.11,45,32,44
91,25.11,0.18,0.05,0.05,1012.45,0.0,0.036,0.025,0.0,0.11,0.08,0.1,39,34,47
92,24.95,-0.03,0.03,-0.11,1012.68,0.0,0.042,0.043,0.0,0.09,0.1,0.11,38,35,36
93,24.77,-0.1,0.05,-0.07,1012.87,0.0,0.018,0.04,0.0,0.1,0.1,0.08,48,42,35
94,25.09,-0.0,0.01,0.1,1014.04,0.0,0.002,0.028,0.0,0.13,0.09,0.11,49,47,44
95,24.96,0.01,0.05,0.15,1012.32,0.0,0.006,0.05,0.0,0.09,0.1,0.11,44,34,35
96,24.76,0.02,0.12,-0.03,1012.73,0.0,0.01,0.031,0.0,0.1,0.1,0.11,34,44,40
97,24.56,-0.05,-0.06,-0.07,1012.94,0.0,0.028,0.037,0.0,0.09,0.09,0.1,40,48,33
98,25.15,-0.14,0.1,-0.06,1013.1,0.0,0.015,0.02,0.0,0.1,0.11,0.1,34,49,47
99,25.44,-0.1,-0.02,0.03,1013.41,0.0,0.023,0.03,0.0,0.1,0.1,0.09,36,36,36
100,24.95,-0.1,0.01,-0.03,1013.59,0.0,0.029,0.021,0.0,0.1,0.12,0.08,37,42,30
101,24.95,-0.01,-0.02,-0.04,1014.66,0.5,0.023,0.02,0.05,0.09,0.1,0.11,39,40,32
102,25.06,0.07,-0.18,-0.01,1014.47,1.0,0.049,0.029,0.1,0.1,0.12,0.11,40,46,39
103,24.88,-0.05,0.0,0.06,1013.18,1.5,0.013,0.031,0.15,0.11,0.1,0.1,39,38,46
104,25.01,0.05,0.12,-0.01,1014.18,2.01,0.034,0.029,0.2,0.11,0.12,0.1,31,39,41
105,24.79,0.05,0.02,-0.01,1012.37,2.51,0.012,0.021,0.25,0.08,0.1,0.09,47,32,49
106,25.19,-0.06,-0.03,-0.03,1012.82,3.01,0.011,0.034,0.3,0.1,0.1,0.09,30,33,36
107,25.2,0.02,0.0,-0.05,1013.62,3.51,0.024,0.021,0.35,0.12,0.1,0.09,32,45,48
108,24.81,-0.06,-0.1,0.1,1013.61,4.01,0.032,0.028,0.4,0.09,0.1,0.09,35,41,44
109,25.09,-0.12,-0.06,0.12,1011.26,4.51,0.028,0.034,0.45,0.1,0.09,0.08,42,49,30
110,24.97,-0.11,0.02,0.14,1013.07,5.01,0.02,0.047,0.5,0.11,0.1,0.11,34,36,35
111,25.31,0.2,0.03,-0.1,1012.76,5.51,0.028,0.038,0.55,0.08,0.09,0.1,31,35,39
112,24.92,-0.06,0.18,0.03,1011.89,6.02,0.026,0.023,0.6,0.12,0.09,0.09,45,46,33
113,25.08,-0.15,0.03,-0.02,1011.56,6.52,0.019,0.025,0.65,0.11,0.08,0.09,43,36,39
114,24.89,0.05,0.05,-0.07,1013.46,7.02,0.02,0.044,0.7,0.1,0.07,0.09,49,32,45
115,25.2,-0.12,0.05,-0.06,1014.37,7.52,0.023,0.044,0.75,0.09,0.07,0.11,39,44,43
116,24.76,0.02,0.05,0.02,1011.95,8.02,0.032,0.018,0.8,0.12,0.12,0.09,37,37,31
117,24.97,0.08,-0.14,-0.01,1014.26,8.52,0.029,0.029,0.85,0.11,0.1,0.09,49,37,31
118,24.97,-0.03,0.19,-0.14,1012.5,9.02,-0.002,0.031,0.9,0.09,0.09,0.1,33,39,38
119,25.15,0.12,0.12,0.03,1013.79,9.52,0.018,0.031,0.95,0.1,0.09,0.11,37,32,40
120,25.02,-0.02,-0.02,-0.25,1015.21,10.03,0.007,0.023,1.0,0.09,0.11,0.09,48,42,39
121,25.06,0.13,0.0,0.07,1014.28,10.53,0.012,0.033,1.05,0.09,0.09,0.09,43,38,38
122,24.86,0.15,0.18,-0.17,1013.04,11.03,0.029,0.021,1.1,0.1,0.09,0.1,35,40,47
123,24.76,0.03,-0.1,0.07,1013.4,11.53,0.028,0.013,1.15,0.1,0.1,0.07,38,31,46
124,24.94,-0.16,-0.11,0.02,1012.52,12.03,0.018,0.03,1.2,0.1,0.09,0.1,40,44,31
125,25.01,0.13,-0.02,-0.01,1012.48,12.53,0.001,0.031,1.25,0.07,0.11,0.11,38,41,43
126,24.99,-0.07,-0.17,0.11,1013.75,13.03,0.018,0.032,1.3,0.11,0.12,0.12,39,44,31
127,25.02,-0.1,0.21,0.04,1012.41,13.53,0.032,0.046,1.35,0.11,0.09,0.12,38,31,49
128,24.88,0.08,0.05,-0.1,1012.59,14.04,0.017,0.03,1.4,0.12,0.11,0.11,43,39,40
129,24.85,0.05,-0.05,-0.03,1011.21,14.54,0.026,0.031,1.45,0.12,0.08,0.09,30,38,45
130,25.18,-0.04,-0.09,-0.15,1012.81,15.04,0.005,0.038,1.5,0.08,0.1,0.1,45,39,45
131,25.19,0.03,-0.12,0.18,1013.11,15.54,0.013,0.026,1.55,0.09,0.11,0.11,42,39,40
132,24.84,0.01,0.11,0.06,1012.63,16.04,0.016,0.023,1.6,0.11,0.11,0.1,38,42,49
133,24.84,-0.0,0.08,0.08,1012.18,16.54,0.019,0.035,1.65,0.11,0.1,0.11,32,46,45
134,25.27,-0.16,0.12,0.14,1012.32,17.04,0.031,0.034,1.7,0.09,0.1,0.09,38,38,30
135,25.27,0.02,-0.07,-0.03,1012.31,17.54,0.029,0.044,1.75,0.1,0.09,0.1,49,32,31
136,25.29,0.1,-0.02,-0.02,1013.03,18.05,0.019,0.042,1.8,0.11,0.1,0.1,43,30,31
137,24.63,0.12,0.05,0.1,1013.61,18.55,0.022,0.02,1.85,0.1,0.1,0.11,46,33,40
138,25.23,0.29,0.14,0.05,1011.98,19.05,0.009,0.024,1.9,0.1,0.08,0.1,45,33,31
139,24.6,-0.05,-0.09,-0.06,1013.51,19.55,0.014,0.025,1.95,0.11,0.1,0.09,40,32,36
140,25.14,0.14,0.08,-0.1,1014.03,20.05,0.016,0.014,2.01,0.11,0.1,0.1,40,47,38
141,24.91,-0.05,0.01,-0.07,1012.01,20.55,0.037,0.038,2.06,0.1,0.1,0.1,38,33,45
142,24.83,-0.03,-0.17,0.09,1013.58,21.05,0.001,0.049,2.11,0.1,0.09,0.1,31,48,33
143,25.01,0.09,-0.11,-0.08,1012.17,21.55,0.028,0.039,2.16,0.11,0.12,0.11,44,49,43
144,25.0,-0.11,-0.04,-0.05,1015.24,22.06,0.019,0.029,2.21,0.09,0.08,0.1,35,39,35
145,25.2,-0.09,0.11,0.02,1013.51,22.56,0.021,0.02,2.26,0.09,0.11,0.1,41,33,30
146,25.27,0.04,-0.13,0.05,1012.9,23.06,0.028,0.03,2.31,0.08,0.11,0.1,36,41,35
147,24.99,0.11,0.01,0.14,1012.74,23.56,0.012,0.026,2.36,0.08,0.09,0.1,32,33,49
148,25.03,0.02,-0.03,0.15,1013.83,24.06,0.028,0.041,2.41,0.12,0.09,0.1,44,33,36
149,25.02,0.01,0.04,0.23,1013.31,24.56,0.035,0.015,2.46,0.09,0.11,0.11,38,41,30
150,24.57,0.04,0.11,-0.13,1013.11,25.06,0.028,0.037,2.51,0.1,0.11,0.1,36,41,42
151,24.56,-0.09,0.1,-0.0,1012.51,25.56,0.025,0.026,2.56,0.1,0.11,0.1,36,40,35
152,25.6,0.06,-0.04,-0.01,1011.78,26.07,0.012,0.031,2.61,0.1,0.1,0.11,48,46,45
153,24.78,-0.04,-0.04,-0.07,1012.25,26.57,0.028,0.015,2.66,0.1,0.11,0.08,46,34,30
154,25.03,-0.0,-0.26,0.08,1013.45,27.07,0.008,0.029,2.71,0.11,0.1,0.11,47,47,37
155,25.52,0.0,-0.1,0.01,1013.61,27.57,0.02,0.055,2.76,0.1,0.1,0.11,39,41,38
156,24.96,0.03,-0.13,0.04,1012.81,28.07,0.02,0.023,2.81,0.08,0.11,0.1,37,44,37
157,25.23,-0.25,-0.15,0.19,1013.35,28.57,0.005,0.022,2.86,0.13,0.11,0.09,44,34,48
158,24.89,-0.01,0.06,-0.07,1013.03,29.07,0.018,0.018,2.91,0.11,0.11,0.09,39,43,35
159,24.67,0.04,-0.03,-0.01,1015.83,29.57,-0.003,0.031,2.96,0.09,0.1,0.09,33,33,31
160,25.27,0.05,-0.03,0.03,1012.13,30.08,0.022,0.031,3.01,0.11,0.11,0.12,49,30,39
161,24.89,-0.1,0.0,0.02,1014.74,30.58,0.019,0.051,3.06,0.11,0.11,0.1,42,40,31
162,24.95,-0.06,-0.05,-0.12,1012.59,31.08,0.015,0.024,3.11,0.09,0.11,0.11,34,47,40
163,25.01,-0.02,0.06,0.09,1012.14,31.58,0.015,0.037,3.16,0.1,0.1,0.1,43,32,38
164,25.13,0.09,-0.11,0.04,1013.02,32.08,0.021,0.022,3.21,0.1,0.09,0.08,33,34,34
165,24.99,-0.1,0.11,0.06,1011.77,32.58,0.008,0.012,3.26,0.09,0.12,0.11,41,40,37
166,24.93,0.02,0.03,0.03,1012.06,33.08,0.03,0.029,3.31,0.1,0.11,0.11,42,44,43
167,24.91,-0.09,-0.03,0.04,1014.39,33.58,0.011,0.028,3.36,0.1,0.08,0.1,49,49,49
168,25.22,0.23,0.09,0.12,1012.35,34.09,0.027,0.039,3.41,0.11,0.12,0.12,35,35,32
169,24.84,-0.18,0.07,0.13,1011.1,34.59,0.017,0.029,3.46,0.1,0.09,0.11,38,31,35
170,24.98,0.07,-0.15,-0.12,1013.94,35.09,0.011,0.018,3.51,0.1,0.09,0.1,35,42,33
171,25.07,0.05,0.14,-0.05,1012.45,35.59,0.029,0.034,3.56,0.1,0.1,0.1,38,38,33
172,25.02,0.03,0.01,0.11,1012.73,36.09,0.01,0.043,3.61,0.1,0.09,0.09,47,30,46
173,25.07,0.09,-0.22,-0.04,1013.53,36.59,0.033,0.029,3.66,0.1,0.1,0.1,44,44,45
174,24.84,0.08,-0.2,-0.09,1012.87,37.09,0.01,0.016,3.71,0.09,0.1,0.1,42,41,39
175,24.9,0.17,-0.12,-0.04,1014.21,37.59,0.023,0.034,3.76,0.1,0.11,0.1,31,43,46
176,24.69,-0.05,-0.02,-0.07,1012.37,38.1,0.007,0.027,3.81,0.1,0.1,0.11,38,43,44
177,25.01,0.1,-0.16,-0.01,1011.35,38.6,0.025,0.038,3.86,0.1,0.1,0.11,33,32,38
178,24.79,-0.03,-0.04,0.14,1012.74,39.1,0.016,0.031,3.91,0.11,0.09,0.09,35,46,35
179,25.02,0.16,-0.13,-0.04,1012.96,39.6,0.016,0.016,3.96,0.09,0.1,0.11,32,30,48
180,25.34,0.09,-0.04,-0.09,1010.92,40.1,0.01,0.038,4.01,0.1,0.09,0.11,31,39,30
181,24.93,0.02,-0.08,0.05,1013.5,40.6,0.02,0.035,4.06,0.09,0.11,0.09,42,34,37
182,24.92,0.05,-0.08,-0.12,1013.86,41.1,0.026,0.034,4.11,0.08,0.08,0.09,30,46,32
183,24.74,0.05,-0.21,0.08,1011.6,41.6,0.022,0.039,4.16,0.1,0.11,0.09,30,43,30
184,24.86,-0.06,0.02,0.11,1013.8,42.11,0.026,0.024,4.21,0.1,0.09,0.1,37,48,46
185,25.09,-0.17,0.08,0.08,1013.0,42.61,0.005,0.042,4.26,0.11,0.11,0.1,31,48,35
186,24.87,0.04,-0.08,-0.03,1011.85,43.11,0.034,0.046,4.31,0.1,0.09,0.08,30,43,31
187,25.24,0.11,0.02,-0.06,1012.47,43.61,0.018,0.043,4.36,0.09,0.12,0.1,35,32,49
188,25.02,-0.02,0.08,0.02,1010.74,44.11,0.028,0.021,4.41,0.1,0.11,0.08,46,40,46
189,24.94,-0.05,-0.07,-0.21,1014.01,44.61,0.017,0.036,4.46,0.1,0.1,0.09,39,39,31
190,24.85,-0.25,0.04,-0.08,1012.47,45.11,0.004,0.033,4.51,0.1,0.1,0.1,42,35,48
191,24.51,0.03,-0.03,-0.13,1013.85,45.61,0.015,0.03,4.56,0.1,0.12,0.1,43,30,30
192,24.96,-0.07,-0.02,0.01,1013.12,46.12,0.019,0.019,4.61,0.1,0.11,0.09,48,38,35
193,25.04,-0.13,-0.17,0.06,1012.33,46.62,0.023,0.033,4.66,0.1,0.11,0.11,38,42,39
194,24.56,-0.01,-0.03,0.04,1015.03,47.12,0.03,0.039,4.71,0.11,0.09,0.11,37,36,44
195,24.6,0.04,-0.15,-0.29,1012.71,47.62,0.018,0.024,4.76,0.11,0.1,0.11,36,40,47
196,24.88,-0.11,0.04,0.03,1014.03,48.12,0.02,0.038,4.81,0.12,0.11,0.11,32,40,45
197,25.17,-0.04,-0.03,-0.06,1012.81,48.62,0.024,0.058,4.86,0.11,0.09,0.11,44,45,38
198,25.25,0.08,-0.05,-0.04,1012.73,49.12,0.027,0.037,4.91,0.1,0.1,0.08,49,45,41
199,24.79,0.26,0.08,0.15,1011.9,49.62,0.012,0.03,4.96,0.09,0.1,0.08,37,49,48
200,24.97,-0.21,-0.06,0.16,1013.88,50.13,0.028,0.008,5.01,0.1,0.11,0.1,44,45,36
201,25.26,-0.08,0.07,0.05,1013.59,50.63,0.02,0.02,5.06,0.11,0.09,0.11,37,43,34
202,24.95,0.06,-0.01,-0.16,1011.75,51.13,0.026,0.019,5.11,0.11,0.09,0.1,36,49,47
203,24.9,0.06,0.09,0.22,1013.01,51.63,0.009,0.046,5.16,0.1,0.11,0.1,34,35,38
204,24.91,-0.07,0.08,0.18,1011.61,52.13,0.035,0.036,5.21,0.12,0.1,0.09,38,41,48
205,24.81,-0.06,0.08,0.03,1012.69,52.63,0.029,0.026,5.26,0.12,0.1,0.09,39,42,35
206,25.02,0.05,-0.02,-0.04,1012.51,53.13,0.025,0.03,5.31,0.11,0.1,0.09,40,41,40
207,24.93,0.17,-0.05,0.18,1013.57,53.63,0.014,0.037,5.36,0.09,0.08,0.1,46,46,31
208,24.97,0.07,-0.11,0.12,1014.45,54.14,0.021,0.028,5.41,0.11,0.11,0.08,31,37,41
209,24.95,0.06,-0.16,0.04,1012.21,54.64,0.012,0.022,5.46,0.1,0.11,0.09,42,44,38
210,24.89,0.06,-0.07,0.04,1012.11,55.14,0.031,0.04,5.51,0.1,0.09,0.11,31,40,48
211,24.84,0.14,0.1,-0.01,1013.95,55.64,0.019,0.033,5.56,0.1,0.1,0.09,37,41,31
212,25.01,-0.14,-0.14,-0.03,1013.22,56.14,0.023,0.034,5.61,0.11,0.09,0.08,46,31,48
213,24.87,0.31,0.16,-0.1,1013.37,56.64,0.029,0.026,5.66,0.09,0.1,0.12,30,47,46
214,25.19,0.07,-0.08,-0.14,1013.43,57.14,0.006,0.032,5.71,0.11,0.09,0.08,49,38,42
215,25.0,0.02,0.0,-0.11,1013.21,57.64,0.031,0.033,5.76,0.07,0.1,0.1,42,49,37
216,25.1,0.02,-0.03,0.08,1012.96,58.15,0.028,0.055,5.81,0.1,0.09,0.09,48,35,38
217,25.47,-0.22,-0.12,0.03,1012.82,58.65,0.026,0.014,5.86,0.09,0.1,0.11,49,33,32
218,24.9,0.01,0.08,0.02,1010.76,59.15,0.027,0.021,5.91,0.09,0.11,0.1,43,48,33
219,24.91,-0.02,0.12,-0.1,1012.26,59.65,0.029,0.04,5.96,0.09,0.1,0.09,47,48,49
220,25.1,-0.05,0.11,-0.21,1012.69,60.15,0.011,0.046,6.02,0.12,0.1,0.11,37,39,36
221,25.55,0.17,0.02,0.07,1011.34,60.65,0.033,0.038,6.07,0.1,0.1,0.12,38,46,31
222,25.41,0.02,-0.17,0.04,1012.43,61.15,0.012,0.031,6.12,0.09,0.09,0.08,43,33,40
223,24.88,0.08,-0.12,-0.07,1013.21,61.65,0.009,0.029,6.17,0.09,0.08,0.1,33,31,39
224,25.12,0.01,-0.06,0.2,1013.07,62.16,0.028,0.021,6.22,0.1,0.11,0.09,30,47,40
225,25.21,-0.02,-0.09,0.08,1012.86,62.66,0.013,0.029,6.27,0.12,0.1,0.09,47,49,30
226,25.27,-0.01,-0.05,-0.13,1014.57,63.16,0.033,0.022,6.32,0.1,0.09,0.12,32,30,42
227,24.7,0.07,0.01,-0.01,1012.96,63.66,0.026,0.034,6.37,0.1,0.11,0.11,46,32,41
228,25.34,-0.04,-0.03,0.12,1013.86,64.16,0.036,0.028,6.42,0.08,0.09,0.08,49,35,33
229,25.1,-0.25,-0.01,-0.09,1010.49,64.66,0.023,0.036,6.47,0.1,0.1,0.1,33,42,40
230,24.86,-0.03,0.01,-0.01,1012.52,65.16,0.023,0.037,6.52,0.1,0.11,0.08,33,38,37
231,24.8,-0.04,-0.25,0.04,1014.37,65.66,0.021,0.033,6.57,0.09,0.09,0.08,36,40,34
232,25.19,-0.03,0.0,-0.08,1013.42,66.17,0.016,0.03,6.62,0.1,0.1,0.1,36,35,36
233,24.94,-0.04,-0.01,0.02,1012.53,66.67,0.023,0.028,6.67,0.08,0.1,0.09,32,36,48
234,25.42,-0.09,-0.17,0.15,1013.09,67.17,0.013,0.027,6.72,0.1,0.1,0.11,43,37,30
235,25.4,-0.04,-0.01,-0.06,1013.32,67.67,0.043,0.004,6.77,0.09,0.09,0.1,41,44,41
236,25.07,-0.13,0.0,-0.03,1011.15,68.17,0.024,0.018,6.82,0.1,0.11,0.09,36,35,49
237,25.19,0.0,0.09,-0.11,1012.35,68.67,0.013,0.024,6.87,0.09,0.1,0.1,38,40,48
238,25.0,0.12,0.05,-0.05,1010.85,69.17,0.025,0.026,6.92,0.09,0.1,0.12,48,40,31
239,25.16,-0.23,-0.03,-0.12,1013.31,69.67,0.031,0.035,6.97,0.1,0.1,0.11,48,40,48
240,25.15,-0.04,0.06,-0.1,1014.09,70.18,0.009,0.039,7.02,0.09,0.12,0.1,31,30,44
241,24.94,-0.15,-0.05,0.12,1012.26,70.68,0.008,0.045,7.07,0.1,0.11,0.11,44,36,45
242,24.9,0.02,-0.08,0.09,1013.07,71.18,0.025,0.019,7.12,0.1,0.08,0.09,36,46,49
243,24.93,0.08,0.17,0.07,1012.83,71.68,0.017,0.028,7.17,0.11,0.1,0.1,43,38,33
244,24.97,0.13,-0.05,-0.04,1012.8,72.18,0.02,0.012,7.22,0.1,0.1,0.11,39,35,40
245,25.09,0.18,-0.01,0.1,1013.53,72.68,0.035,0.039,7.27,0.09,0.09,0.11,43,49,43
246,24.96,-0.04,-0.12,-0.16,1013.58,73.18,0.009,0.036,7.32,0.1,0.1,0.1,49,40,34
247,24.53,-0.08,-0.06,0.04,1013.59,73.68,0.032,0.02,7.37,0.12,0.08,0.1,38,32,42
248,25.04,0.21,-0.08,0.01,1013.07,74.19,0.018,0.022,7.42,0.1,0.09,0.11,40,38,36
249,25.1,0.07,-0.04,0.03,1013.61,74.69,0.025,0.017,7.47,0.1,0.11,0.09,34,45,36
250,24.9,0.0,-0.1,-0.19,1012.18,75.19,0.02,0.032,7.52,0.09,0.1,0.1,30,47,30
251,25.15,-0.06,-0.09,0.01,1013.05,75.69,0.021,0.035,7.57,0.09,0.1,0.1,41,40,30
252,25.14,0.17,0.01,-0.07,1014.39,76.19,0.026,0.017,7.62,0.1,0.11,0.11,49,32,31
253,24.87,0.18,0.01,-0.14,1012.9,76.69,0.01,0.03,7.67,0.1,0.11,0.1,47,45,38
254,24.68,0.06,-0.07,0.18,1015.55,77.19,0.014,0.012,7.72,0.1,0.11,0.11,49,34,40
255,24.93,0.18,-0.03,-0.13,1012.04,77.69,0.037,0.027,7.77,0.12,0.11,0.12,33,37,32
256,24.75,0.01,0.04,-0.1,1011.03,78.2,0.025,0.044,7.82,0.1,0.1,0.1,45,39,47
257,24.81,-0.11,0.07,-0.04,1013.61,78.7,0.031,0.043,7.87,0.09,0.11,0.1,49,35,39
258,25.05,0.09,0.14,-0.02,1012.44,79.2,0.017,0.04,7.92,0.1,0.11,0.1,44,41,40
259,25.17,-0.06,-0.15,-0.1,1011.96,79.7,0.009,0.015,7.97,0.1,0.1,0.09,42,47,44
260,25.03,-0.03,0.06,-0.2,1012.99,80.2,0.017,0.023,8.02,0.11,0.1,0.1,34,49,32
261,25.05,-0.22,0.08,0.02,1013.74,80.7,0.003,0.022,8.07,0.11,0.09,0.1,45,32,36
262,24.82,-0.19,-0.0,0.12,1012.14,81.2,0.002,0.037,8.12,0.09,0.11,0.1,46,43,32
263,24.8,-0.04,0.0,0.1,1012.74,81.7,0.018,0.022,8.17,0.11,0.1,0.11,48,34,35
264,25.29,-0.07,-0.03,0.11,1014.38,82.21,0.019,0.027,8.22,0.09,0.1,0.12,34,47,31
265,24.92,0.03,0.14,0.1,1013.09,82.71,0.021,0.036,8.27,0.1,0.09,0.1,47,31,36
266,25.26,-0.03,-0.06,-0.03,1013.81,83.21,0.018,0.021,8.32,0.12,0.1,0.09,36,40,35
267,24.8,0.04,0.11,-0.02,1011.07,83.71,0.019,0.036,8.37,0.12,0.1,0.11,33,39,33
268,24.88,-0.08,-0.01,-0.14,1014.63,84.21,0.008,0.031,8.42,0.09,0.09,0.08,36,38,45
269,24.85,-0.02,-0.12,-0.14,1014.64,84.71,0.03,0.025,8.47,0.11,0.09,0.09,31,35,42
270,24.88,-0.03,-0.19,0.05,1014.69,85.21,0.025,0.036,8.52,0.11,0.08,0.1,47,30,39
271,24.93,0.01,-0.04,-0.01,1013.64,85.71,0.017,0.024,8.57,0.11,0.1,0.09,36,34,30
272,24.8,0.13,-0.16,-0.11,1011.66,86.22,0.035,0.034,8.62,0.09,0.08,0.09,46,49,49
273,25.15,0.24,-0.01,-0.07,1010.16,86.72,0.021,0.046,8.67,0.1,0.12,0.1,48,48,33
274,25.2,0.05,-0.05,0.08,1012.03,87.22,0.03,0.041,8.72,0.1,0.11,0.11,32,49,46
275,25.19,0.06,-0.04,0.12,1013.39,87.72,0.029,0.024,8.77,0.1,0.11,0.11,39,37,34
276,24.82,0.01,-0.08,-0.03,1012.66,88.22,0.016,0.034,8.82,0.11,0.1,0.1,31,39,40
277,24.7,-0.14,-0.13,0.05,1013.42,88.72,0.016,0.037,8.87,0.1,0.11,0.1,43,38,30
278,24.88,0.05,0.08,-0.07,1013.77,89.22,0.02,0.023,8.92,0.08,0.1,0.09,41,35,35
279,25.09,-0.05,-0.06,-0.05,1011.94,89.72,0.013,0.02,8.97,0.1,0.11,0.1,30,42,45
280,25.01,0.17,0.16,0.11,1011.67,90.23,0.011,0.027,9.02,0.1,0.08,0.11,35,37,41
281,25.0,-0.04,-0.03,-0.06,1011.92,90.73,0.031,0.04,9.07,0.1,0.1,0.1,46,48,38
282,25.1,-0.17,-0.1,-0.07,1012.88,91.23,0.006,0.03,9.12,0.09,0.11,0.1,46,35,49
283,24.98,0.05,0.07,-0.23,1012.57,91.73,0.031,0.017,9.17,0.1,0.1,0.09,33,42,38
284,25.11,-0.07,0.08,0.01,1013.43,92.23,0.013,0.025,9.22,0.09,0.1,0.09,33,43,38
285,24.93,0.03,-0.03,-0.02,1010.99,92.73,0.027,0.022,9.27,0.09,0.1,0.1,36,32,38
286,24.98,-0.01,0.01,0.17,1010.99,93.23,0.016,0.029,9.32,0.1,0.11,0.1,44,34,46
287,24.89,0.1,0.01,-0.08,1011.65,93.73,0.03,0.032,9.37,0.11,0.09,0.1,47,44,43
288,25.05,0.03,0.13,0.08,1013.65,94.24,0.031,0.031,9.42,0.08,0.09,0.11,31,41,32
289,24.92,0.02,0.11,-0.1,1012.8,94.74,0.03,0.02,9.47,0.13,0.09,0.09,37,46,43
290,24.51,-0.05,0.03,0.21,1013.39,95.24,0.016,0.017,9.52,0.09,0.1,0.09,49,48,30
291,25.18,-0.03,-0.08,-0.13,1012.12,95.74,0.029,0.014,9.57,0.1,0.1,0.1,33,32,31
292,25.15,-0.15,0.01,-0.02,1012.74,96.24,0.038,0.033,9.62,0.12,0.09,0.1,49,38,42
293,24.58,0.05,-0.02,-0.11,1012.39,96.74,0.035,0.019,9.67,0.11,0.1,0.07,49,44,49
294,25.14,-0.2,0.1,-0.19,1012.76,97.24,0.023,0.035,9.72,0.1,0.1,0.09,46,47,36
295,25.07,-0.09,0.16,-0.04,1011.23,97.74,0.02,0.03,9.77,0.09,0.1,0.09,37,48,36
296,24.97,0.12,-0.04,-0.04,1012.34,98.25,0.013,0.026,9.82,0.1,0.1,0.09,33,40,31
297,25.21,-0.18,-0.02,0.03,1014.15,98.75,0.025,0.033,9.87,0.1,0.1,0.1,37,30,42
298,25.24,-0.11,0.17,0.06,1012.62,99.25,0.03,0.048,9.92,0.11,0.09,0.1,47,44,45
299,24.82,-0.18,0.01,0.03,1012.8,99.75,0.018,0.027,9.97,0.11,0.1,0.1,31,35,34
300,25.17,-0.04,0.1,0.01,1014.3,100.25,0.024,0.029,10.03,0.11,0.1,0.1,38,46,31
301,25.0,-0.04,-0.05,0.06,1013.93,100.75,0.019,0.045,10.08,0.1,0.12,0.12,31,47,42
302,24.89,0.1,-0.05,0.09,1013.45,101.25,0.014,0.038,10.13,0.09,0.08,0.08,48,34,42
303,25.1,-0.03,-0.14,-0.03,1013.34,101.75,0.027,0.036,10.18,0.11,0.09,0.11,31,39,33
304,24.91,-0.06,0.1,-0.04,1013.85,102.26,0.015,0.04,10.23,0.08,0.1,0.1,42,48,41
305,25.21,0.08,0.01,-0.27,1013.14,102.76,0.018,0.028,10.28,0.1,0.1,0.12,36,34,47
306,25.24,0.02,0.27,0.25,1015.19,103.26,0.013,0.024,10.33,0.1,0.11,0.09,46,49,38
307,24.68,-0.05,-0.05,-0.09,1012.68,103.76,0.015,0.026,10.38,0.1,0.1,0.1,35,43,32
308,24.77,-0.15,0.0,-0.1,1011.91,104.26,0.02,0.012,10.43,0.11,0.1,0.1,31,43,38
309,24.83,0.15,-0.0,-0.04,1012.61,104.76,0.03,0.032,10.48,0.1,0.1,0.11,43,37,39
310,24.99,-0.03,0.11,0.03,1014.44,105.26,0.032,0.036,10.53,0.1,0.11,0.11,48,39,45
311,24.95,-0.05,0.06,-0.02,1012.94,105.76,0.03,0.016,10.58,0.11,0.08,0.1,37,33,35
312,25.06,-0.03,0.0,0.19,1010.32,106.27,0.021,0.052,10.63,0.1,0.09,0.11,30,49,35
313,25.18,-0.16,0.13,0.01,1012.3,106.77,0.02,0.014,10.68,0.09,0.12,0.08,37,47,33
314,25.18,0.12,0.07,-0.07,1013.84,107.27,0.006,0.04,10.73,0.1,0.09,0.09,41,38,38
315,25.08,-0.06,0.06,0.02,1012.92,107.77,0.027,0.033,10.78,0.11,0.09,0.08,41,36,42
316,24.86,0.14,-0.06,0.13,1014.19,108.27,0.018,0.048,10.83,0.07,0.09,0.1,31,33,42
317,25.17,-0.03,0.02,-0.12,1013.13,108.77,0.007,0.02,10.88,0.1,0.08,0.1,36,38,48
318,25.15,-0.07,0.05,0.01,1012.54,109.27,0.021,0.028,10.93,0.1,0.09,0.12,42,46,40
319,25.38,0.05,-0.11,-0.03,1014.31,109.77,0.007,0.039,10.98,0.1,0.1,0.1,34,38,43
320,24.87,0.01,-0.06,0.09,1012.64,110.28,0.025,0.024,11.03,0.11,0.11,0.11,43,43,45
321,24.89,0.02,0.06,0.15,1013.64,110.78,0.047,0.029,11.08,0.09,0.1,0.1,34,33,40
322,24.89,0.08,-0.06,-0.07,1014.08,111.28,0.014,0.025,11.13,0.1,0.11,0.11,48,35,47
323,24.72,-0.01,0.09,-0.03,1012.8,111.78,0.023,0.044,11.18,0.09,0.12,0.09,42,30,49
324,25.03,0.09,0.12,0.14,1012.85,112.28,0.039,0.038,11.23,0.08,0.1,0.09,43,37,49
325,24.82,-0.1,-0.06,-0.06,1013.09,112.78,0.033,0.017,11.28,0.1,0.08,0.08,38,35,31
326,25.0,0.05,0.11,-0.08,1012.52,113.28,0.032,0.041,11.33,0.09,0.1,0.1,41,46,46
327,25.13,0.11,0.08,0.04,1010.8,113.78,0.008,0.024,11.38,0.12,0.09,0.1,36,38,42
328,25.44,0.02,0.01,-0.06,1013.99,114.29,0.045,0.029,11.43,0.1,0.11,0.1,47,48,43
329,24.79,0.08,-0.06,0.05,1012.58,114.79,0.023,0.036,11.48,0.11,0.08,0.1,46,49,34
330,25.08,-0.1,0.08,-0.01,1010.93,115.29,0.017,0.035,11.53,0.12,0.11,0.09,43,39,38
331,25.18,-0.05,0.01,-0.04,1014.74,115.79,0.027,0.03,11.58,0.1,0.1,0.08,31,43,38
332,24.93,0.09,-0.12,-0.02,1014.14,116.29,0.021,0.022,11.63,0.11,0.11,0.09,37,45,49
333,24.81,0.17,0.07,-0.06,1012.66,116.79,0.037,0.033,11.68,0.09,0.1,0.1,46,40,36
334,24.86,-0.03,0.0,0.05,1012.55,117.29,0.029,0.017,11.73,0.11,0.08,0.1,41,49,38
335,25.14,-0.09,-0.0,-0.11,1015.84,117.79,0.019,0.023,11.78,0.1,0.1,0.1,32,43,45
336,25.02,-0.03,-0.04,0.19,1013.59,118.3,0.015,0.024,11.83,0.08,0.08,0.09,43,47,32
337,25.08,0.13,-0.04,0.04,1014.09,118.8,0.027,0.03,11.88,0.1,0.09,0.1,42,47,45
338,24.64,-0.04,-0.07,0.06,1012.45,119.3,0.014,0.037,11.93,0.11,0.1,0.08,34,34,37
339,25.17,0.01,-0.21,0.1,1013.68,119.8,0.018,0.03,11.98,0.11,0.09,0.1,34,32,41
340,24.99,-0.13,-0.07,0.15,1011.59,120.3,0.008,0.026,12.03,0.11,0.1,0.1,40,45,30
341,25.15,0.02,-0.0,-0.12,1012.46,120.8,0.006,0.027,12.08,0.11,0.09,0.1,36,30,37
342,25.29,-0.19,0.1,-0.05,1013.46,121.3,0.018,0.033,12.13,0.09,0.1,0.1,43,37,46
343,24.98,0.09,0.05,-0.23,1012.05,121.8,0.012,0.033,12.18,0.1,0.09,0.11,39,32,37
344,25.12,0.12,0.0,0.06,1011.86,122.31,0.025,0.013,12.23,0.12,0.1,0.11,41,45,47
345,24.76,-0.12,0.14,-0.07,1013.7,122.81,0.014,0.037,12.28,0.11,0.1,0.08,32,34,34
346,25.04,-0.03,0.07,0.02,1011.32,123.31,0.033,0.045,12.33,0.1,0.11,0.09,43,40,38
347,24.69,0.1,0.0,-0.13,1013.66,123.81,0.024,0.014,12.38,0.1,0.1,0.09,37,45,45
348,24.82,0.05,0.23,-0.05,1012.87,124.31,0.017,0.04,12.43,0.09,0.11,0.1,30,33,38
349,25.41,0.09,-0.17,0.03,1013.2,124.81,0.006,0.023,12.48,0.09,0.1,0.11,42,38,33
350,25.21,-0.08,-0.04,-0.04,1011.89,125.31,0.006,0.023,12.53,0.09,0.1,0.1,47,39,45
351,25.07,-0.01,-0.03,-0.06,1012.26,125.81,0.023,0.022,12.58,0.11,0.1,0.13,31,46,33
352,25.05,0.11,0.12,-0.04,1014.56,126.32,0.036,0.038,12.63,0.11,0.1,0.1,42,44,33
353,24.91,-0.15,0.07,-0.11,1013.44,126.82,0.025,0.02,12.68,0.09,0.1,0.09,33,37,45
354,24.88,0.03,-0.04,0.05,1013.1,127.32,0.03,0.037,12.73,0.1,0.08,0.11,30,39,31
355,24.81,-0.02,0.03,0.08,1012.28,127.82,0.022,0.035,12.78,0.11,0.11,0.09,36,34,35
356,24.82,0.24,0.03,0.13,1012.18,128.32,0.017,0.01,12.83,0.11,0.11,0.11,44,36,35
357,25.24,-0.03,-0.23,0.12,1012.63,128.82,0.004,0.045,12.88,0.09,0.1,0.1,32,33,34
358,24.91,0.03,0.09,-0.03,1013.22,129.32,0.003,0.035,12.93,0.12,0.1,0.1,48,38,35
359,25.12,0.14,0.1,0.02,1014.07,129.82,0.023,0.021,12.98,0.09,0.11,0.11,37,47,31
360,25.13,0.13,-0.15,0.08,1012.56,130.33,0.032,0.015,13.03,0.11,0.1,0.1,30,39,37
361,24.77,0.02,-0.02,0.21,1011.84,130.83,0.016,0.035,13.08,0.1,0.12,0.1,35,43,33
362,24.86,-0.08,-0.08,-0.04,1013.2,131.33,0.011,0.028,13.13,0.09,0.11,0.1,30,43,39
363,24.8,0.08,0.18,0.06,1014.42,131.83,0.005,0.025,13.18,0.11,0.1,0.1,48,46,34
364,25.05,0.08,0.04,0.0,1012.93,132.33,0.016,0.034,13.23,0.1,0.12,0.11,32,48,45
365,24.69,0.07,-0.05,-0.13,1012.23,132.83,0.02,0.031,13.28,0.11,0.11,0.1,46,40,32
366,24.75,0.0,-0.06,-0.05,1013.09,133.33,0.044,0.035,13.33,0.1,0.13,0.09,45,42,41
367,24.83,-0.12,0.0,0.01,1012.58,133.83,0.023,0.021,13.38,0.1,0.08,0.11,37,41,36
368,25.18,0.01,0.12,-0.13,1011.28,134.34,0.014,0.03,13.43,0.08,0.12,0.11,48,44,48
369,24.79,-0.12,-0.12,0.16,1013.45,134.84,0.026,0.037,13.48,0.09,0.09,0.09,46,41,49
370,24.77,-0.1,0.07,0.04,1013.91,135.34,0.011,0.022,13.53,0.08,0.08,0.1,40,44,48
371,24.84,0.06,-0.14,0.16,1011.94,135.84,0.014,0.036,13.58,0.11,0.11,0.11,49,43,36
372,25.05,-0.05,-0.05,0.08,1010.93,136.34,0.027,0.043,13.63,0.1,0.11,0.12,43,37,48
373,25.03,0.02,0.03,-0.2,1014.06,136.84,0.025,0.031,13.68,0.1,0.07,0.1,41,45,32
374,25.26,-0.21,0.08,0.01,1010.75,137.34,0.01,0.032,13.73,0.09,0.11,0.11,43,40,36
375,25.12,-0.28,0.27,0.01,1011.37,137.84,0.011,0.029,13.78,0.09,0.08,0.09,38,41,44
376,24.98,0.02,-0.07,0.12,1015.67,138.35,0.037,0.026,13.83,0.1,0.09,0.11,33,49,49
377,25.04,0.02,-0.04,-0.06,1012.06,138.85,0.007,0.013,13.88,0.1,0.09,0.1,41,41,45
378,25.26,0.03,-0.01,-0.01,1014.6,139.35,0.02,0.037,13.93,0.09,0.11,0.11,47,36,35
379,24.88,0.04,-0.01,0.2,1012.19,139.85,0.026,0.045,13.98,0.1,0.11,0.1,44,46,30
380,25.11,-0.09,-0.03,-0.06,1012.01,140.35,0.03,0.009,14.04,0.09,0.1,0.1,35,32,47
381,24.87,-0.01,0.0,0.06,1012.9,140.85,0.027,0.041,14.09,0.09,0.11,0.1,47,31,44
382,24.81,0.06,0.08,0.27,1015.2,141.35,0.021,0.037,14.14,0.12,0.11,0.1,43,31,49
383,25.2,0.07,-0.02,0.09,1013.4,141.85,0.018,0.055,14.19,0.08,0.09,0.1,36,40,42
384,24.96,0.16,-0.03,-0.07,1014.27,142.36,0.02,0.01,14.24,0.11,0.08,0.09,32,34,41
385,24.56,-0.14,0.07,0.07,1012.4,142.86,0.036,0.034,14.29,0.1,0.09,0.09,43,48,44
386,24.88,0.2,-0.02,-0.02,1013.23,143.36,0.023,0.023,14.34,0.11,0.12,0.1,47,39,42
387,24.92,0.01,-0.03,-0.17,1012.02,143.86,0.011,0.03,14.39,0.1,0.08,0.1,33,31,42
388,25.04,-0.02,0.04,-0.02,1013.19,144.36,0.028,0.03,14.44,0.09,0.11,0.09,45,33,42
389,24.9,-0.02,-0.09,-0.02,1011.4,144.86,0.027,0.015,14.49,0.1,0.1,0.1,41,40,37
390,25.29,-0.08,0.15,-0.06,1012.75,145.36,0.004,0.023,14.54,0.09,0.09,0.12,49,34,44
391,25.17,0.19,-0.22,-0.13,1012.88,145.86,0.018,0.037,14.59,0.11,0.11,0.1,36,45,37
392,24.99,0.22,-0.13,0.07,1014.96,146.37,0.016,0.042,14.64,0.1,0.11,0.09,43,33,43
393,24.99,-0.03,0.07,-0.03,1012.03,146.87,0.019,0.028,14.69,0.09,0.08,0.1,41,36,43
394,25.09,0.16,0.03,-0.07,1012.95,147.37,0.016,0.031,14.74,0.1,0.11,0.09,37,47,31
395,24.75,-0.11,-0.07,0.08,1011.59,147.87,0.004,0.027,14.79,0.11,0.11,0.11,44,34,31
396,25.19,-0.08,0.07,0.07,1012.11,148.37,0.024,0.027,14.84,0.11,0.1,0.11,32,49,43
397,24.94,0.04,-0.09,0.17,1013.34,148.87,0.014,0.036,14.89,0.09,0.11,0.1,49,39,31
398,25.02,-0.21,0.01,0.1,1013.56,149.37,0.029,0.035,14.94,0.11,0.1,0.1,46,44,33
399,25.17,-0.03,-0.08,0.08,1013.69,149.87,0.032,0.047,14.99,0.1,0.1,0.1,45,31,43
400,24.79,-0.0,-0.14,0.11,1012.25,150.38,0.012,0.019,15.04,0.1,0.09,0.1,46,44,34
401,25.04,-0.03,0.04,-0.06,1014.13,150.88,0.013,0.016,15.09,0.08,0.09,0.1,30,32,44
402,25.25,-0.04,-0.02,-0.1,1012.58,151.38,0.035,0.026,15.14,0.1,0.09,0.08,36,37,37
403,24.9,-0.04,0.01,-0.16,1013.97,151.88,0.021,0.035,15.19,0.1,0.08,0.1,44,40,33
404,24.92,0.04,0.0,0.04,1012.6,152.38,0.018,0.028,15.24,0.09,0.08,0.09,37,47,40
405,25.07,0.22,0.1,-0.07,1012.84,152.88,0.052,0.032,15.29,0.09,0.11,0.09,43,35,46
406,24.91,-0.19,-0.04,-0.02,1012.84,153.38,0.014,0.033,15.34,0.1,0.11,0.11,41,44,31
407,24.96,-0.08,-0.08,-0.24,1013.86,153.88,0.01,0.034,15.39,0.09,0.11,0.1,37,34,32
408,25.22,-0.1,-0.02,-0.08,1013.81,154.39,0.016,0.029,15.44,0.1,0.1,0.09,35,49,34
409,25.0,-0.01,0.01,-0.0,1013.91,154.89,0.016,0.028,15.49,0.1,0.09,0.1,45,32,37
410,24.81,-0.01,-0.13,0.05,1014.2,155.39,0.028,0.044,15.54,0.1,0.1,0.11,41,32,47
411,25.0,-0.04,-0.1,-0.07,1011.86,155.89,0.018,0.016,15.59,0.1,0.1,0.1,48,32,36
412,25.08,0.07,-0.07,-0.06,1013.47,156.39,0.016,0.037,15.64,0.1,0.09,0.1,39,43,44
413,25.25,-0.08,0.1,-0.17,1012.92,156.89,0.03,0.03,15.69,0.08,0.1,0.1,34,39,35
414,25.24,-0.06,0.12,-0.09,1012.51,157.39,0.027,0.03,15.74,0.09,0.09,0.1,46,36,41
415,24.74,0.04,-0.13,-0.04,1012.74,157.89,0.014,0.025,15.79,0.1,0.1,0.1,31,41,44
416,25.2,0.07,-0.07,-0.14,1012.0,158.4,0.019,0.027,15.84,0.1,0.1,0.1,32,34,46
417,24.93,0.08,-0.05,0.15,1012.48,158.9,0.025,0.03,15.89,0.08,0.1,0.08,49,33,45
418,25.0,0.04,0.05,0.11,1013.49,159.4,0.043,0.029,15.94,0.1,0.1,0.1,33,34,45
419,24.97,-0.12,0.09,-0.04,1014.56,159.9,0.024,0.025,15.99,0.11,0.12,0.07,47,38,39
420,24.88,0.03,-0.02,-0.07,1011.81,160.4,0.03,0.03,16.04,0.11,0.11,0.1,32,35,42
421,24.74,-0.07,-0.01,-0.03,1013.12,160.9,0.002,0.03,16.09,0.1,0.09,0.1,43,39,32
422,25.36,-0.02,0.07,0.17,1012.48,161.4,0.006,0.03,16.14,0.11,0.1,0.09,49,42,39
423,24.79,-0.11,-0.11,-0.07,1012.17,161.9,0.025,0.015,16.19,0.12,0.08,0.11,47,46,36
424,25.07,0.09,-0.16,0.08,1014.38,162.41,0.014,0.033,16.24,0.12,0.1,0.11,44,42,46
425,24.87,0.15,-0.06,-0.05,1014.54,162.91,0.032,0.027,16.29,0.12,0.1,0.1,41,32,45
426,24.92,0.19,-0.07,-0.08,1011.76,163.41,0.04,0.01,16.34,0.09,0.1,0.1,41,35,35
427,25.52,0.13,0.04,0.16,1013.01,163.91,0.032,0.02,16.39,0.09,0.11,0.1,32,47,31
428,24.84,0.02,-0.03,-0.01,1012.14,164.41,0.029,0.032,16.44,0.1,0.1,0.1,38,39,38
429,25.15,0.05,0.01,-0.05,1013.16,164.91,0.009,0.033,16.49,0.11,0.12,0.11,30,38,40
430,25.0,-0.11,-0.06,-0.17,1012.36,165.41,0.029,0.026,16.54,0.11,0.1,0.1,49,30,47
431,25.15,-0.14,0.13,-0.09,1013.43,165.91,0.032,0.043,16.59,0.1,0.1,0.1,36,35,39
432,25.07,-0.05,0.07,-0.2,1011.62,166.42,0.016,0.025,16.64,0.1,0.09,0.1,32,39,33
433,24.75,0.11,-0.01,-0.02,1012.41,166.92,0.012,0.053,16.69,0.1,0.09,0.12,33,31,45
434,24.84,-0.04,0.09,0.02,1011.08,167.42,0.011,0.017,16.74,0.1,0.11,0.11,32,42,43
435,24.85,0.04,0.11,0.1,1012.54,167.92,0.033,0.045,16.79,0.11,0.1,0.08,40,46,38
436,25.03,-0.03,-0.18,0.05,1012.84,168.42,0.022,0.041,16.84,0.11,0.09,0.09,46,31,49
437,25.02,0.12,-0.02,0.14,1010.67,168.92,0.033,0.03,16.89,0.11,0.11,0.09,40,36,38
438,25.08,0.13,0.1,-0.03,1013.27,169.42,0.043,0.022,16.94,0.12,0.1,0.11,47,36,32
439,25.07,0.14,0.11,0.08,1013.46,169.92,0.022,0.019,16.99,0.12,0.1,0.11,46,31,35
440,25.11,0.13,0.0,-0.06,1013.45,170.43,0.011,0.019,17.04,0.11,0.09,0.1,46,32,38
441,24.97,-0.09,-0.21,0.01,1012.78,170.93,-0.002,0.024,17.09,0.09,0.1,0.11,34,40,45
442,25.32,-0.05,-0.25,0.1,1012.46,171.43,0.016,0.037,17.14,0.09,0.09,0.11,39,49,40
443,25.07,0.03,0.19,0.01,1012.64,171.93,0.008,0.032,17.19,0.09,0.11,0.07,38,31,32
444,24.81,0.02,0.02,-0.01,1013.99,172.43,0.005,0.024,17.24,0.1,0.11,0.1,42,47,30
445,25.02,0.15,-0.01,-0.04,1015.04,172.93,0.011,0.052,17.29,0.1,0.1,0.11,30,32,33
446,25.02,-0.07,-0.02,-0.11,1011.8,173.43,0.015,0.059,17.34,0.09,0.1,0.12,45,31,33
447,25.04,-0.15,-0.08,0.1,1012.61,173.93,0.03,0.034,17.39,0.11,0.1,0.1,34,37,38
448,24.86,-0.03,-0.1,-0.06,1013.45,174.44,0.026,0.035,17.44,0.1,0.11,0.12,40,30,40
449,25.01,0.08,-0.12,0.0,1014.56,174.94,0.042,0.005,17.49,0.1,0.1,0.1,44,35,43
450,24.84,0.0,-0.06,-0.05,1013.13,175.44,0.034,0.02,17.54,0.09,0.09,0.1,49,46,42
451,24.66,-0.02,0.01,0.05,1011.55,175.94,0.015,0.014,17.59,0.1,0.11,0.12,49,40,31
452,25.25,-0.09,-0.02,0.07,1013.84,176.44,0.024,0.017,17.64,0.1,0.1,0.11,38,40,42
453,25.25,0.16,0.03,-0.02,1013.66,176.94,0.018,0.045,17.69,0.11,0.1,0.12,49,38,44
454,24.99,-0.08,0.1,-0.1,1014.63,177.44,0.032,0.013,17.74,0.09,0.1,0.1,40,34,33
455,24.92,0.1,-0.06,-0.06,1011.9,177.94,0.016,0.051,17.79,0.08,0.08,0.1,31,41,32
456,24.84,-0.16,-0.06,-0.18,1012.16,178.45,0.022,0.038,17.84,0.09,0.09,0.11,39,48,37
457,25.36,0.04,-0.05,-0.08,1012.65,178.95,0.019,0.035,17.89,0.1,0.11,0.1,31,38,40
458,24.9,0.08,0.1,-0.02,1010.9,179.45,0.033,0.013,17.94,0.08,0.11,0.1,46,41,34
459,24.85,-0.03,0.06,-0.04,1015.75,179.95,0.013,0.021,17.99,0.09,0.1,0.1,42,35,41
460,25.12,-0.1,-0.01,0.04,1012.66,180.45,0.007,0.016,18.05,0.12,0.08,0.11,37,46,40
461,24.6,-0.11,0.08,0.15,1012.44,180.95,0.015,0.037,18.1,0.09,0.1,0.11,30,31,42
462,25.33,0.24,-0.16,0.06,1013.81,181.45,-0.004,0.058,18.15,0.1,0.11,0.1,43,37,44
463,24.78,0.01,0.01,0.0,1012.26,181.95,0.037,0.032,18.2,0.09,0.1,0.1,31,36,30
464,25.02,0.12,-0.06,0.12,1012.78,182.46,0.019,0.041,18.25,0.1,0.1,0.09,37,38,45
465,25.19,0.01,-0.11,0.09,1012.76,182.96,0.022,0.017,18.3,0.11,0.09,0.11,44,47,42
466,25.02,0.03,0.23,0.04,1013.94,183.46,0.023,0.05,18.35,0.09,0.12,0.1,43,43,31
467,24.98,0.17,-0.21,0.06,1012.12,183.96,0.023,0.025,18.4,0.11,0.1,0.08,40,30,36
468,24.95,-0.04,0.05,-0.11,1013.84,184.46,0.027,0.026,18.45,0.11,0.11,0.1,35,44,43
469,25.3,-0.11,-0.03,0.07,1013.64,184.96,0.023,0.029,18.5,0.1,0.1,0.11,45,33,46
470,24.97,-0.06,0.04,-0.0,1014.92,185.46,0.026,0.042,18.55,0.11,0.09,0.09,37,49,49
471,24.99,0.02,0.0,0.14,1012.11,185.96,0.02,0.028,18.6,0.1,0.09,0.1,35,44,36
472,25.03,-0.24,0.06,0.07,1011.46,186.47,0.012,0.048,18.65,0.09,0.1,0.11,33,38,40
473,25.0,0.03,0.01,-0.18,1014.52,186.97,0.006,0.03,18.7,0.1,0.09,0.11,39,48,34
474,24.7,0.06,-0.12,0.19,1012.0,187.47,0.02,0.035,18.75,0.09,0.1,0.11,49,37,47
475,24.97,0.03,0.03,-0.02,1011.48,187.97,0.012,0.032,18.8,0.1,0.1,0.1,33,39,34
476,25.23,0.15,0.02,0.04,1011.83,188.47,0.015,0.027,18.85,0.1,0.11,0.11,46,43,42
477,24.76,-0.05,0.11,-0.0,1012.47,188.97,0.028,0.044,18.9,0.1,0.1,0.11,39,41,42
478,25.12,-0.18,-0.01,-0.23,1013.23,189.47,0.014,0.033,18.95,0.1,0.1,0.12,46,30,37
479,25.12,-0.1,0.12,-0.23,1013.73,189.97,0.009,0.028,19.0,0.11,0.1,0.1,34,37,33
480,25.33,-0.06,-0.24,0.1,1013.35,190.48,0.021,0.028,19.05,0.1,0.11,0.11,46,31,45
481,25.1,-0.14,0.18,-0.14,1011.37,190.98,0.015,0.005,19.1,0.1,0.1,0.12,44,35,33
482,24.73,0.01,-0.01,-0.1,1012.71,191.48,0.021,0.025,19.15,0.09,0.09,0.09,46,48,42
483,25.29,-0.06,0.01,0.03,1011.85,191.98,0.016,0.011,19.2,0.1,0.1,0.1,30,49,36
484,25.07,0.04,0.13,-0.01,1012.04,192.48,0.015,0.06,19.25,0.09,0.1,0.09,42,33,41
485,24.88,0.12,-0.16,0.01,1012.62,192.98,0.029,0.024,19.3,0.12,0.13,0.09,48,34,48
486,24.92,0.14,-0.17,-0.01,1012.33,193.48,0.012,0.039,19.35,0.12,0.12,0.09,43,30,49
487,25.25,0.12,0.14,-0.11,1013.17,193.98,0.024,0.038,19.4,0.1,0.11,0.12,44,36,35
488,24.83,0.04,-0.15,0.09,1013.64,194.49,0.024,0.023,19.45,0.09,0.09,0.09,48,44,36
489,25.37,-0.0,0.18,-0.05,1012.47,194.99,0.011,0.021,19.5,0.11,0.09,0.11,45,36,48
490,24.76,0.15,-0.03,0.09,1015.2,195.49,0.021,0.031,19.55,0.11,0.09,0.1,36,37,46
491,24.83,-0.08,0.02,-0.08,1013.03,195.99,0.039,0.039,19.6,0.09,0.1,0.1,36,30,40
492,24.92,-0.13,0.13,-0.15,1011.09,196.49,0.033,0.024,19.65,0.11,0.1,0.11,33,40,32
493,24.67,0.03,-0.11,-0.2,1014.97,196.99,0.037,0.029,19.7,0.09,0.1,0.11,34,34,42
494,25.28,-0.02,-0.14,-0.13,1014.59,197.49,0.027,0.006,19.75,0.13,0.1,0.09,39,31,39
495,25.18,-0.01,-0.11,-0.06,1012.76,197.99,0.029,0.027,19.8,0.1,0.09,0.1,42,33,38
496,24.9,0.05,-0.19,0.04,1011.08,198.5,0.002,0.031,19.85,0.13,0.09,0.1,39,31,37
497,24.66,-0.29,0.02,0.02,1014.1,199.0,0.028,0.028,19.9,0.09,0.1,0.1,33,47,47
498,25.17,-0.05,0.07,0.08,1011.49,199.5,0.014,0.027,19.95,0.1,0.09,0.09,35,42,49
499,25.33,-0.04,0.06,-0.04,1015.35,200.0,0.024,0.024,20.0,0.09,0.1,0.09,30,48,33
