Timestamp,Temperature,Roll,Pitch,Yaw,Pressure,Altitude,Ax,Ay,Az,Gx,Gy,Gz,Mx,My,Mz
0,24.96,-1.88,-0.48,0.91,101305.57,0.0,0.07,-0.09,9.45,0.04,-0.03,0.03,26.34,-3.56,45.25
1,24.6,-2.8,-0.92,-2.81,101343.46,1.01,-0.11,0.05,9.95,0.06,0.04,-0.13,26.16,-3.52,40.89
2,25.94,0.92,-4.05,3.71,101338.37,2.02,-0.21,0.31,9.84,0.14,-0.12,-0.02,36.1,-11.89,39.75
3,24.27,0.99,4.13,1.29,101328.75,3.03,0.14,0.04,9.75,0.03,0.24,0.08,27.94,-19.32,42.89
4,26.34,0.88,-3.93,-0.02,101296.79,4.04,-0.12,0.42,9.83,-0.15,-0.06,0.11,32.44,-14.66,41.18
5,25.13,-1.75,0.21,-0.05,101300.14,5.05,-0.01,-0.14,9.72,-0.06,0.04,-0.08,27.66,-10.35,43.31
6,24.83,2.44,-2.06,1.63,101343.36,6.06,0.38,0.02,9.68,0.03,-0.23,-0.09,29.38,-9.64,44.25
7,24.67,1.01,-2.61,-0.15,101337.18,7.07,-0.02,-0.08,9.62,0.05,0.01,-0.12,24.35,-9.38,44.79
8,24.65,-0.49,-3.1,0.5,101302.49,8.08,-0.33,-0.25,9.55,-0.1,0.08,-0.07,30.97,-18.68,38.47
9,26.26,-3.0,0.13,2.19,101337.26,9.09,0.06,0.03,9.84,-0.07,0.1,-0.18,21.72,-10.1,42.23
10,25.21,0.51,-0.05,0.66,101353.97,10.1,0.15,0.45,9.98,-0.09,0.09,0.05,34.34,0.05,32.88
11,26.45,-0.14,-0.56,-0.0,101310.97,11.11,0.26,0.19,9.71,0.14,-0.12,0.01,37.13,-8.92,36.31
12,24.99,1.34,-0.98,-2.46,101340.13,12.12,0.01,0.13,9.69,0.08,-0.1,0.21,23.04,-10.1,33.06
13,24.69,-2.57,-4.55,-1.76,101308.73,13.13,-0.12,-0.03,9.98,0.15,-0.05,0.02,31.92,-9.93,33.53
14,24.0,-1.22,1.69,1.57,101343.09,14.14,0.1,0.29,10.37,-0.0,0.02,0.26,28.44,-17.19,46.18
15,24.59,-0.42,1.39,-2.49,101340.99,15.15,0.15,0.02,9.74,0.06,0.0,0.11,23.96,-17.42,31.81
16,25.16,0.47,0.79,2.3,101300.45,16.16,0.06,-0.27,9.49,-0.1,0.08,0.12,27.57,-13.2,40.07
17,25.28,-2.91,-1.34,0.21,101274.04,17.17,-0.04,-0.15,9.93,0.22,-0.08,0.06,35.67,-12.45,39.58
18,25.0,3.02,-0.69,-0.19,101278.99,18.18,-0.07,0.34,9.6,-0.08,0.02,0.07,24.26,-7.57,42.4
19,24.24,-5.64,1.82,2.83,101325.27,19.19,0.23,-0.25,10.13,-0.06,0.06,-0.12,28.56,-6.68,32.35
20,25.06,1.04,3.52,-0.66,101309.67,20.2,0.09,-0.5,9.88,0.14,0.04,-0.09,27.89,-1.75,40.29
21,25.25,-0.38,-1.67,0.34,101303.64,21.21,-0.06,0.17,9.6,-0.0,-0.07,0.18,39.41,-11.87,40.25
22,25.63,1.22,1.58,-1.5,101292.47,22.22,-0.22,0.02,9.65,0.03,-0.03,-0.03,30.38,-8.33,41.28
23,25.19,1.4,-3.18,2.48,101299.11,23.23,0.07,0.02,9.79,-0.04,-0.1,-0.06,31.67,-10.92,34.15
24,25.33,1.67,0.26,3.18,101328.9,24.24,-0.17,0.07,9.82,0.06,0.0,0.14,28.11,-4.87,34.81
25,25.79,0.25,-4.64,1.4,101317.46,25.25,0.06,0.13,9.71,0.02,0.09,0.05,29.5,-8.05,33.46
26,24.82,-0.07,-0.61,-2.47,101327.88,26.26,0.01,0.15,9.81,0.01,0.07,0.08,33.99,-11.69,34.62
27,25.33,1.9,2.76,-0.72,101310.36,27.27,0.29,0.11,9.76,0.13,0.25,0.13,30.8,-13.01,38.54
28,24.75,-0.42,1.2,-0.99,101297.8,28.28,-0.01,-0.42,9.82,0.08,-0.11,0.03,24.93,-14.78,33.96
29,25.92,-0.18,3.57,-3.43,101329.89,29.29,-0.08,-0.24,9.9,-0.18,0.04,-0.01,21.51,-13.37,36.43
30,25.41,0.92,3.11,0.65,101292.98,30.3,0.3,-0.05,9.94,0.07,-0.04,0.15,34.24,-3.93,44.46
31,24.69,1.25,1.36,1.41,101303.47,31.31,-0.13,0.31,9.86,-0.26,-0.17,-0.07,37.73,-9.14,34.95
32,25.27,1.99,0.39,-1.91,101309.69,32.32,0.17,-0.22,9.72,-0.18,-0.04,0.01,19.74,-12.65,36.72
33,23.83,-1.76,-1.38,-1.51,101313.89,33.33,-0.22,0.15,9.45,-0.2,-0.05,-0.0,30.96,-8.59,38.99
34,24.42,0.35,-1.49,-2.33,101302.77,34.34,0.03,-0.41,9.84,-0.01,-0.09,0.05,32.98,-8.51,40.93
35,24.33,-2.07,-1.62,3.53,101273.63,35.35,0.27,-0.15,9.67,-0.06,-0.1,-0.1,35.16,-13.24,38.61
36,25.89,2.8,0.95,-2.22,101339.76,36.36,-0.26,-0.05,9.72,-0.04,-0.15,0.04,22.33,-12.21,37.71
37,24.83,0.98,-0.28,4.24,101290.36,37.37,-0.02,-0.19,9.77,-0.21,-0.01,0.02,24.93,-12.95,48.71
38,25.23,-0.03,1.32,-2.05,101314.09,38.38,-0.12,0.16,9.97,-0.02,-0.02,-0.08,25.39,-11.84,39.02
39,24.16,1.45,-3.63,-0.2,101286.82,39.39,-0.38,-0.22,9.86,-0.02,-0.14,0.1,27.78,-2.15,44.49
40,25.38,-2.91,2.04,-2.08,101282.92,40.4,0.44,-0.35,9.94,-0.03,-0.01,-0.2,36.39,-10.84,40.79
41,25.06,-1.47,-1.47,1.45,101327.38,41.41,0.16,0.23,9.38,0.03,-0.01,0.05,29.67,-11.71,34.37
42,25.82,-3.42,-2.69,-1.09,101270.71,42.42,-0.43,0.21,9.85,-0.04,0.17,-0.11,21.37,-7.7,38.76
43,26.12,-2.52,-1.87,1.36,101286.84,43.43,0.21,-0.15,9.81,-0.06,0.11,-0.03,31.96,-7.64,41.44
44,25.16,0.09,3.93,-2.73,101308.38,44.44,-0.12,-0.0,10.17,-0.06,-0.01,-0.06,38.19,-11.8,31.18
45,25.83,-1.73,0.51,-0.84,101280.13,45.45,0.14,-0.36,9.85,-0.04,0.08,-0.08,29.34,-4.35,45.06
46,24.2,-0.35,-1.24,-1.33,101310.53,46.46,0.0,-0.1,10.0,-0.09,0.03,-0.05,37.01,-12.83,39.18
47,24.95,-2.77,2.89,0.28,101336.6,47.47,0.02,-0.07,9.29,0.16,-0.14,-0.06,31.37,-7.06,35.09
48,23.95,-1.08,-1.77,1.44,101300.83,48.48,-0.15,0.06,10.03,0.12,-0.04,-0.1,26.9,-11.91,27.14
49,25.42,0.91,-0.41,-0.02,101240.08,49.49,0.1,-0.39,9.79,0.08,-0.21,0.09,30.02,-5.79,40.71
50,25.61,0.36,0.17,-1.21,101305.64,50.51,-0.15,-0.0,10.26,-0.07,-0.11,-0.14,23.32,-14.09,39.61
51,24.68,3.54,-0.0,3.64,101290.51,51.52,0.11,-0.21,9.99,0.0,0.08,0.09,24.63,-9.5,43.84
52,25.11,-0.29,-4.15,-1.61,101306.32,52.53,-0.17,0.05,9.45,-0.06,-0.13,-0.06,25.95,-15.58,44.15
53,24.76,-1.38,5.29,3.06,101276.39,53.54,-0.22,-0.17,10.02,-0.08,-0.02,0.02,36.73,-13.74,36.57
54,25.04,2.37,0.88,0.62,101304.74,54.55,0.08,0.0,9.74,-0.06,0.0,-0.02,30.78,-14.06,41.51
55,26.34,2.91,2.54,-1.84,101300.46,55.56,0.13,-0.09,9.7,-0.3,0.0,-0.01,32.17,-12.03,36.13
56,25.16,1.23,-1.85,2.29,101287.16,56.57,-0.28,-0.05,9.73,-0.06,0.04,0.07,25.82,-10.12,33.39
57,24.81,0.52,1.21,-0.52,101290.6,57.58,-0.36,-0.02,9.56,-0.21,0.12,-0.0,33.7,-4.47,32.2
58,24.3,2.98,-2.11,-1.93,101267.62,58.59,-0.17,-0.14,9.59,-0.1,0.09,-0.09,31.89,-0.33,36.51
59,25.79,-0.44,0.41,-0.23,101272.37,59.6,-0.17,0.23,9.75,0.06,0.11,-0.06,31.48,-8.84,34.44
60,25.93,0.0,1.99,-2.63,101318.07,60.61,-0.17,0.24,9.73,-0.03,0.08,0.05,28.98,-6.11,41.67
61,25.3,-1.06,-0.51,-1.44,101311.89,61.62,-0.08,0.12,9.69,0.23,-0.15,0.14,35.41,-12.4,45.1
62,25.12,-0.4,3.29,1.88,101317.93,62.63,0.07,0.21,10.05,-0.2,0.01,-0.06,28.07,-13.29,34.11
63,24.32,0.53,3.72,-1.38,101321.87,63.64,-0.2,-0.29,9.95,0.01,-0.05,0.01,29.83,-2.74,39.97
64,25.48,-1.46,0.11,2.06,101256.93,64.65,0.12,-0.29,10.14,0.05,0.15,0.23,29.43,-2.76,48.05
65,25.2,-0.74,1.23,-1.21,101281.32,65.66,-0.17,0.28,10.16,-0.01,-0.11,-0.02,28.8,-7.39,45.63
66,24.2,4.23,-1.44,0.88,101317.28,66.67,0.04,0.05,9.81,-0.14,-0.05,-0.16,27.88,-5.89,41.72
67,24.8,-1.41,-1.14,-1.89,101279.57,67.68,-0.06,0.04,9.91,-0.05,0.05,-0.02,35.71,-10.53,42.77
68,25.4,-1.0,3.17,2.55,101286.97,68.69,0.34,0.12,10.05,-0.24,-0.14,0.01,32.66,-13.16,46.23
69,24.62,-1.87,0.3,-0.52,101263.4,69.7,-0.05,-0.45,9.4,-0.1,-0.03,0.0,20.27,-6.56,40.64
70,24.3,-0.07,2.72,-1.08,101280.94,70.71,0.16,-0.09,10.09,0.07,-0.03,0.01,30.38,-23.83,38.52
71,24.62,3.22,-3.95,-2.92,101303.7,71.72,0.31,-0.06,9.6,0.04,0.14,0.1,34.72,-0.71,34.71
72,25.59,0.12,4.08,2.86,101334.7,72.73,0.07,-0.24,9.76,0.19,-0.19,0.1,42.87,-3.98,40.99
73,24.58,-2.67,-0.34,0.79,101292.26,73.74,-0.29,0.11,10.07,0.01,0.07,-0.08,25.73,-18.28,44.43
74,24.61,3.05,0.28,0.46,101314.21,74.75,0.16,0.17,9.73,0.09,0.11,0.11,25.89,-15.71,44.56
75,25.34,2.25,-2.82,-0.15,101310.86,75.76,-0.23,-0.05,10.14,-0.22,0.0,0.02,29.51,-14.85,41.22
76,25.09,-1.05,-2.99,-3.1,101324.16,76.77,0.15,0.1,9.79,0.03,-0.03,-0.06,40.86,-14.43,33.83
77,24.7,4.05,-1.14,0.37,101277.02,77.78,-0.22,0.09,9.71,0.01,0.14,0.06,26.04,-16.32,51.22
78,25.18,-1.61,2.01,2.37,101290.17,78.79,-0.47,-0.03,9.66,-0.04,-0.08,-0.02,30.09,-18.27,44.2
79,25.08,0.95,3.34,0.14,101237.46,79.8,-0.31,0.11,10.26,-0.12,-0.03,-0.05,36.89,-11.33,42.38
80,24.46,-2.29,0.17,-2.17,101284.47,80.81,-0.12,0.27,9.64,-0.03,-0.11,0.02,27.1,-6.33,45.11
81,24.12,0.19,-2.86,2.4,101287.4,81.82,0.05,0.38,9.55,-0.01,0.09,0.06,34.62,-9.74,35.45
82,26.29,-0.79,3.82,2.77,101302.34,82.83,-0.11,0.3,9.93,-0.04,0.07,0.16,36.6,-14.5,34.13
83,26.04,-0.0,4.25,-1.12,101277.13,83.84,0.43,0.02,9.47,-0.19,0.03,-0.1,34.59,-7.55,33.37
84,25.61,-2.44,-0.3,0.82,101295.17,84.85,-0.08,0.42,9.94,-0.05,0.05,-0.04,33.91,-11.62,38.58
85,24.9,2.17,-0.06,2.43,101275.26,85.86,-0.05,-0.08,9.99,0.05,-0.0,-0.07,32.64,-10.84,43.06
86,24.87,-1.37,-0.22,-0.08,101278.24,86.87,-0.15,-0.15,9.83,-0.09,0.04,-0.04,37.32,-9.5,29.95
87,25.96,-2.49,0.87,1.37,101295.31,87.88,0.06,0.12,9.92,-0.0,-0.04,0.02,25.04,-1.49,43.13
88,25.68,1.15,-1.65,0.79,101284.2,88.89,-0.3,-0.06,9.93,0.02,-0.01,-0.09,31.66,-18.82,40.64
89,24.49,-2.63,1.26,2.02,101260.48,89.9,0.25,-0.31,9.69,-0.11,-0.0,-0.05,23.65,-15.37,41.77
90,24.65,-0.82,-4.74,-2.23,101291.54,90.91,-0.32,0.09,9.52,-0.16,0.18,0.05,30.33,-8.84,38.42
91,25.07,0.35,-0.06,0.41,101314.46,91.92,0.25,0.02,9.96,0.08,0.02,0.1,29.28,-4.77,36.09
92,25.3,-0.54,-0.48,-2.16,101260.78,92.93,0.34,0.03,9.96,-0.02,-0.05,-0.09,25.04,-9.32,36.64
93,25.06,0.59,-2.78,-0.65,101283.41,93.94,0.41,0.09,10.15,-0.01,-0.03,-0.04,28.9,-8.78,28.62
94,24.66,2.94,1.53,-2.7,101297.33,94.95,-0.01,0.11,10.25,-0.03,-0.04,0.02,27.83,-7.69,35.62
95,25.53,-0.34,-0.29,-0.78,101251.41,95.96,-0.15,-0.14,9.72,0.01,-0.08,0.03,22.59,-13.64,31.53
96,24.39,-0.28,-1.42,0.93,101285.57,96.97,-0.02,0.16,9.81,0.06,0.04,-0.05,25.19,-11.96,40.3
97,25.25,0.03,1.75,-1.36,101273.14,97.98,0.01,-0.24,10.35,0.09,0.14,0.06,36.86,-6.01,41.67
98,24.31,-1.02,-2.05,0.46,101258.42,98.99,-0.02,-0.08,9.98,0.02,-0.07,-0.15,32.45,-8.76,38.04
99,24.61,0.58,-0.83,-2.21,101276.39,100.0,-0.44,-0.31,9.92,0.14,0.04,0.06,28.12,-12.54,35.8
100,24.89,1.42,2.41,-4.15,101256.26,100.0,0.0,0.07,9.65,0.05,0.04,-0.23,31.22,-12.94,34.06
101,25.52,-2.51,-1.62,-0.0,101283.62,98.99,0.03,-0.11,9.82,0.04,0.0,0.01,41.06,-11.4,40.51
102,24.62,-1.54,0.81,-3.36,101273.89,97.98,0.1,-0.22,10.04,-0.09,-0.01,-0.1,25.88,-20.78,41.38
103,24.68,-1.77,-5.07,1.34,101263.07,96.97,-0.06,0.19,9.68,-0.01,-0.05,-0.13,29.5,-14.31,38.7
104,25.43,-3.19,-2.84,-0.86,101272.88,95.96,0.46,0.08,10.03,-0.14,-0.11,0.14,38.44,-5.2,34.04
105,24.46,2.11,-0.02,3.57,101274.67,94.95,-0.4,0.06,9.52,-0.06,-0.09,-0.07,33.25,-0.47,49.71
106,24.63,1.5,0.98,-0.05,101279.94,93.94,0.33,0.05,9.56,-0.13,0.13,0.18,29.5,-5.61,51.2
107,25.53,-0.33,1.38,2.05,101278.44,92.93,-0.08,0.0,9.74,0.05,-0.15,-0.19,29.85,-9.12,42.01
108,25.64,-0.54,-4.45,0.83,101272.15,91.92,0.21,-0.08,9.9,-0.08,0.03,0.01,34.31,-8.46,33.76
109,24.93,-2.01,2.95,1.02,101269.71,90.91,0.17,0.3,9.78,-0.12,-0.02,0.14,28.31,-5.55,42.3
110,25.11,0.89,0.28,-4.25,101272.18,89.9,0.19,0.21,10.07,0.04,-0.0,-0.05,30.15,-18.64,39.8
111,25.25,-2.73,-0.05,-0.15,101252.59,88.89,-0.21,-0.05,9.87,0.08,-0.07,0.18,31.93,-11.5,42.14
112,25.21,-0.08,-3.03,-0.68,101226.56,87.88,-0.06,-0.1,9.96,-0.09,0.06,0.02,18.77,-10.64,46.09
113,24.66,-0.2,2.13,-0.04,101257.23,86.87,0.35,0.09,9.99,0.09,-0.16,0.03,29.57,-2.57,33.15
114,24.19,-2.46,0.62,1.12,101276.98,85.86,0.31,0.34,9.69,0.02,-0.06,0.0,36.58,-10.56,35.39
115,24.23,-4.07,-1.11,-1.3,101261.69,84.85,-0.13,0.05,9.99,0.0,0.13,-0.06,27.01,-11.63,41.47
116,24.58,-3.42,-3.1,-0.6,101274.96,83.84,-0.12,0.16,9.5,-0.08,0.05,-0.01,34.04,-26.9,37.21
117,25.14,-2.14,0.33,-1.12,101245.97,82.83,0.08,-0.4,9.93,-0.06,0.01,-0.14,26.04,-12.03,43.86
118,25.02,-0.42,-0.94,3.42,101267.12,81.82,-0.01,0.1,9.65,-0.19,0.07,0.01,29.27,-17.35,38.95
119,26.06,-1.23,-0.67,0.62,101243.56,80.81,-0.22,0.24,9.62,-0.12,0.07,-0.1,26.28,-22.27,47.37
120,25.04,-0.96,-2.08,1.37,101268.64,79.8,0.07,0.16,9.8,0.1,0.11,-0.0,28.05,-15.85,39.43
121,24.86,2.56,-0.65,0.27,101305.31,78.79,-0.33,-0.03,9.63,0.01,-0.01,0.11,28.83,-9.04,41.82
122,25.61,0.33,2.31,-1.58,101250.45,77.78,0.15,0.07,9.92,-0.25,-0.08,-0.2,31.39,-12.1,43.61
123,25.65,-0.44,0.91,1.31,101310.7,76.77,0.1,0.28,10.31,-0.02,0.04,-0.05,22.93,-11.02,39.76
124,24.99,-0.14,0.04,0.31,101263.95,75.76,0.34,-0.08,9.8,-0.05,-0.1,-0.04,31.12,-10.92,36.62
125,24.93,-0.51,0.43,-2.04,101275.25,74.75,0.09,0.03,9.89,0.09,-0.16,-0.2,32.05,-11.72,44.69
126,25.58,-0.05,1.25,-3.06,101261.52,73.74,0.31,0.04,9.97,0.01,-0.06,-0.09,30.68,-4.54,37.21
127,24.93,-2.23,-2.67,0.25,101280.14,72.73,0.29,-0.01,9.62,0.21,0.04,0.1,28.72,-12.81,42.19
128,25.52,0.66,2.72,4.09,101250.15,71.72,-0.29,-0.1,9.92,-0.01,-0.06,0.16,37.68,-9.69,41.94
129,24.91,-1.75,-0.46,1.67,101267.09,70.71,-0.04,0.04,10.15,-0.06,-0.03,0.11,34.71,-10.75,34.02
130,23.81,1.64,3.46,1.4,101245.32,69.7,0.09,-0.24,9.88,0.02,0.04,0.07,27.08,-7.76,33.76
131,25.29,2.13,-3.02,-1.16,101317.99,68.69,0.08,0.34,9.93,0.1,0.06,-0.13,33.83,-16.23,35.36
132,25.02,0.01,-0.23,-0.11,101289.65,67.68,-0.02,0.15,9.76,-0.0,-0.09,-0.16,33.55,-13.9,42.91
133,25.0,3.39,2.46,-2.39,101235.84,66.67,-0.18,-0.12,9.69,0.06,0.06,0.08,40.85,-10.32,40.0
134,24.48,2.06,-2.16,1.16,101209.3,65.66,0.35,0.08,9.8,-0.0,0.18,0.07,32.73,-22.93,48.56
135,26.13,3.89,-3.08,1.47,101231.59,64.65,0.21,-0.17,9.84,0.04,-0.01,0.01,38.75,-14.96,44.88
136,25.03,1.56,-0.86,-2.11,101238.67,63.64,-0.11,0.3,9.69,-0.15,0.04,-0.03,34.65,-19.1,40.66
137,25.41,-3.97,-0.58,1.87,101293.31,62.63,0.21,-0.06,9.76,-0.06,0.0,-0.07,36.48,-21.59,37.19
138,25.05,2.65,1.68,-5.07,101216.14,61.62,0.17,0.08,9.6,0.18,-0.13,0.01,28.42,-13.69,43.93
139,25.3,1.88,0.2,-3.55,101249.16,60.61,0.09,0.27,10.01,0.0,0.08,0.02,29.69,-11.82,49.81
140,25.02,-1.24,0.01,-2.07,101296.37,59.6,0.21,-0.37,9.64,-0.03,0.06,-0.04,29.73,-6.94,42.53
141,24.61,0.94,0.91,-2.49,101252.64,58.59,0.03,-0.15,9.61,0.05,0.1,-0.0,28.1,-4.12,48.28
142,25.33,-1.92,-0.57,1.21,101259.05,57.58,0.15,0.25,9.51,-0.13,-0.02,0.05,29.07,-3.62,35.7
143,25.01,0.4,-1.2,-3.88,101255.3,56.57,-0.14,-0.17,9.94,0.14,-0.17,0.03,29.72,-5.11,33.64
144,25.31,0.16,-0.13,0.81,101234.26,55.56,0.45,-0.05,9.95,-0.04,0.1,0.11,30.79,-17.71,37.92
145,25.11,-1.72,-3.39,0.9,101233.92,54.55,-0.04,-0.27,9.78,0.09,0.0,-0.01,26.5,-9.23,42.01
146,24.71,-0.74,-0.69,0.2,101272.27,53.54,0.05,0.31,9.95,-0.05,-0.2,-0.15,30.5,-6.78,41.84
147,25.23,2.3,-0.86,1.6,101258.82,52.53,-0.11,-0.04,9.6,-0.07,-0.03,-0.04,33.26,-5.13,39.88
148,24.82,2.45,2.9,1.48,101241.87,51.52,-0.21,0.34,9.62,0.11,0.02,-0.11,27.08,-12.78,31.15
149,24.37,0.69,0.74,3.11,101214.29,50.51,0.22,0.19,9.95,0.18,0.11,-0.05,20.62,-5.74,36.55
150,24.6,-2.32,2.64,0.8,101249.68,49.49,0.3,0.54,10.15,-0.08,-0.04,-0.05,26.83,-15.68,44.05
151,24.99,0.72,2.15,-3.09,101246.71,48.48,-0.01,-0.14,9.68,0.0,-0.09,-0.01,33.95,-10.21,44.44
152,25.2,2.68,0.96,-0.47,101263.97,47.47,0.01,0.14,9.59,-0.13,-0.04,-0.06,36.12,-8.32,39.08
153,24.6,1.11,1.59,1.85,101248.32,46.46,0.07,0.04,9.89,-0.07,0.06,0.18,37.76,-7.68,34.86
154,24.83,-1.19,0.93,-2.28,101271.44,45.45,-0.14,0.04,9.82,0.04,-0.07,0.21,30.43,-7.85,37.8
155,25.11,0.48,-3.23,0.33,101234.15,44.44,-0.45,-0.09,10.06,-0.17,-0.15,-0.01,14.15,-9.54,44.4
156,24.81,-3.78,-1.17,-1.98,101247.98,43.43,0.0,0.04,9.98,-0.2,0.01,-0.01,24.77,1.1,39.66
157,23.98,-3.4,-1.34,5.02,101233.58,42.42,0.15,0.23,10.04,0.0,0.09,-0.15,26.5,-13.36,35.1
158,25.7,-0.32,3.22,-1.06,101249.71,41.41,0.11,-0.27,10.1,-0.22,-0.1,-0.15,26.69,-6.77,45.91
159,25.1,-0.91,-2.07,-1.21,101259.84,40.4,0.22,-0.04,9.61,-0.01,-0.05,-0.03,32.27,-6.94,40.76
160,25.34,1.32,0.62,-1.7,101244.69,39.39,0.12,0.13,9.66,-0.03,-0.04,-0.07,29.06,-0.31,32.18
161,24.65,1.57,1.86,-1.56,101208.04,38.38,0.22,-0.03,9.97,0.16,-0.1,-0.14,32.58,-8.35,33.03
162,25.64,0.24,-1.38,-0.77,101254.58,37.37,0.22,-0.41,9.65,-0.08,-0.03,0.1,28.2,3.64,34.8
163,24.25,-1.72,2.42,-0.71,101229.15,36.36,0.01,-0.36,9.55,-0.12,0.13,0.05,31.31,-10.42,36.93
164,24.71,0.2,-3.1,-0.25,101286.36,35.35,0.21,-0.27,9.95,0.15,-0.12,-0.02,23.08,-2.09,54.44
165,24.93,0.95,-1.2,0.48,101243.64,34.34,0.09,-0.05,9.75,-0.03,-0.19,0.04,30.78,-9.29,41.98
166,24.34,-3.74,-1.08,-2.37,101266.01,33.33,-0.2,-0.39,9.93,0.16,-0.11,-0.08,26.87,-8.05,43.87
167,24.54,-0.35,0.65,-0.32,101287.09,32.32,0.24,0.15,9.56,0.05,0.06,-0.16,29.34,-10.27,38.05
168,25.77,-1.05,0.64,0.51,101222.51,31.31,-0.18,0.03,9.49,-0.01,-0.01,-0.15,27.41,-18.19,39.63
169,25.4,0.89,3.83,-1.71,101264.7,30.3,0.3,0.21,9.9,-0.08,0.1,0.04,27.97,-4.95,48.52
170,24.1,2.65,-3.98,-3.45,101232.91,29.29,0.4,-0.23,9.52,0.08,-0.03,-0.14,33.54,-5.75,33.63
171,24.41,-2.49,-0.37,1.6,101225.9,28.28,-0.36,0.11,10.04,-0.07,-0.05,0.12,27.52,-10.01,40.48
172,23.9,2.94,-1.03,-0.04,101233.24,27.27,0.03,-0.03,10.2,0.11,0.02,0.11,34.49,-0.62,40.91
173,25.34,-1.78,-3.26,2.66,101192.51,26.26,0.02,-0.09,9.84,0.04,0.01,0.02,27.8,-8.79,50.58
174,25.32,3.46,1.9,0.34,101251.56,25.25,-0.26,0.13,9.77,-0.0,0.04,0.16,32.74,-10.76,41.77
175,25.01,2.31,-2.31,-3.35,101267.58,24.24,0.11,0.19,9.71,-0.12,0.06,0.36,33.48,-14.13,46.75
176,24.78,-1.32,-0.6,2.6,101213.07,23.23,-0.01,0.0,9.63,0.09,-0.11,0.08,35.79,-2.35,35.38
177,25.01,-2.36,-1.09,-0.27,101237.92,22.22,0.13,-0.43,9.94,-0.01,-0.01,0.02,32.37,-6.52,40.51
178,24.62,-0.27,1.38,-0.59,101221.04,21.21,-0.11,-0.01,9.65,-0.03,0.0,-0.1,22.95,-6.69,43.95
179,25.06,-3.24,4.74,1.97,101229.67,20.2,-0.39,-0.11,9.72,-0.21,0.09,-0.12,25.89,-8.9,37.61
180,25.94,0.68,-1.55,2.17,101222.56,19.19,-0.05,0.11,9.4,0.01,-0.06,0.16,32.06,-6.57,39.23
181,25.48,2.69,-2.4,1.43,101229.13,18.18,0.46,-0.01,10.2,0.19,0.26,-0.04,27.73,-15.8,47.91
182,24.93,1.21,-0.16,1.18,101214.88,17.17,0.25,0.21,9.72,-0.06,0.0,0.21,22.89,-3.67,38.16
183,24.95,0.74,-1.91,0.08,101233.17,16.16,0.18,0.07,9.6,-0.13,0.2,0.09,36.04,-10.41,42.15
184,24.88,1.06,4.58,-1.48,101207.75,15.15,-0.4,0.02,9.59,0.1,0.12,0.1,33.54,-8.96,39.04
185,25.03,3.18,-2.18,-3.1,101236.23,14.14,0.05,0.07,9.66,-0.04,0.01,0.07,30.08,-14.22,28.99
186,25.1,1.85,5.36,1.53,101227.94,13.13,0.21,0.2,9.92,0.07,-0.07,-0.04,25.17,-12.47,34.04
187,25.43,3.15,-1.3,-1.8,101248.13,12.12,0.23,-0.1,9.55,0.04,-0.06,0.01,32.49,-12.36,41.63
188,25.13,0.41,0.69,-1.25,101223.02,11.11,0.15,0.4,9.72,-0.0,0.02,-0.16,26.17,-4.22,39.14
189,24.82,0.18,1.21,2.06,101232.52,10.1,0.18,0.02,10.0,0.11,0.05,0.06,25.22,-5.28,37.82
190,25.12,-4.21,-0.42,-2.77,101254.38,9.09,-0.13,-0.12,10.28,0.08,-0.27,-0.07,26.37,-18.78,48.1
191,24.97,2.56,1.16,0.14,101243.61,8.08,-0.28,0.17,9.75,0.18,-0.0,0.06,41.49,-6.33,46.6
192,24.87,3.64,-2.37,0.21,101170.04,7.07,0.0,0.18,9.73,-0.07,0.13,0.12,30.38,-18.48,36.35
193,24.59,0.08,-3.73,-3.44,101208.51,6.06,-0.26,0.1,9.75,0.19,-0.01,0.09,26.06,-11.92,39.03
194,25.65,-0.99,1.4,-1.91,101221.68,5.05,0.05,0.24,9.88,-0.02,0.11,-0.11,31.98,-15.84,48.69
195,24.64,-2.61,-0.96,1.8,101231.68,4.04,-0.45,0.07,9.47,-0.05,-0.1,-0.12,35.86,-5.32,44.73
196,25.01,-2.17,-2.11,1.39,101239.69,3.03,-0.15,0.35,9.83,0.04,-0.01,-0.01,32.79,-13.68,38.7
197,25.13,0.12,-2.6,1.79,101223.37,2.02,-0.03,0.17,9.6,0.04,0.23,0.11,31.41,-11.68,42.54
198,25.41,-1.65,-0.2,-0.94,101227.74,1.01,-0.11,-0.08,9.63,-0.04,-0.1,0.05,27.46,-14.46,38.96
199,24.2,0.24,-1.07,-1.11,101239.41,0.0,-0.01,0.34,9.45,-0.11,0.08,0.05,31.39,-6.22,38.27
