Timestamp,Temperature,Roll,Pitch,Yaw,Pressure,Altitude,Ax,Ay,Az,Gx,Gy,Gz,Mx,My,Mz
0,24.96,0.1,0.09,-0.17,1010.78,0.0,0.016,0.018,0.0,0.09,0.11,0.1,30,37,38
1,25.0,0.07,0.25,0.02,1013.44,0.0,0.013,0.033,0.0,0.1,0.1,0.09,47,46,30
2,25.21,0.19,-0.08,-0.02,1012.14,0.0,0.019,0.038,0.0,0.1,0.11,0.09,46,49,46
3,25.28,-0.01,-0.02,0.11,1013.36,0.0,0.027,0.044,0.0,0.1,0.11,0.1,42,32,47
4,24.75,-0.04,-0.1,0.19,1013.97,0.0,0.041,0.042,0.0,0.09,0.11,0.11,32,44,35
5,25.34,0.06,0.03,-0.08,1011.58,0.0,0.04,0.014,0.0,0.08,0.1,0.11,47,37,32
6,25.04,-0.06,0.05,-0.01,1013.15,0.0,0.032,0.021,0.0,0.09,0.11,0.11,45,40,36
7,25.3,-0.15,0.03,-0.11,1012.66,0.0,0.034,0.033,0.0,0.11,0.1,0.1,39,48,41
8,25.0,0.11,0.0,-0.12,1012.14,0.0,0.018,0.025,0.0,0.12,0.1,0.1,34,46,36
9,25.25,0.01,-0.16,-0.06,1012.11,0.0,0.025,0.01,0.0,0.1,0.09,0.1,38,43,34
10,25.19,-0.02,-0.13,0.0,1013.86,0.0,0.022,0.037,0.0,0.09,0.09,0.1,37,49,40
11,24.99,-0.02,-0.03,-0.06,1013.0,0.0,0.022,0.05,0.0,0.11,0.09,0.1,49,38,46
12,25.6,-0.1,-0.07,0.01,1015.06,0.0,0.023,0.039,0.0,0.11,0.1,0.09,47,30,31
13,24.9,0.12,-0.02,0.01,1012.45,0.0,0.027,0.03,0.0,0.11,0.09,0.1,40,47,40
14,24.8,-0.2,0.09,-0.09,1013.88,0.0,0.022,0.031,0.0,0.09,0.1,0.1,43,37,38
15,25.06,-0.16,0.16,0.09,1012.83,0.0,0.034,0.027,0.0,0.11,0.09,0.1,45,33,42
16,25.04,0.08,0.15,-0.21,1013.27,0.0,0.026,0.042,0.0,0.1,0.1,0.1,47,47,41
17,25.1,0.14,-0.15,0.01,1014.42,0.0,0.016,0.037,0.0,0.1,0.1,0.09,43,31,34
18,25.37,-0.01,-0.04,-0.13,1012.74,0.0,0.023,0.042,0.0,0.11,0.1,0.11,43,36,44
19,25.03,0.13,0.12,0.01,1011.49,0.0,0.026,0.04,0.0,0.1,0.1,0.09,38,47,35
20,24.99,0.04,-0.06,-0.03,1012.43,0.0,0.028,0.026,0.0,0.09,0.08,0.11,33,48,45
21,24.87,0.05,0.07,-0.08,1013.1,0.0,0.011,0.019,0.0,0.12,0.09,0.1,49,46,45
22,24.93,-0.08,-0.02,-0.0,1012.38,0.0,0.023,0.047,0.0,0.1,0.11,0.09,49,47,48
23,25.08,-0.11,0.08,-0.0,1014.44,0.0,0.035,0.042,0.0,0.11,0.11,0.1,44,46,31
24,24.78,-0.09,0.07,-0.05,1014.4,0.0,0.015,0.03,0.0,0.09,0.1,0.08,40,48,40
25,24.61,-0.09,-0.06,0.06,1013.8,0.0,0.011,0.037,0.0,0.09,0.12,0.1,40,38,35
26,24.7,-0.02,0.04,0.0,1013.71,0.0,0.024,0.04,0.0,0.1,0.08,0.09,40,42,39
27,24.54,-0.03,0.0,-0.17,1011.04,0.0,0.011,0.04,0.0,0.12,0.11,0.12,30,35,44
28,25.03,0.02,-0.1,-0.03,1012.65,0.0,0.03,0.024,0.0,0.1,0.1,0.09,34,42,34
29,24.97,-0.06,-0.16,-0.04,1013.19,0.0,0.022,0.026,0.0,0.1,0.1,0.09,42,33,45
30,24.87,-0.15,0.02,-0.03,1012.53,0.0,0.023,0.035,0.0,0.1,0.09,0.1,45,31,46
31,24.98,-0.01,0.03,-0.05,1013.65,0.0,0.027,0.041,0.0,0.1,0.1,0.12,48,46,47
32,24.96,-0.12,-0.17,-0.19,1013.49,0.0,0.012,0.034,0.0,0.1,0.09,0.11,35,43,34
33,24.81,0.02,-0.02,-0.11,1013.41,0.0,0.018,0.029,0.0,0.1,0.09,0.12,36,30,33
34,25.11,0.12,0.07,0.14,1013.72,0.0,0.018,0.02,0.0,0.09,0.09,0.11,34,49,37
35,25.16,0.07,0.09,-0.08,1013.41,0.0,0.029,0.036,0.0,0.11,0.1,0.11,31,34,45
36,24.99,0.02,0.04,-0.01,1013.98,0.0,0.026,0.051,0.0,0.11,0.1,0.1,38,49,49
37,24.73,-0.0,-0.18,-0.06,1013.55,0.0,0.033,0.025,0.0,0.1,0.09,0.11,40,41,36
38,25.03,0.14,0.02,0.16,1014.65,0.0,0.009,0.054,0.0,0.09,0.07,0.09,45,44,35
39,24.77,0.06,-0.05,0.05,1012.98,0.0,0.021,0.038,0.0,0.09,0.08,0.11,46,42,49
40,24.95,-0.06,0.11,0.03,1012.4,0.0,0.037,0.025,0.0,0.1,0.1,0.1,30,48,30
41,25.09,-0.09,0.03,-0.18,1012.83,0.0,0.041,0.029,0.0,0.11,0.12,0.09,46,42,47
42,24.73,-0.03,0.08,-0.05,1013.48,0.0,0.021,0.027,0.0,0.1,0.09,0.1,46,44,44
43,24.6,0.06,0.02,0.06,1012.64,0.0,0.02,0.022,0.0,0.09,0.11,0.08,36,46,40
44,24.88,-0.03,0.31,-0.16,1014.15,0.0,0.028,0.027,0.0,0.1,0.09,0.1,42,36,45
45,25.04,0.03,0.11,-0.1,1012.47,0.0,0.022,0.039,0.0,0.1,0.08,0.1,44,33,41
46,24.67,-0.05,-0.01,-0.03,1010.36,0.0,0.023,0.026,0.0,0.1,0.09,0.09,43,41,47
47,24.68,-0.05,0.18,0.1,1013.72,0.0,0.012,0.033,0.0,0.1,0.08,0.1,34,31,37
48,25.61,0.06,0.06,0.01,1013.24,10.0,0.029,0.025,5.0,0.1,0.1,0.11,42,45,37
49,25.12,-0.25,-0.04,-0.06,1012.58,20.0,0.03,0.027,10.0,0.11,0.1,0.11,36,31,30
50,25.16,0.07,0.08,0.04,1012.51,10.0,0.023,0.01,5.0,0.1,0.09,0.09,44,31,35
51,25.09,0.08,0.08,0.01,1012.47,0.0,0.042,0.009,0.0,0.11,0.1,0.1,34,46,40
52,25.02,0.1,-0.12,0.0,1013.44,0.0,0.034,0.033,0.0,0.11,0.09,0.1,36,31,43
53,24.61,0.04,0.02,-0.09,1013.7,0.0,0.014,0.028,0.0,0.11,0.08,0.11,41,41,41
54,24.84,0.08,-0.02,-0.06,1011.83,0.0,0.028,0.029,0.0,0.09,0.08,0.09,44,36,48
55,25.06,0.06,-0.13,0.14,1012.67,0.0,0.03,0.035,0.0,0.09,0.11,0.1,45,40,36
56,24.51,0.19,-0.11,-0.01,1011.56,0.0,0.024,0.034,0.0,0.1,0.1,0.11,41,38,42
57,24.98,-0.09,-0.15,-0.02,1013.87,0.0,0.007,0.033,0.0,0.1,0.11,0.09,37,43,49
58,25.13,0.13,-0.19,0.03,1011.78,0.0,0.032,0.022,0.0,0.1,0.1,0.09,31,37,32
59,24.98,-0.13,0.1,0.05,1012.65,0.0,0.029,0.041,0.0,0.11,0.11,0.1,35,43,34
60,24.87,-0.09,0.0,-0.04,1013.55,0.0,0.016,0.037,0.0,0.11,0.1,0.11,33,43,35
61,25.0,0.02,0.03,-0.01,1013.77,0.0,0.011,0.032,0.0,0.1,0.1,0.1,49,39,49
62,25.33,0.12,0.02,0.07,1010.92,0.0,0.013,0.022,0.0,0.1,0.09,0.09,34,44,36
63,24.85,0.09,0.01,0.04,1011.27,0.0,0.005,0.036,0.0,0.09,0.12,0.11,49,31,37
64,24.57,0.07,-0.04,-0.06,1014.21,0.0,0.022,0.043,0.0,0.1,0.1,0.11,38,46,34
65,24.97,-0.25,0.15,0.02,1013.83,0.0,0.024,0.045,0.0,0.1,0.09,0.1,37,38,48
66,24.95,-0.1,0.0,-0.04,1011.61,0.0,0.032,0.031,0.0,0.11,0.11,0.1,45,31,46
67,25.39,0.02,-0.01,-0.09,1011.84,0.0,0.023,0.033,0.0,0.1,0.1,0.1,35,34,40
68,24.73,-0.03,0.01,0.03,1011.94,0.0,0.029,0.027,0.0,0.11,0.09,0.11,40,36,47
69,25.04,-0.0,0.15,0.16,1012.6,0.0,0.013,0.035,0.0,0.09,0.11,0.11,39,32,46
70,24.76,0.13,-0.03,0.09,1012.89,0.0,0.015,0.039,0.0,0.1,0.1,0.11,34,33,49
71,24.95,-0.0,0.04,-0.03,1011.31,0.0,0.02,0.042,0.0,0.1,0.1,0.09,41,41,30
72,24.95,0.11,-0.05,0.3,1012.81,0.0,0.019,0.037,0.0,0.09,0.1,0.11,33,48,46
