Timestamp,Temperature,Roll,Pitch,Yaw,Pressure,Altitude,ax,ay,az,gx,gy,gz,mx,my,mz
224971,29.00,-1.29,-2.49,-62.04,1013.25,600.00,0.04,-0.02,0.97,0.67,1.10,0.79,38.40,-72.23,-66.42
225022,29.00,-1.30,-2.60,-61.57,1013.25,600.00,0.04,-0.02,0.96,0.73,1.04,0.61,39.45,-72.80,-67.24
225073,29.00,-1.18,-2.64,-62.10,1013.25,600.00,0.04,-0.02,0.97,0.67,1.28,0.85,38.59,-72.99,-66.22
225124,29.00,-1.36,-2.56,-62.00,1013.25,600.00,0.04,-0.02,0.96,0.73,1.40,0.73,38.73,-72.83,-66.63
225175,29.00,-1.33,-2.48,-61.93,1013.25,600.00,0.04,-0.02,0.97,0.85,1.22,0.79,38.57,-72.33,-66.55
225226,29.00,-1.40,-2.78,-61.51,1013.25,600.00,0.05,-0.02,0.96,0.37,1.04,0.67,39.16,-72.11,-67.26
225277,29.00,-1.72,-2.63,-61.82,1013.25,600.00,0.04,-0.03,0.94,0.49,0.92,0.73,38.96,-72.78,-67.52
225327,29.00,-1.36,-2.64,-61.77,1013.25,600.00,0.04,-0.02,0.96,0.73,0.98,0.79,39.14,-72.90,-67.00
225378,29.00,-1.17,-2.72,-62.13,1013.25,600.00,0.05,-0.02,0.97,0.55,0.92,0.92,38.44,-72.77,-66.31
225429,29.00,-1.25,-2.55,-62.12,1013.25,600.00,0.04,-0.02,0.97,0.49,0.98,0.85,38.48,-72.74,-66.50
225480,29.00,-1.36,-2.54,-61.79,1013.25,600.00,0.04,-0.02,0.95,0.55,1.10,0.79,39.11,-72.86,-66.97
225531,29.00,-1.31,-2.74,-62.05,1013.25,600.00,0.05,-0.02,0.96,0.67,1.16,0.79,38.71,-73.01,-66.71
225582,29.00,-1.23,-2.56,-61.83,1013.25,600.00,0.04,-0.02,0.97,0.67,1.04,0.85,38.98,-72.75,-67.37
225632,29.00,-1.34,-2.59,-62.13,1013.25,600.00,0.04,-0.02,0.96,0.61,0.98,0.79,38.45,-72.78,-66.06
225683,29.00,-1.37,-2.68,-61.97,1013.25,600.00,0.04,-0.02,0.96,0.61,1.04,0.79,38.75,-72.74,-68.24
225734,29.00,-1.29,-2.67,-61.70,1013.25,600.00,0.04,-0.02,0.96,0.55,1.10,0.73,39.18,-72.74,-67.80
225785,29.00,-1.21,-2.57,-62.06,1013.25,600.00,0.04,-0.02,0.96,0.49,0.92,0.79,38.37,-72.41,-66.17
225836,29.00,-1.04,-2.49,-62.03,1013.25,600.00,0.04,-0.02,0.99,0.43,0.92,0.79,38.67,-72.84,-67.13
225887,29.00,-1.36,-2.65,-61.96,1013.25,600.00,0.04,-0.02,0.96,0.49,0.85,0.85,38.45,-72.18,-66.83
225938,29.00,-1.37,-2.67,-62.07,1013.25,600.00,0.04,-0.02,0.96,0.67,0.98,0.79,38.31,-72.27,-67.19
225989,29.00,-1.39,-2.65,-61.73,1013.25,600.00,0.04,-0.02,0.97,0.67,0.98,0.73,38.78,-72.08,-67.57
226040,29.00,-1.23,-2.54,-62.06,1013.25,600.00,0.04,-0.02,0.96,0.61,0.98,0.85,38.31,-72.28,-66.46
226091,29.00,-1.25,-2.52,-62.77,1013.25,600.00,0.04,-0.02,0.96,0.79,1.10,0.79,37.06,-72.14,-66.67
226141,29.00,-1.30,-2.70,-62.35,1013.25,600.00,0.05,-0.02,0.96,0.67,1.16,0.73,38.00,-72.46,-67.32
226192,29.00,-1.33,-2.53,-62.51,1013.25,600.00,0.04,-0.02,0.96,0.67,1.10,0.79,37.55,-72.19,-67.24
226243,29.00,-1.30,-2.67,-62.39,1013.25,600.00,0.05,-0.02,0.96,0.73,0.92,0.73,37.82,-72.30,-67.55
226294,29.00,-1.26,-2.62,-62.17,1013.25,600.00,0.04,-0.02,0.96,0.43,0.98,0.79,38.13,-72.20,-66.33
226345,29.00,-1.21,-2.46,-62.44,1013.25,600.00,0.04,-0.02,0.96,0.79,0.98,0.79,37.60,-72.09,-66.04
226396,29.00,-1.26,-2.53,-62.35,1013.25,600.00,0.04,-0.02,0.96,0.55,1.16,0.92,38.05,-72.62,-67.03
226447,29.00,-1.20,-2.60,-62.11,1013.25,600.00,0.04,-0.02,0.96,0.73,1.10,0.67,38.17,-72.08,-66.58
226498,29.00,-1.23,-2.60,-62.43,1013.25,600.00,0.04,-0.02,0.96,0.67,1.16,0.92,37.83,-72.50,-66.09
226548,29.00,-1.22,-2.50,-62.30,1013.25,600.00,0.04,-0.02,0.96,0.73,0.98,0.92,38.16,-72.67,-67.55
226599,29.00,-1.30,-2.59,-62.06,1013.25,600.00,0.04,-0.02,0.96,0.79,0.98,0.79,38.37,-72.31,-67.44
226649,29.00,-1.20,-2.61,-62.46,1013.25,600.00,0.04,-0.02,0.96,0.67,1.16,0.85,37.76,-72.49,-67.46
226699,29.00,-1.34,-2.59,-62.85,1013.25,600.00,0.04,-0.02,0.96,0.79,1.16,0.98,36.98,-72.17,-66.76
226750,29.00,-1.29,-2.64,-62.35,1013.25,600.00,0.04,-0.02,0.96,0.61,1.04,0.79,37.95,-72.38,-66.87
226800,29.00,-1.29,-2.64,-62.53,1013.25,600.00,0.04,-0.02,0.96,0.55,0.98,0.73,37.50,-72.16,-67.19
226851,29.00,-1.26,-2.56,-62.42,1013.25,600.00,0.04,-0.02,0.96,0.67,1.10,0.79,37.73,-72.22,-66.78
226902,29.00,-1.32,-2.55,-62.07,1013.25,600.00,0.04,-0.02,0.96,0.49,1.10,0.73,38.11,-71.83,-66.52
226952,29.00,-1.14,-2.55,-62.29,1013.25,600.00,0.04,-0.02,0.97,0.55,0.92,0.85,37.82,-72.03,-66.26
227003,29.00,-1.28,-2.63,-62.20,1013.25,600.00,0.04,-0.02,0.96,0.79,1.04,0.79,38.00,-72.07,-65.91
227054,29.00,-1.36,-2.57,-62.25,1013.25,600.00,0.04,-0.02,0.96,0.61,0.92,0.85,37.96,-72.18,-66.27
227104,29.00,-1.26,-2.61,-61.95,1013.25,600.00,0.04,-0.02,0.96,0.61,1.10,0.79,38.45,-72.13,-66.02
227155,29.00,-1.25,-2.65,-62.56,1013.25,600.00,0.04,-0.02,0.96,0.61,1.16,0.98,37.65,-72.62,-65.88
227206,29.00,-1.29,-2.49,-62.47,1013.25,600.00,0.04,-0.02,0.96,0.73,1.04,0.92,37.98,-72.85,-66.82
227257,29.00,-1.24,-2.59,-62.76,1013.25,600.00,0.04,-0.02,0.96,0.67,0.98,0.85,37.13,-72.19,-67.30
227308,29.00,-1.30,-2.59,-62.37,1013.25,600.00,0.04,-0.02,0.96,0.73,1.22,0.85,38.10,-72.72,-66.89
227360,29.00,-1.34,-2.51,-62.21,1013.25,600.00,0.04,-0.02,0.96,0.67,1.10,0.85,37.94,-71.97,-67.03
227409,29.00,-1.26,-2.52,-62.33,1013.25,600.00,0.04,-0.02,0.96,0.73,0.98,0.92,37.95,-72.41,-67.15
227460,29.00,-1.25,-2.63,-62.38,1013.25,600.00,0.04,-0.02,0.96,0.67,1.04,0.73,37.78,-72.20,-66.69
227511,29.00,-1.20,-2.58,-62.40,1013.25,600.00,0.04,-0.02,0.97,0.73,0.98,0.85,37.82,-72.36,-67.44
227562,29.00,-1.19,-2.59,-61.69,1013.25,600.00,0.04,-0.02,0.96,0.67,1.16,0.98,38.99,-72.28,-67.24
227612,29.00,-1.26,-2.64,-62.35,1013.25,600.00,0.04,-0.02,0.96,0.67,1.10,0.92,37.76,-72.17,-67.15
227663,29.00,-1.31,-2.62,-62.27,1013.25,600.00,0.04,-0.02,0.96,0.61,1.10,0.92,38.13,-72.53,-66.15
227714,29.00,-1.33,-2.58,-62.20,1013.25,600.00,0.04,-0.02,0.96,0.61,1.10,0.85,38.04,-72.13,-67.52
227765,29.00,-1.27,-2.60,-62.47,1013.25,600.00,0.04,-0.02,0.96,0.49,0.98,0.73,37.57,-72.14,-67.16
227816,29.00,-1.30,-2.58,-62.13,1013.25,600.00,0.04,-0.02,0.96,0.67,1.10,0.79,38.43,-72.63,-67.37
227867,29.00,-1.29,-2.51,-62.72,1013.25,600.00,0.04,-0.02,0.96,0.55,1.10,0.73,37.60,-73.00,-66.93
227916,29.00,-1.31,-2.64,-62.23,1013.25,600.00,0.04,-0.02,0.96,0.55,1.04,0.79,37.83,-71.78,-66.91
227967,29.00,-1.19,-2.64,-62.01,1013.25,600.00,0.04,-0.02,0.96,0.61,1.04,0.92,38.40,-72.24,-67.07
228017,29.00,-1.32,-2.53,-62.21,1013.25,600.00,0.04,-0.02,0.97,0.55,1.16,0.85,37.85,-71.86,-67.29
228067,29.00,-1.31,-2.57,-62.18,1013.25,600.00,0.04,-0.02,0.96,0.79,1.22,0.85,37.89,-71.81,-66.96
228118,29.00,-1.23,-2.73,-61.77,1013.25,600.00,0.05,-0.02,0.96,0.79,1.10,0.98,38.60,-71.85,-66.88
228169,29.00,-1.34,-2.62,-62.22,1013.25,600.00,0.04,-0.02,0.96,0.61,1.04,0.73,37.82,-71.85,-67.00
228220,29.00,-1.33,-2.61,-62.01,1013.25,600.00,0.04,-0.02,0.97,0.55,0.92,0.92,38.29,-72.01,-65.10
228271,29.00,-1.31,-2.67,-62.21,1013.25,600.00,0.04,-0.02,0.96,0.67,1.10,0.85,38.04,-72.20,-66.48
228322,29.00,-1.29,-2.59,-62.53,1013.25,600.00,0.04,-0.02,0.96,0.67,0.98,0.73,37.99,-73.13,-66.37
228373,29.00,-1.29,-2.46,-62.30,1013.25,600.00,0.04,-0.02,0.96,0.55,1.16,0.79,38.26,-72.83,-67.35
228424,29.00,-1.23,-2.57,-61.89,1013.25,600.00,0.04,-0.02,0.96,0.79,1.22,0.73,38.38,-71.79,-66.72
228524,29.00,-1.29,-2.57,-62.28,1013.25,600.00,0.04,-0.02,0.96,0.61,0.98,0.85,37.90,-72.20,-67.00
228625,29.00,-1.24,-2.62,-62.28,1013.25,600.00,0.04,-0.02,0.96,0.67,0.92,0.73,38.28,-72.85,-66.37
228676,29.00,-1.20,-2.56,-61.81,1013.25,600.00,0.04,-0.02,0.96,0.61,1.16,0.79,38.62,-72.01,-65.59
228727,29.00,-1.30,-2.63,-62.26,1013.25,600.00,0.04,-0.02,0.96,0.61,0.98,0.85,38.00,-72.33,-66.94
228778,29.00,-1.31,-2.62,-61.90,1013.25,600.00,0.04,-0.02,0.96,0.37,1.04,0.85,38.84,-72.71,-66.93
228829,29.00,-1.28,-2.54,-61.81,1013.25,600.00,0.04,-0.02,0.96,0.55,0.98,0.67,38.84,-72.46,-66.02
228880,29.00,-1.29,-2.67,-61.92,1013.25,600.00,0.05,-0.02,0.96,0.67,1.04,0.85,38.64,-72.45,-66.35
228931,29.00,-1.31,-2.61,-62.20,1013.25,600.00,0.04,-0.02,0.96,0.61,1.28,0.85,37.94,-72.01,-66.91
228982,29.00,-1.31,-2.57,-62.43,1013.25,600.00,0.04,-0.02,0.96,0.49,1.04,0.79,37.56,-71.97,-66.93
229033,29.00,-1.23,-2.61,-62.39,1013.25,600.00,0.04,-0.02,0.96,0.67,0.98,0.92,37.61,-71.91,-66.53
229084,29.00,-1.24,-2.66,-62.47,1013.25,600.00,0.04,-0.02,0.96,0.67,1.16,0.73,37.63,-72.23,-66.94
229134,29.00,-1.32,-2.57,-62.33,1013.25,600.00,0.04,-0.02,0.96,0.55,1.22,0.61,37.98,-72.41,-66.41
229185,29.00,-1.34,-2.54,-62.20,1013.25,600.00,0.04,-0.02,0.96,0.55,0.92,0.79,37.99,-72.05,-67.75
229236,29.00,-1.31,-2.59,-62.12,1013.25,600.00,0.04,-0.02,0.96,0.67,1.10,0.79,38.21,-72.20,-66.50
229287,29.00,-1.24,-2.58,-62.20,1013.25,600.00,0.04,-0.02,0.96,0.55,0.98,0.79,38.12,-72.34,-67.81
229338,29.00,-1.30,-2.56,-61.91,1013.25,600.00,0.04,-0.02,0.96,0.67,1.04,0.79,38.59,-72.24,-66.58
229389,29.00,-1.25,-2.57,-62.59,1013.25,600.00,0.04,-0.02,0.96,0.67,1.04,0.73,37.82,-73.06,-67.32
229440,29.00,-1.34,-2.63,-62.61,1013.25,600.00,0.04,-0.02,0.96,0.61,0.92,0.79,37.73,-72.83,-67.44
229491,29.00,-1.18,-2.51,-62.29,1013.25,600.00,0.04,-0.02,0.96,0.67,1.04,0.73,37.99,-72.27,-68.27
229542,29.00,-1.38,-2.57,-62.35,1013.25,600.00,0.04,-0.02,0.96,0.67,0.92,0.67,37.93,-72.40,-68.09
229593,29.00,-1.29,-2.56,-62.81,1013.25,600.00,0.04,-0.02,0.96,0.67,1.16,0.79,37.27,-72.62,-67.27
229644,29.00,-1.29,-2.47,-62.40,1013.25,600.00,0.04,-0.02,0.96,0.43,1.10,0.79,38.24,-73.11,-67.79
229695,29.00,-1.28,-2.60,-62.44,1013.25,600.00,0.04,-0.02,0.97,0.61,1.04,0.67,37.56,-71.97,-66.58
229746,29.00,-1.20,-2.62,-62.00,1013.25,600.00,0.04,-0.02,0.96,0.67,1.04,0.85,38.89,-73.10,-67.31
229797,29.00,-1.28,-2.66,-62.64,1013.25,600.00,0.04,-0.02,0.97,0.73,1.04,0.79,37.45,-72.50,-68.20
229848,29.00,-1.33,-2.59,-62.08,1013.25,600.00,0.04,-0.02,0.96,0.73,0.98,0.73,38.38,-72.33,-66.99
229899,29.00,-1.21,-2.63,-62.61,1013.25,600.00,0.04,-0.02,0.96,0.73,1.10,0.85,37.59,-72.64,-67.53
229949,29.00,-1.41,-2.50,-62.69,1013.25,600.00,0.04,-0.02,0.96,0.79,1.04,0.73,37.26,-72.16,-66.54
230000,29.00,-1.31,-2.48,-62.41,1013.25,600.00,0.04,-0.02,0.97,0.67,1.10,0.79,37.89,-72.47,-66.47
