Timestamp,Temperature,Roll,Pitch,Yaw,Pressure,Altitude,Ax,Ay,Az,Gx,Gy,Gz,Mx,My,Mz
0,23.07,3.47,4.56,-114.31,101325.0,0.0,0.07,0.14,0.0,-0.03,0.07,-0.07,29.26,1.72,-41.84
1,25.43,2.21,-4.11,-143.41,101312.98,1.0,-0.03,-0.17,0.02,0.03,-0.07,0.0,26.01,-2.67,-26.42
2,24.52,4.02,-1.67,-108.69,101300.95,2.0,0.25,-0.33,0.04,0.0,0.0,-0.01,33.94,-6.75,-49.42
3,26.96,-6.3,0.23,61.55,101288.93,3.01,-0.19,-0.02,0.06,-0.03,-0.03,-0.01,34.29,10.07,-38.29
4,24.47,9.44,-0.15,-59.67,101276.9,4.01,-0.09,0.06,0.08,0.0,0.03,0.02,25.85,2.41,-44.7
5,28.7,-6.82,-3.75,-70.98,101264.88,5.01,-0.05,-0.11,0.1,0.08,-0.04,-0.04,40.02,0.56,-39.42
6,23.06,2.94,1.44,139.64,101252.86,6.01,0.13,-0.01,0.12,0.03,-0.05,-0.02,29.06,5.22,-46.24
7,27.23,-7.02,1.67,-109.14,101240.83,7.01,0.07,0.13,0.14,0.0,-0.08,0.03,29.27,-7.23,-39.86
8,25.65,7.62,-9.42,-74.89,101228.81,8.02,-0.11,0.08,0.16,-0.02,0.05,-0.01,26.96,4.72,-32.12
9,25.35,1.49,3.0,80.93,101216.78,9.02,0.04,0.1,0.18,0.1,-0.02,-0.06,31.91,-13.75,-31.39
10,25.39,-1.85,-3.73,147.13,101204.76,10.02,0.03,0.13,0.2,-0.02,-0.04,-0.01,31.08,5.13,-46.63
11,22.96,2.95,5.48,154.08,101192.74,11.02,-0.42,0.04,0.22,0.0,-0.04,-0.0,35.17,4.93,-35.2
12,26.93,-4.34,-0.4,172.24,101180.71,12.02,-0.02,0.12,0.24,-0.06,-0.03,0.02,23.83,-11.1,-48.11
13,23.43,5.44,-3.04,-100.13,101168.69,13.03,-0.08,0.06,0.26,-0.01,0.06,-0.06,32.8,-3.76,-39.61
14,27.89,10.64,-3.88,-11.69,101156.66,14.03,-0.19,-0.29,0.27,0.03,0.04,0.01,25.78,5.51,-33.52
15,24.96,-7.52,-5.63,-65.76,101144.64,15.03,-0.2,0.0,0.29,-0.01,0.05,0.01,28.91,4.81,-35.99
16,22.45,2.53,2.99,-104.12,101132.62,16.03,0.03,-0.23,0.31,-0.08,0.03,0.06,21.32,5.27,-46.0
17,26.19,8.93,0.45,148.52,101120.59,17.03,0.02,-0.17,0.33,-0.07,-0.04,0.04,28.15,-0.92,-37.33
18,27.86,-4.67,-4.79,128.17,101108.57,18.04,-0.12,-0.03,0.35,0.05,0.06,-0.02,34.42,3.45,-40.2
19,23.77,-6.29,-5.96,113.37,101096.54,19.04,-0.35,0.15,0.37,-0.03,-0.02,0.07,26.49,0.51,-45.06
20,20.21,0.32,3.71,159.1,101084.52,20.04,0.25,-0.1,0.39,0.08,0.12,0.01,33.42,-2.43,-42.67
21,25.24,-4.58,-10.22,-9.52,101072.49,21.04,-0.13,-0.15,0.41,0.01,-0.03,0.11,33.27,2.73,-26.86
22,24.29,-5.56,3.29,88.28,101060.47,22.04,0.33,-0.13,0.43,0.09,0.06,-0.04,31.95,-5.85,-31.78
23,24.88,-3.17,2.43,32.05,101048.45,23.05,-0.16,0.28,0.45,-0.07,0.04,-0.07,30.78,0.3,-31.83
24,26.16,-3.11,-5.55,-149.54,101036.42,24.05,0.21,0.09,0.47,0.08,0.0,0.06,30.67,-2.73,-40.62
25,26.3,-3.7,4.92,-157.8,101024.4,25.05,-0.6,-0.26,0.49,0.04,0.02,-0.02,32.98,4.92,-34.56
26,25.34,-6.6,-3.26,156.51,101012.37,26.05,-0.18,-0.34,0.51,0.01,-0.0,-0.01,32.63,-6.78,-41.83
27,28.08,0.57,2.51,177.16,101000.35,27.05,-0.05,0.0,0.53,0.09,0.01,-0.05,35.91,0.1,-48.31
28,25.74,-1.93,-6.97,-58.4,100988.33,28.06,0.15,-0.06,0.55,0.02,-0.01,-0.05,30.3,-6.49,-41.7
29,23.06,8.15,3.03,-21.45,100976.3,29.06,0.01,0.02,0.57,0.03,0.0,-0.04,27.84,7.44,-38.16
30,27.54,-4.52,11.19,44.98,100964.28,30.06,-0.2,-0.12,0.59,-0.02,-0.06,-0.06,23.61,-0.82,-35.49
31,25.73,-0.03,4.0,-137.85,100952.25,31.06,0.02,-0.27,0.61,-0.0,-0.03,0.03,32.93,-9.95,-33.77
32,26.11,-6.38,1.15,-99.21,100940.23,32.06,-0.02,-0.11,0.63,-0.02,0.04,-0.01,35.03,-4.14,-41.05
33,25.35,-5.96,-1.29,107.15,100928.21,33.07,-0.13,-0.03,0.65,0.06,0.0,-0.04,21.54,0.28,-40.94
34,28.65,-7.05,3.08,129.81,100916.18,34.07,-0.03,-0.11,0.67,0.04,-0.02,0.02,23.46,1.84,-35.08
35,24.49,3.19,3.8,104.14,100904.16,35.07,-0.18,-0.15,0.69,-0.1,0.01,0.02,32.06,1.31,-42.0
36,28.03,2.29,11.93,-126.26,100892.13,36.07,0.2,-0.0,0.71,-0.02,-0.06,-0.0,37.41,-3.97,-34.66
37,24.33,-3.96,8.02,-117.37,100880.11,37.07,0.04,-0.0,0.73,0.0,-0.05,0.1,34.13,-1.2,-41.33
38,24.13,-8.01,5.13,1.43,100868.09,38.08,0.22,-0.01,0.75,-0.06,-0.01,0.06,28.76,-9.48,-38.16
39,24.73,-3.67,6.99,87.44,100856.06,39.08,-0.18,0.18,0.77,0.01,-0.02,-0.03,30.53,9.15,-37.9
40,26.4,8.17,-1.42,110.15,100844.04,40.08,0.09,0.18,0.79,0.02,-0.01,-0.0,32.26,-0.61,-39.34
41,24.36,-4.25,-2.02,51.93,100832.01,41.08,-0.09,-0.1,0.81,0.07,-0.0,-0.06,30.59,2.45,-37.46
42,25.11,0.98,-10.39,160.81,100819.99,42.08,0.26,0.27,0.82,-0.01,0.06,0.01,34.95,5.06,-41.09
43,28.63,2.67,-1.74,72.87,100807.97,43.09,-0.03,-0.27,0.84,0.01,-0.01,-0.11,20.99,1.94,-36.62
44,23.41,-5.37,0.26,-133.0,100795.94,44.09,-0.1,0.26,0.86,-0.02,-0.02,-0.01,35.71,-3.58,-41.46
45,26.29,-5.02,4.57,169.32,100783.92,45.09,0.01,-0.15,0.88,-0.04,0.1,-0.02,22.26,3.65,-32.54
46,25.72,4.71,-2.82,77.45,100771.89,46.09,-0.23,-0.26,0.9,-0.01,-0.0,0.02,37.83,5.36,-40.87
47,26.0,0.38,4.03,149.65,100759.87,47.09,-0.42,-0.13,0.92,0.04,-0.04,-0.11,21.19,-12.35,-44.4
48,25.66,1.1,-1.9,44.28,100747.85,48.1,0.41,0.24,0.94,-0.03,0.08,-0.08,23.05,-2.6,-42.39
49,25.23,1.49,7.51,-176.58,100735.82,49.1,-0.06,0.19,0.96,0.05,-0.06,0.03,30.6,9.25,-28.23
50,24.54,-1.32,1.97,-14.12,100723.8,50.1,-0.02,-0.14,0.98,0.05,-0.02,0.04,31.16,8.09,-45.62
51,23.34,-3.01,-7.26,149.13,100711.77,51.1,-0.12,-0.16,1.0,0.01,0.02,0.05,30.68,-3.15,-40.87
52,26.01,-6.01,-5.98,-40.51,100699.75,52.1,0.12,0.23,1.02,0.01,0.03,-0.0,33.61,8.15,-35.55
53,27.51,-7.01,7.13,77.87,100687.73,53.11,-0.09,0.13,1.04,0.01,-0.14,-0.01,28.89,-6.47,-45.18
54,22.14,1.93,-2.59,178.41,100675.7,54.11,-0.28,-0.02,1.06,-0.01,0.01,0.04,29.72,7.4,-43.66
55,26.48,-0.18,2.34,-70.74,100663.68,55.11,0.01,0.06,1.08,-0.02,0.0,0.04,38.36,4.99,-39.8
56,24.1,-9.0,-5.57,-89.62,100651.65,56.11,-0.43,0.03,1.1,0.1,0.06,0.02,41.23,0.65,-32.78
57,25.13,-4.45,6.67,102.98,100639.63,57.11,-0.25,0.17,1.12,-0.06,0.05,-0.05,17.49,-7.31,-32.61
58,26.3,1.12,0.26,-50.47,100627.61,58.12,0.26,-0.27,1.14,-0.07,0.03,-0.09,22.02,-4.03,-39.88
59,27.02,-2.86,-4.42,-33.03,100615.58,59.12,-0.02,-0.51,1.16,-0.15,-0.02,-0.02,30.96,-1.64,-35.12
60,24.03,2.16,-2.9,-55.06,100603.56,60.12,-0.1,-0.2,1.18,0.0,-0.02,0.02,32.86,-1.84,-39.92
61,26.36,5.57,-2.04,48.9,100591.53,61.12,0.1,-0.56,1.2,-0.06,0.02,-0.09,27.62,-5.51,-45.59
62,28.35,-1.22,5.21,53.82,100579.51,62.12,-0.04,-0.06,1.22,-0.1,0.06,-0.03,23.77,-8.35,-45.91
63,25.42,2.26,2.07,-143.51,100567.48,63.13,0.01,0.35,1.24,-0.07,-0.01,0.04,26.45,-4.05,-45.96
64,28.56,-4.77,9.72,-62.74,100555.46,64.13,0.03,-0.02,1.26,-0.0,0.01,0.01,27.21,6.13,-35.26
65,24.92,3.84,4.76,135.37,100543.44,65.13,-0.39,-0.05,1.28,-0.11,-0.05,-0.03,31.29,-12.27,-34.77
66,29.62,-2.44,-0.32,-50.54,100531.41,66.13,-0.03,0.01,1.3,-0.0,0.0,-0.03,22.33,5.54,-38.94
67,22.72,-1.9,-5.39,-38.16,100519.39,67.13,-0.05,-0.12,1.32,0.03,-0.0,-0.04,26.9,-1.08,-35.81
68,27.01,4.27,7.07,-37.28,100507.36,68.14,0.06,0.32,1.34,-0.06,-0.01,-0.04,21.81,-0.87,-42.38
69,23.66,-1.67,1.2,-116.35,100495.34,69.14,-0.27,0.07,1.36,0.02,0.03,-0.02,30.84,-4.61,-33.7
70,28.29,2.89,-2.45,123.63,100483.32,70.14,-0.01,0.14,1.37,0.01,-0.05,0.01,28.66,3.44,-39.39
71,23.79,6.23,1.9,-61.17,100471.29,71.14,-0.24,-0.0,1.39,0.04,-0.12,-0.01,34.51,-3.0,-44.74
72,23.7,4.1,3.9,133.27,100459.27,72.14,-0.06,0.16,1.41,-0.02,0.09,0.08,24.67,10.61,-46.37
73,24.47,1.47,-7.0,-102.77,100447.24,73.15,-0.02,0.08,1.43,0.07,0.01,0.0,26.91,-2.42,-43.21
74,24.81,7.72,-7.89,126.17,100435.22,74.15,0.25,-0.06,1.45,-0.01,0.03,0.04,37.44,-5.37,-34.25
75,25.59,-7.85,6.26,159.38,100423.2,75.15,-0.03,-0.02,1.47,-0.0,-0.01,0.0,27.98,1.28,-37.88
76,25.95,7.58,-1.83,-26.46,100411.17,76.15,-0.01,0.08,1.49,-0.11,0.01,0.04,24.77,-1.51,-49.39
77,20.78,-1.47,7.07,30.17,100399.15,77.15,0.01,0.07,1.51,-0.05,-0.04,0.0,33.99,1.18,-49.07
78,29.51,3.01,8.75,-74.28,100387.12,78.16,0.31,-0.0,1.53,-0.01,-0.06,0.02,32.37,-6.51,-39.4
79,25.04,0.48,-0.9,101.84,100375.1,79.16,0.25,0.15,1.55,0.01,-0.0,-0.05,39.35,-0.68,-29.84
80,23.82,-11.08,7.71,166.42,100363.08,80.16,0.19,-0.11,1.57,-0.05,-0.01,0.03,23.17,-2.75,-41.57
81,26.2,-5.42,-4.53,-46.31,100351.05,81.16,-0.04,0.02,1.59,-0.01,-0.11,-0.02,28.66,-1.57,-34.27
82,23.32,7.04,-4.53,66.76,100339.03,82.16,0.26,0.01,1.61,-0.09,0.07,-0.04,35.67,-3.01,-42.98
83,25.38,-6.7,8.91,51.26,100327.0,83.17,0.22,-0.1,1.63,0.07,-0.03,-0.04,36.99,-9.82,-40.32
84,24.23,0.16,-10.65,19.27,100314.98,84.17,0.34,-0.17,1.65,-0.08,-0.02,0.06,30.22,4.94,-39.33
85,24.52,-2.62,4.48,-142.35,100302.96,85.17,0.03,0.08,1.67,-0.07,0.06,0.03,27.08,1.15,-35.94
86,25.0,-0.27,-2.89,-87.21,100290.93,86.17,-0.36,-0.17,1.69,-0.01,-0.09,-0.07,35.27,-1.5,-42.92
87,28.14,0.26,7.32,33.2,100278.91,87.17,0.01,-0.22,1.71,-0.04,0.03,0.03,29.02,1.56,-49.75
88,24.44,4.18,-2.71,-149.01,100266.88,88.18,0.13,-0.05,1.73,-0.05,-0.03,0.01,30.31,-2.97,-41.49
89,23.05,-1.19,0.94,122.88,100254.86,89.18,0.02,0.48,1.75,-0.11,0.06,0.08,28.25,-3.01,-49.92
90,24.29,-1.91,-2.26,-65.23,100242.84,90.18,-0.1,0.17,1.77,0.09,-0.04,-0.11,25.35,0.77,-35.81
91,27.16,-9.46,8.96,173.45,100230.81,91.18,-0.24,-0.02,1.79,-0.05,-0.03,0.04,24.43,-1.4,-42.59
92,25.86,-4.16,-5.59,-132.55,100218.79,92.18,0.13,0.06,1.81,-0.09,-0.05,-0.05,21.98,-5.97,-32.74
93,26.43,-0.31,-6.38,-38.18,100206.76,93.19,0.11,0.25,1.83,-0.03,0.01,-0.07,27.06,4.66,-36.35
94,24.52,0.92,-0.2,66.6,100194.74,94.19,-0.14,0.24,1.85,0.05,-0.14,0.04,11.91,-7.23,-36.42
95,25.77,-0.49,0.34,-80.48,100182.72,95.19,0.02,-0.15,1.87,0.01,0.0,0.02,29.27,9.47,-38.99
96,24.65,-3.63,9.34,8.01,100170.69,96.19,-0.1,-0.03,1.89,0.03,-0.07,-0.06,34.51,-1.73,-37.16
97,27.57,3.08,-1.68,16.29,100158.67,97.19,-0.21,-0.06,1.91,0.06,0.07,-0.03,23.14,4.24,-40.74
98,25.43,4.12,0.43,60.74,100146.64,98.2,-0.36,-0.26,1.92,0.03,0.01,-0.01,13.84,0.09,-37.1
99,25.09,7.59,-9.85,-72.53,100134.62,99.2,-0.1,0.27,1.94,0.0,0.05,0.02,20.9,4.93,-37.17
100,27.27,7.22,1.92,13.18,100122.6,100.2,0.06,-0.28,1.96,0.01,-0.06,0.06,39.32,-0.14,-52.06
101,21.5,-0.24,1.62,33.41,100110.57,101.2,0.33,0.08,1.98,0.01,-0.02,-0.03,32.14,9.38,-28.78
102,23.92,6.21,-6.61,-88.25,100098.55,102.2,-0.13,0.15,2.0,-0.1,0.09,-0.04,30.56,-1.66,-49.7
103,24.56,-2.32,-7.87,-98.67,100086.52,103.21,-0.32,-0.31,2.02,0.14,-0.05,0.04,34.79,-7.88,-46.3
104,27.84,7.06,-6.6,-119.35,100074.5,104.21,0.05,0.31,2.04,-0.03,0.02,0.04,34.39,-0.19,-43.4
105,27.34,-0.33,4.23,-87.02,100062.47,105.21,-0.14,0.38,2.06,0.02,-0.1,0.04,19.58,-11.44,-36.28
106,24.32,-2.68,2.34,122.79,100050.45,106.21,-0.03,-0.0,2.08,-0.05,-0.03,-0.02,35.97,1.71,-36.34
107,24.08,6.33,4.73,-60.45,100038.43,107.21,-0.22,-0.05,2.1,-0.04,-0.07,-0.05,29.94,-4.15,-51.76
108,24.85,-2.17,-1.41,152.88,100026.4,108.22,0.05,0.05,2.12,0.02,-0.03,-0.01,32.75,-6.39,-36.18
109,24.78,-4.49,-5.94,-165.92,100014.38,109.22,-0.27,0.26,2.14,-0.01,-0.11,-0.0,34.86,-4.53,-39.19
110,25.52,4.79,3.24,116.23,100002.35,110.22,-0.33,0.1,2.16,-0.1,-0.03,-0.09,31.16,2.58,-42.02
111,25.33,0.54,-6.48,-13.07,99990.33,111.22,-0.22,-0.05,2.18,0.07,-0.04,0.02,20.85,-7.5,-38.51
112,27.42,4.89,0.06,59.88,99978.31,112.22,-0.03,-0.21,2.2,0.02,-0.07,-0.1,31.64,5.15,-36.91
113,24.96,-2.33,1.37,104.89,99966.28,113.23,-0.11,-0.38,2.22,-0.02,-0.06,0.04,27.61,-5.18,-40.44
114,25.37,-4.93,-2.32,177.84,99954.26,114.23,0.23,0.3,2.24,0.02,-0.06,0.01,26.24,0.26,-39.22
115,20.68,4.38,4.16,-21.86,99942.23,115.23,0.14,0.59,2.26,0.09,-0.03,-0.1,27.68,2.18,-39.13
116,24.89,3.95,0.5,-108.49,99930.21,116.23,0.09,0.03,2.28,-0.02,0.03,0.01,33.59,7.02,-43.47
117,22.71,0.32,3.19,67.79,99918.19,117.23,-0.1,-0.12,2.3,0.01,0.02,-0.0,26.21,5.77,-46.9
118,23.26,-0.25,-5.28,-139.54,99906.16,118.24,0.07,-0.16,2.32,-0.03,0.03,0.01,25.01,4.92,-41.5
119,20.85,-4.59,1.34,-73.89,99894.14,119.24,0.1,-0.08,2.34,0.05,-0.0,-0.06,34.25,1.43,-42.2
120,20.9,1.35,-1.32,73.63,99882.11,120.24,0.2,-0.02,2.36,0.03,-0.01,-0.09,17.96,-1.72,-45.5
121,24.87,4.57,0.98,32.17,99870.09,121.24,-0.13,0.27,2.38,-0.12,0.04,0.03,32.92,3.53,-38.12
122,24.75,7.74,-0.07,120.73,99858.07,122.24,-0.17,0.07,2.4,0.02,0.02,0.02,25.6,7.75,-29.49
123,26.26,-3.77,-2.43,-129.56,99846.04,123.25,0.19,-0.01,2.42,0.01,0.0,-0.03,32.33,-2.24,-39.25
124,26.01,-6.36,4.36,142.02,99834.02,124.25,0.15,-0.05,2.44,0.07,0.05,0.01,33.56,-1.74,-45.82
125,26.86,0.39,5.51,-146.0,99821.99,125.25,-0.25,-0.4,2.45,-0.03,-0.07,-0.06,29.99,6.98,-40.78
126,26.5,6.91,-10.63,15.55,99809.97,126.25,0.5,-0.12,2.47,0.05,-0.03,-0.03,25.41,0.3,-39.86
127,24.63,-1.35,-1.62,87.21,99797.95,127.25,0.29,0.14,2.49,-0.02,0.02,0.03,29.13,1.62,-30.78
128,25.9,5.72,0.05,-174.31,99785.92,128.26,0.13,-0.23,2.51,-0.01,-0.02,0.08,31.82,9.02,-47.71
129,25.99,2.6,-4.46,-59.94,99773.9,129.26,0.02,-0.02,2.53,0.02,-0.14,0.02,33.46,-9.34,-41.55
130,26.93,9.42,-2.62,-8.49,99761.87,130.26,-0.09,-0.11,2.55,0.01,-0.04,-0.0,21.64,4.2,-46.95
131,28.2,0.66,-7.46,-30.86,99749.85,131.26,0.51,-0.1,2.57,-0.02,0.05,-0.06,35.09,-3.89,-38.8
132,23.95,-3.09,6.52,69.59,99737.83,132.26,-0.15,0.3,2.59,0.11,0.0,-0.04,38.83,-3.36,-36.44
133,25.59,-2.46,3.58,28.91,99725.8,133.27,0.19,0.04,2.61,-0.13,0.02,-0.03,30.12,-0.21,-44.89
134,24.78,0.61,1.45,-69.33,99713.78,134.27,-0.18,-0.23,2.63,0.11,0.01,0.03,31.95,-6.19,-39.82
135,21.63,-4.61,-3.75,123.5,99701.75,135.27,0.07,-0.32,2.65,0.11,0.03,0.02,38.98,-4.22,-43.6
136,23.25,3.35,-7.36,16.56,99689.73,136.27,-0.1,0.29,2.67,0.08,0.02,0.01,33.24,7.56,-43.31
137,20.65,-0.54,1.07,16.76,99677.71,137.27,0.12,-0.06,2.69,-0.02,0.0,0.12,27.7,1.59,-41.69
138,25.78,-1.58,10.79,170.82,99665.68,138.28,0.27,0.09,2.71,0.03,-0.01,0.06,24.49,1.55,-38.48
139,25.12,-6.3,-8.17,-160.29,99653.66,139.28,-0.02,-0.15,2.73,0.04,-0.02,0.03,36.8,-6.74,-51.85
140,29.88,-8.68,1.5,65.62,99641.63,140.28,-0.11,0.21,2.75,0.02,0.04,0.02,32.28,-0.85,-41.97
141,27.03,-3.34,0.49,115.35,99629.61,141.28,-0.04,-0.04,2.77,0.01,0.02,0.01,22.88,-5.99,-39.12
142,25.25,-7.44,2.3,-38.34,99617.59,142.28,0.08,0.0,2.79,0.02,-0.0,0.01,29.73,4.49,-42.72
143,27.38,-4.88,0.28,-74.8,99605.56,143.29,0.21,-0.06,2.81,-0.03,0.04,0.02,38.31,-0.93,-34.32
144,27.61,0.88,-9.43,91.88,99593.54,144.29,0.01,0.08,2.83,0.06,-0.04,0.06,28.36,4.58,-36.23
145,23.11,2.6,6.36,135.12,99581.51,145.29,0.07,0.03,2.85,0.04,-0.08,0.09,45.53,4.24,-39.0
146,27.8,-1.18,1.74,-119.23,99569.49,146.29,0.11,0.11,2.87,-0.08,-0.05,-0.04,36.31,-4.5,-46.77
147,25.53,-9.47,2.71,-4.16,99557.46,147.29,0.15,0.01,2.89,0.04,-0.06,-0.0,31.12,-4.63,-49.12
148,20.92,-3.72,7.19,-148.03,99545.44,148.3,0.02,-0.13,2.91,0.03,-0.02,-0.01,30.01,-2.84,-42.03
149,25.3,-0.01,9.12,-118.33,99533.42,149.3,-0.32,0.05,2.93,0.01,0.03,0.06,22.34,4.47,-39.97
150,26.75,7.07,-1.86,78.19,99521.39,150.3,-0.27,0.03,2.95,-0.05,0.01,-0.07,28.35,4.34,-47.98
151,21.76,1.6,-5.99,-80.51,99509.37,151.3,0.02,-0.3,2.97,0.03,0.08,0.04,36.01,3.08,-36.67
152,22.56,-1.99,5.35,-74.36,99497.34,152.3,0.37,0.11,2.99,0.09,0.06,0.03,19.8,-0.91,-40.98
153,26.59,1.72,3.13,-6.41,99485.32,153.31,0.06,0.24,3.0,0.1,-0.01,-0.05,28.39,2.45,-38.94
154,24.73,1.45,-1.51,-60.91,99473.3,154.31,0.17,0.21,3.02,0.03,-0.07,-0.01,24.05,-2.92,-45.01
155,28.1,-0.59,-5.7,170.12,99461.27,155.31,-0.14,-0.16,3.04,-0.0,0.01,0.03,19.2,-2.31,-34.03
156,25.79,-4.15,-4.04,72.56,99449.25,156.31,-0.2,-0.38,3.06,0.0,-0.0,0.05,26.61,7.34,-33.97
157,25.5,-6.21,-7.9,-22.64,99437.22,157.31,0.03,0.2,3.08,-0.03,0.08,-0.01,31.55,-7.2,-39.75
158,24.05,-5.17,-3.92,128.44,99425.2,158.32,0.02,-0.01,3.1,-0.06,0.0,0.02,32.62,-0.19,-35.81
159,22.55,3.93,-2.55,-90.82,99413.18,159.32,-0.25,0.0,3.12,-0.07,0.06,0.05,34.45,-0.58,-45.61
160,23.83,-0.07,0.77,-85.16,99401.15,160.32,0.23,0.08,3.14,-0.03,-0.03,-0.06,27.74,-1.59,-37.37
161,24.37,4.25,3.32,-164.34,99389.13,161.32,-0.17,0.07,3.16,-0.06,-0.06,0.03,28.33,-7.22,-43.27
162,26.65,4.29,-1.8,-128.7,99377.1,162.32,0.4,-0.27,3.18,-0.07,-0.04,0.03,27.32,-1.64,-39.92
163,25.27,6.77,-2.06,-85.45,99365.08,163.33,0.57,0.02,3.2,-0.05,-0.08,0.02,27.59,-6.41,-32.28
164,23.58,-5.96,-1.26,32.02,99353.06,164.33,-0.07,-0.35,3.22,0.05,0.0,0.07,39.72,2.21,-45.5
165,25.5,-1.02,11.18,-25.53,99341.03,165.33,-0.04,-0.22,3.24,-0.04,-0.07,-0.06,24.49,-9.21,-39.66
166,24.05,-8.41,6.18,178.49,99329.01,166.33,-0.01,0.16,3.26,-0.02,-0.05,-0.04,25.18,5.15,-41.02
167,26.25,-8.06,-3.28,56.46,99316.98,167.33,0.11,0.41,3.28,-0.04,0.03,-0.08,18.83,2.1,-37.36
168,25.83,1.17,-6.14,-47.27,99304.96,168.34,0.04,-0.1,3.3,0.06,-0.09,0.05,31.79,-4.12,-40.65
169,25.04,-0.62,1.04,-67.34,99292.94,169.34,0.22,-0.01,3.32,0.05,-0.01,-0.03,27.99,4.08,-35.5
170,25.7,3.66,-1.58,-163.66,99280.91,170.34,0.15,0.34,3.34,-0.01,-0.02,-0.07,31.59,1.93,-43.77
171,28.76,-5.68,0.21,89.91,99268.89,171.34,0.37,-0.02,3.36,0.02,-0.1,0.01,34.3,-9.81,-42.21
172,23.2,7.32,3.81,-14.04,99256.86,172.34,0.13,-0.41,3.38,-0.02,-0.02,-0.02,39.38,-2.68,-36.68
173,25.34,8.69,8.61,149.15,99244.84,173.35,-0.08,0.15,3.4,0.04,-0.01,-0.01,28.7,3.18,-44.23
174,26.96,0.38,8.99,123.81,99232.82,174.35,0.2,-0.47,3.42,-0.04,-0.01,0.09,26.6,2.61,-33.91
175,26.43,-6.37,-9.63,118.3,99220.79,175.35,0.2,0.12,3.44,0.03,0.02,-0.06,32.14,-7.13,-42.86
176,27.97,6.81,-5.6,-16.54,99208.77,176.35,-0.06,0.13,3.46,0.03,0.03,-0.02,33.57,-7.45,-44.42
177,24.59,12.32,-4.86,151.22,99196.74,177.35,-0.09,0.31,3.48,-0.07,-0.0,-0.02,29.95,5.76,-33.33
178,24.14,-1.63,6.5,176.28,99184.72,178.36,0.08,-0.09,3.5,-0.12,-0.0,0.04,29.35,-14.27,-32.83
179,23.47,1.9,4.13,11.4,99172.7,179.36,-0.05,0.24,3.52,0.06,-0.02,-0.04,35.94,-0.26,-37.02
180,24.99,-1.1,0.01,-90.38,99160.67,180.36,-0.12,0.21,3.54,0.17,0.06,0.06,28.25,-3.87,-40.76
181,26.46,-2.61,-3.92,79.53,99148.65,181.36,0.16,0.25,3.55,-0.04,0.01,0.01,30.64,3.13,-33.87
182,26.49,-5.24,-8.34,52.24,99136.62,182.36,-0.11,0.29,3.57,-0.0,0.06,0.15,23.41,3.76,-34.06
183,22.69,3.97,-5.17,153.84,99124.6,183.37,-0.13,-0.22,3.59,0.04,0.08,0.06,34.42,-1.41,-44.27
184,26.57,4.69,-1.43,-136.49,99112.58,184.37,0.01,-0.12,3.61,0.07,0.03,0.08,31.25,5.25,-36.42
185,27.39,7.84,-4.49,-141.45,99100.55,185.37,0.11,0.18,3.63,-0.01,0.05,0.04,23.33,6.83,-39.72
186,21.84,-1.05,8.23,164.54,99088.53,186.37,0.13,0.43,3.65,0.08,0.06,0.04,31.67,-2.9,-36.73
187,20.99,1.61,1.58,11.55,99076.5,187.37,-0.13,0.04,3.67,0.08,-0.04,0.0,30.83,-6.19,-42.02
188,25.88,0.57,-3.96,117.05,99064.48,188.38,0.23,0.05,3.69,0.02,0.04,0.03,39.82,2.57,-36.1
189,24.95,4.27,-0.13,-51.12,99052.45,189.38,-0.07,0.11,3.71,-0.06,0.02,0.01,30.97,4.84,-34.48
190,28.03,2.63,4.03,-59.57,99040.43,190.38,0.12,-0.07,3.73,-0.0,0.06,0.04,28.14,-2.3,-32.41
191,24.62,6.91,5.94,-37.31,99028.41,191.38,-0.01,-0.29,3.75,0.06,0.01,0.03,28.46,4.37,-45.84
192,25.4,1.3,-4.82,-59.22,99016.38,192.38,0.13,0.15,3.77,0.01,-0.07,-0.07,32.04,-9.42,-36.11
193,24.77,4.05,-0.44,-84.23,99004.36,193.39,0.21,-0.06,3.79,-0.09,0.06,0.06,28.0,-1.21,-39.33
194,26.54,-1.06,1.5,-84.83,98992.33,194.39,0.09,-0.09,3.81,0.03,-0.09,-0.01,27.51,0.69,-37.44
195,27.74,2.23,0.98,76.99,98980.31,195.39,-0.46,-0.11,3.83,0.04,-0.06,0.01,23.27,4.74,-46.3
196,23.07,5.08,-0.0,-23.29,98968.29,196.39,-0.22,-0.01,3.85,-0.01,-0.04,0.06,30.8,-3.77,-35.37
197,23.44,1.83,-6.66,-74.59,98956.26,197.39,0.31,-0.1,3.87,-0.01,0.02,-0.01,29.83,3.8,-41.38
198,25.72,2.22,-4.41,155.47,98944.24,198.4,0.24,0.12,3.89,0.05,0.02,-0.01,26.14,3.01,-41.87
199,25.21,-6.56,-3.06,-159.77,98932.21,199.4,-0.09,0.02,3.91,-0.05,-0.1,0.01,37.73,-3.58,-39.13
200,22.5,4.94,-3.41,81.7,98920.19,200.4,0.04,0.03,3.93,-0.07,-0.01,0.02,39.4,-0.79,-37.52
201,22.19,11.79,3.59,-158.46,98908.17,201.4,0.16,0.06,3.95,-0.02,-0.03,-0.03,23.33,-1.99,-44.14
202,24.58,-9.51,-1.96,-113.33,98896.14,202.4,-0.0,0.03,3.97,-0.03,-0.01,-0.02,29.04,0.28,-43.0
203,24.2,0.88,-0.21,-104.93,98884.12,203.41,-0.18,0.31,3.99,0.06,-0.03,0.07,27.81,4.63,-34.97
204,25.16,-8.35,2.54,-136.08,98872.09,204.41,-0.1,0.02,4.01,0.0,-0.05,0.0,36.69,2.07,-42.04
205,21.29,6.9,-3.71,75.9,98860.07,205.41,-0.03,0.1,4.03,-0.04,0.02,-0.03,37.16,-0.93,-44.43
206,26.55,0.95,-4.13,-80.52,98848.05,206.41,-0.07,-0.11,4.05,-0.03,-0.01,-0.02,28.87,7.42,-45.94
207,27.34,-2.92,2.01,80.54,98836.02,207.41,0.24,0.38,4.07,-0.05,-0.01,-0.01,28.12,4.87,-39.05
208,23.36,-0.03,-4.34,57.92,98824.0,208.42,-0.02,0.14,4.08,-0.03,-0.02,-0.02,20.99,-6.3,-40.78
209,25.41,-8.16,2.46,-57.43,98811.97,209.42,0.42,-0.37,4.1,0.06,-0.04,-0.1,19.5,0.5,-37.71
210,24.39,-2.01,6.54,120.27,98799.95,210.42,0.21,-0.15,4.12,-0.03,0.05,0.05,29.6,-2.57,-39.68
211,25.79,-0.15,0.72,139.82,98787.93,211.42,0.05,0.01,4.14,0.02,-0.08,0.03,24.51,2.1,-39.3
212,27.58,2.76,-6.86,94.41,98775.9,212.42,-0.13,0.16,4.16,0.02,0.02,0.01,30.11,4.43,-43.0
213,21.56,-1.13,7.97,117.69,98763.88,213.43,-0.15,0.06,4.18,0.06,-0.01,-0.07,38.68,-1.95,-32.29
214,26.18,8.51,-3.54,-162.26,98751.85,214.43,0.21,-0.08,4.2,0.02,0.07,-0.03,25.56,6.62,-39.57
215,23.29,3.23,-0.82,-1.72,98739.83,215.43,-0.36,-0.13,4.22,-0.02,0.03,-0.05,39.36,10.45,-46.29
216,23.07,0.71,3.85,-127.96,98727.81,216.43,-0.31,-0.06,4.24,-0.04,-0.01,0.02,21.41,0.47,-43.23
217,24.17,7.59,0.53,-14.47,98715.78,217.43,0.57,0.06,4.26,-0.06,0.02,0.04,39.39,-4.93,-32.46
218,25.38,8.42,-5.74,18.57,98703.76,218.44,-0.02,-0.19,4.28,0.02,0.02,-0.0,28.74,2.37,-43.69
219,27.48,0.48,2.05,63.33,98691.73,219.44,0.01,-0.09,4.3,-0.03,-0.08,0.04,41.07,4.27,-46.91
220,25.53,2.27,-1.29,-141.52,98679.71,220.44,0.01,-0.1,4.32,-0.06,0.05,-0.02,29.38,-4.75,-50.44
221,25.03,1.14,3.25,61.66,98667.69,221.44,0.08,0.25,4.34,-0.09,0.01,0.02,34.31,5.26,-36.09
222,22.77,-2.77,-8.49,-53.04,98655.66,222.44,-0.14,-0.01,4.36,0.02,0.05,0.02,25.06,5.7,-35.81
223,24.15,3.42,-4.16,41.12,98643.64,223.45,0.25,-0.14,4.38,-0.03,-0.04,0.03,22.06,-2.32,-44.98
224,24.15,3.34,-2.25,76.23,98631.61,224.45,-0.04,0.03,4.4,-0.05,-0.02,0.07,32.95,0.65,-33.86
225,24.95,-0.02,3.05,11.7,98619.59,225.45,0.26,0.34,4.42,0.05,0.02,-0.03,28.31,1.12,-43.93
226,24.46,-7.27,0.83,59.2,98607.57,226.45,0.03,0.07,4.44,0.01,0.06,-0.04,32.36,-3.7,-31.05
227,23.02,5.6,-0.38,16.96,98595.54,227.45,0.08,0.1,4.46,0.01,-0.01,0.03,26.76,-2.76,-44.06
228,26.44,-5.33,-8.66,-78.69,98583.52,228.46,-0.07,0.15,4.48,-0.02,0.03,0.04,26.5,3.94,-29.8
229,24.33,-5.67,-5.61,-159.87,98571.49,229.46,0.06,0.01,4.5,-0.01,-0.05,0.04,27.17,1.21,-41.41
230,25.07,-4.27,-0.45,-9.46,98559.47,230.46,-0.02,0.1,4.52,-0.06,-0.03,0.02,29.97,5.08,-38.82
231,27.04,0.24,6.22,172.48,98547.44,231.46,0.33,0.1,4.54,-0.05,0.01,0.05,35.44,-2.35,-39.67
232,24.69,1.48,-2.14,-86.12,98535.42,232.46,0.1,0.38,4.56,-0.02,0.1,0.02,26.25,-5.59,-42.1
233,23.53,-3.29,-0.38,-148.32,98523.4,233.47,0.12,-0.45,4.58,-0.07,0.04,0.02,29.15,-10.87,-46.4
234,26.73,4.29,1.18,-35.13,98511.37,234.47,0.1,0.01,4.6,-0.09,-0.0,-0.01,34.12,9.11,-43.27
235,24.54,-2.63,4.46,-160.13,98499.35,235.47,0.1,-0.4,4.62,-0.04,-0.06,-0.0,24.63,-4.32,-46.64
236,27.18,3.64,-0.4,144.19,98487.32,236.47,0.05,0.13,4.63,-0.02,-0.02,-0.04,36.45,-2.66,-52.63
237,27.2,4.67,-6.82,125.54,98475.3,237.47,0.36,0.0,4.65,-0.08,-0.02,0.04,29.97,-6.12,-46.07
238,27.78,-1.58,1.76,46.23,98463.28,238.48,0.05,-0.1,4.67,-0.13,0.02,0.01,29.5,0.95,-45.13
239,29.45,-4.44,-6.04,-67.41,98451.25,239.48,0.24,0.01,4.69,0.05,0.07,0.0,24.74,-2.99,-43.32
240,22.09,-2.52,-0.03,-113.35,98439.23,240.48,0.38,-0.14,4.71,-0.05,0.03,-0.11,30.86,3.17,-34.11
241,27.28,-7.76,-6.33,142.05,98427.2,241.48,0.09,0.04,4.73,0.05,0.15,0.07,37.25,-11.45,-43.15
242,21.01,4.01,-12.46,6.85,98415.18,242.48,0.02,0.16,4.75,-0.07,-0.08,0.04,29.01,-2.08,-39.13
243,25.22,-6.06,-2.01,20.36,98403.16,243.49,0.26,0.24,4.77,0.02,-0.05,-0.02,38.79,-1.97,-31.19
244,24.59,-0.6,-0.3,-29.56,98391.13,244.49,0.05,0.02,4.79,-0.09,-0.02,0.05,34.97,1.28,-39.72
245,26.12,6.83,-7.51,-114.75,98379.11,245.49,-0.03,-0.05,4.81,-0.06,-0.02,0.0,26.54,-2.73,-32.39
246,24.29,-2.91,-2.25,25.71,98367.08,246.49,0.11,0.3,4.83,0.02,0.01,-0.09,29.8,-2.01,-38.88
247,24.84,-0.75,0.62,81.0,98355.06,247.49,0.0,0.26,4.85,-0.09,0.0,0.05,28.83,-7.98,-43.56
248,23.92,-2.27,2.91,-110.26,98343.04,248.5,0.1,0.0,4.87,-0.0,-0.04,-0.1,25.02,-2.9,-41.75
249,25.01,-1.13,2.77,46.97,98331.01,249.5,0.38,-0.0,4.89,0.03,-0.02,-0.0,32.68,-6.5,-44.92
250,22.87,7.35,3.0,40.22,98318.99,250.5,0.17,0.05,4.91,0.02,-0.1,-0.0,31.87,1.43,-43.18
251,22.21,-4.61,2.04,53.96,98306.96,251.5,0.25,-0.17,4.93,-0.02,0.02,0.08,28.75,4.65,-39.03
252,26.34,1.8,-0.04,147.35,98294.94,252.51,0.08,-0.1,4.95,0.09,-0.02,0.02,31.07,0.28,-38.25
253,23.79,3.33,-7.18,30.19,98282.92,253.51,0.33,0.33,4.97,-0.01,-0.07,-0.02,25.6,2.07,-37.9
254,23.5,5.82,-2.34,44.4,98270.89,254.51,-0.33,0.16,4.99,-0.02,0.03,0.02,30.15,3.13,-39.86
255,25.15,-1.19,6.87,176.39,98258.87,255.51,0.24,0.13,5.01,0.04,0.11,-0.04,32.76,2.5,-23.95
256,23.78,8.82,6.13,-109.82,98246.84,256.51,-0.3,-0.12,5.03,0.03,0.0,0.02,29.51,3.54,-42.67
257,27.53,-2.43,4.73,15.59,98234.82,257.52,0.03,-0.08,5.05,-0.03,-0.02,0.02,28.51,0.24,-38.08
258,21.99,5.42,4.25,-110.97,98222.8,258.52,0.26,0.06,5.07,0.05,-0.01,0.01,26.08,4.79,-52.08
259,23.45,7.09,8.16,-7.72,98210.77,259.52,0.18,0.16,5.09,0.03,0.1,-0.05,34.74,-7.03,-43.49
260,28.57,-6.79,-0.13,139.92,98198.75,260.52,0.09,0.19,5.11,0.01,-0.04,0.01,31.84,1.43,-40.47
261,22.96,-8.48,-4.13,48.68,98186.72,261.52,-0.18,0.08,5.13,-0.05,-0.08,0.04,28.68,1.05,-35.66
262,25.9,11.8,-5.98,160.11,98174.7,262.53,0.11,-0.08,5.15,0.05,-0.03,-0.03,20.65,0.83,-39.28
263,28.22,2.2,5.21,75.19,98162.68,263.53,0.0,0.09,5.17,-0.0,-0.04,-0.09,27.62,6.18,-38.57
264,23.63,6.82,-4.43,113.4,98150.65,264.53,-0.07,-0.27,5.18,-0.04,-0.06,0.01,26.77,-2.17,-44.45
265,25.06,2.47,-0.59,118.74,98138.63,265.53,0.0,-0.01,5.2,0.02,-0.08,0.01,23.01,2.36,-32.83
266,25.83,7.92,-6.79,-24.37,98126.6,266.53,0.09,-0.42,5.22,-0.04,0.02,-0.07,37.17,2.22,-33.75
267,26.68,-3.85,-3.78,90.81,98114.58,267.54,0.03,-0.09,5.24,0.04,0.01,-0.02,26.87,8.29,-36.92
268,27.0,5.38,2.14,6.52,98102.56,268.54,-0.14,0.08,5.26,-0.03,-0.01,0.03,25.33,-6.19,-36.63
269,25.46,-6.12,4.63,-24.44,98090.53,269.54,-0.03,-0.09,5.28,-0.05,-0.07,-0.02,15.62,-1.55,-37.23
270,28.56,0.09,9.4,-33.02,98078.51,270.54,-0.13,-0.2,5.3,0.04,0.01,0.01,26.93,-0.19,-38.58
271,23.86,4.55,7.22,-136.76,98066.48,271.54,-0.16,0.04,5.32,0.05,0.0,0.0,35.28,8.41,-39.24
272,25.43,8.46,-3.95,137.73,98054.46,272.55,-0.0,-0.1,5.34,-0.02,0.02,0.09,28.46,4.76,-47.42
273,27.44,9.35,11.41,-27.28,98042.43,273.55,0.0,0.34,5.36,0.01,0.02,0.03,35.57,2.12,-44.24
274,23.93,2.36,2.17,-4.71,98030.41,274.55,-0.15,-0.1,5.38,-0.09,0.02,-0.06,37.54,-0.4,-43.69
275,25.97,-4.58,-6.03,-166.59,98018.39,275.55,0.05,-0.15,5.4,-0.02,-0.02,0.06,30.06,3.05,-42.41
276,25.55,-6.88,-2.13,-1.89,98006.36,276.55,0.14,-0.05,5.42,0.05,-0.06,0.02,27.62,6.87,-45.44
277,25.26,1.31,8.47,27.88,97994.34,277.56,-0.01,-0.39,5.44,-0.03,-0.05,0.0,25.0,-4.53,-43.97
278,21.09,3.77,-2.79,-155.27,97982.31,278.56,-0.46,0.2,5.46,0.09,-0.04,0.01,19.5,2.64,-28.03
279,21.7,-2.0,1.25,-86.61,97970.29,279.56,0.04,-0.3,5.48,-0.01,-0.09,0.01,29.92,5.3,-36.77
280,26.22,5.08,0.17,-153.31,97958.27,280.56,-0.33,0.25,5.5,-0.01,-0.12,0.04,34.6,2.75,-46.29
281,22.71,0.66,3.52,170.58,97946.24,281.56,-0.0,0.34,5.52,-0.02,0.02,-0.1,26.74,-6.04,-37.9
282,27.02,-1.71,3.98,43.98,97934.22,282.57,0.03,0.2,5.54,0.04,0.03,-0.03,40.52,-7.21,-40.15
283,25.87,-1.28,2.88,-35.14,97922.19,283.57,-0.1,0.35,5.56,-0.05,0.13,0.02,28.38,-10.65,-35.96
284,25.11,0.15,-3.22,-6.57,97910.17,284.57,0.53,0.04,5.58,-0.03,-0.02,0.06,31.96,-5.73,-39.99
285,26.78,0.6,2.66,147.0,97898.15,285.57,-0.26,0.02,5.6,0.08,-0.03,0.07,33.76,1.73,-41.41
286,25.13,-2.32,-5.46,-119.53,97886.12,286.57,-0.11,0.33,5.62,0.01,-0.02,-0.03,33.4,2.79,-43.54
287,26.75,2.45,-1.2,-72.23,97874.1,287.58,0.07,-0.18,5.64,0.05,0.05,-0.09,29.88,-3.62,-38.52
288,25.84,-5.78,11.76,137.6,97862.07,288.58,-0.09,-0.06,5.66,0.06,0.03,0.02,23.64,3.25,-35.13
289,19.6,-8.56,6.7,-105.82,97850.05,289.58,0.02,0.02,5.68,0.02,0.05,0.0,19.17,1.63,-50.06
290,24.06,5.47,-1.96,61.54,97838.03,290.58,0.19,0.26,5.7,-0.02,0.02,0.05,44.21,-2.52,-42.29
291,22.86,-7.89,3.21,-90.41,97826.0,291.58,0.13,0.15,5.72,0.03,0.08,0.07,35.35,-1.25,-38.19
292,22.74,-5.74,-8.72,174.87,97813.98,292.59,0.01,0.3,5.73,-0.02,-0.02,-0.05,23.4,-7.77,-43.38
293,24.96,1.78,5.08,-40.38,97801.95,293.59,0.04,0.31,5.75,0.03,0.02,-0.05,32.24,-10.21,-37.51
294,27.36,6.33,11.29,-129.09,97789.93,294.59,-0.01,0.29,5.77,-0.05,-0.0,-0.07,31.32,-4.02,-34.39
295,24.79,16.1,-1.32,81.08,97777.91,295.59,0.27,0.23,5.79,0.02,-0.03,0.03,26.28,1.96,-36.16
296,27.61,6.59,-6.51,98.57,97765.88,296.59,-0.11,-0.18,5.81,0.04,0.04,-0.1,23.29,-5.11,-43.91
297,26.33,-1.96,7.09,-131.4,97753.86,297.6,0.18,0.51,5.83,-0.02,-0.02,0.01,31.6,1.24,-37.98
298,24.17,10.52,3.66,175.84,97741.83,298.6,-0.13,-0.2,5.85,-0.0,-0.08,0.02,28.27,-8.23,-44.45
299,21.65,-0.35,-3.88,84.23,97729.81,299.6,-0.33,0.61,5.87,-0.02,0.04,0.03,26.79,-8.64,-40.2
300,24.47,-1.54,0.22,-17.86,97717.79,300.6,-0.32,-0.06,5.89,-0.06,0.01,0.01,27.58,2.04,-33.69
301,24.4,-0.91,1.73,-66.33,97705.76,301.6,-0.21,0.11,5.91,0.02,0.06,0.1,33.37,1.37,-45.5
302,25.78,1.09,-1.3,153.82,97693.74,302.61,-0.02,-0.26,5.93,0.0,0.0,0.04,29.99,-2.99,-50.19
303,24.74,-0.72,-2.32,41.5,97681.71,303.61,-0.0,0.32,5.95,0.01,0.04,-0.02,32.3,-3.07,-36.67
304,23.18,-0.27,2.65,100.89,97669.69,304.61,-0.25,-0.23,5.97,0.01,0.01,0.08,30.19,-1.87,-43.39
305,22.89,7.01,-5.17,-75.57,97657.67,305.61,-0.35,-0.25,5.99,0.02,-0.01,0.04,31.34,0.66,-34.46
306,25.22,0.1,-4.18,1.48,97645.64,306.61,0.19,0.23,6.01,-0.04,0.02,0.05,40.81,-1.61,-38.96
307,22.65,15.17,-2.87,124.08,97633.62,307.62,0.07,0.11,6.03,0.03,0.02,-0.04,24.11,-3.86,-41.44
308,23.02,-4.7,-11.85,-106.8,97621.59,308.62,-0.17,-0.2,6.05,0.07,-0.03,0.02,24.55,4.56,-45.53
309,23.5,5.61,5.8,-5.88,97609.57,309.62,-0.16,0.37,6.07,0.05,-0.02,0.16,36.14,-3.61,-46.09
310,24.75,-1.95,10.65,120.23,97597.55,310.62,0.13,-0.15,6.09,-0.01,0.01,-0.02,23.84,7.46,-42.77
311,26.73,0.84,0.38,-91.01,97585.52,311.62,0.02,-0.18,6.11,-0.01,-0.05,0.03,28.66,-2.37,-38.59
312,23.2,-3.7,0.24,-103.11,97573.5,312.63,0.21,-0.2,6.13,-0.03,0.02,0.05,22.67,1.19,-54.8
313,24.88,-2.5,-4.63,-135.25,97561.47,313.63,-0.01,-0.15,6.15,0.04,-0.0,0.04,16.29,-1.27,-32.85
314,21.32,-4.68,-0.71,21.03,97549.45,314.63,-0.14,-0.17,6.17,0.03,0.04,0.01,22.94,-4.08,-46.76
315,23.1,-3.3,-5.64,-157.25,97537.42,315.63,0.11,-0.29,6.19,-0.0,0.06,-0.05,36.44,-5.55,-39.91
316,26.67,6.32,-5.05,-90.64,97525.4,316.63,-0.07,-0.51,6.21,-0.0,-0.02,0.02,30.79,-4.75,-37.64
317,26.97,-2.62,2.31,-41.08,97513.38,317.64,0.04,-0.1,6.23,-0.03,0.06,-0.07,31.27,-0.76,-38.89
318,24.25,0.31,-8.94,-131.05,97501.35,318.64,-0.1,-0.03,6.25,0.01,-0.0,-0.05,19.28,-0.48,-38.99
319,23.67,-0.93,0.51,117.54,97489.33,319.64,0.1,-0.08,6.26,-0.06,0.02,0.03,35.53,9.08,-36.47
320,22.72,3.63,4.98,56.46,97477.3,320.64,0.08,-0.32,6.28,-0.04,-0.07,0.08,34.12,5.17,-34.82
321,25.68,-5.84,4.3,126.42,97465.28,321.64,-0.44,0.11,6.3,0.05,-0.02,0.03,31.75,-4.67,-38.17
322,23.11,-2.06,6.33,-147.56,97453.26,322.65,0.01,-0.22,6.32,0.06,-0.01,0.08,24.96,1.55,-39.3
323,24.69,-6.14,-5.52,35.25,97441.23,323.65,-0.06,0.02,6.34,-0.02,-0.02,-0.02,27.01,0.03,-42.81
324,27.06,0.08,1.52,144.28,97429.21,324.65,0.18,-0.13,6.36,-0.02,-0.09,0.02,30.22,0.82,-33.39
325,24.66,-1.52,-0.9,67.52,97417.18,325.65,-0.05,-0.03,6.38,-0.01,0.04,-0.08,26.19,-8.55,-37.78
326,26.25,2.25,2.87,-128.02,97405.16,326.65,-0.26,-0.04,6.4,0.09,0.07,-0.13,36.8,8.01,-35.22
327,27.09,4.87,-2.93,125.6,97393.14,327.66,0.12,-0.03,6.42,0.07,0.0,0.0,19.92,-5.42,-44.57
328,28.19,-4.46,0.66,-24.3,97381.11,328.66,0.04,0.05,6.44,-0.0,-0.01,-0.06,38.46,7.33,-46.25
329,25.15,4.97,7.98,-27.0,97369.09,329.66,-0.06,-0.2,6.46,0.05,0.09,0.0,20.04,-8.77,-31.5
330,25.72,-5.93,8.03,-111.5,97357.06,330.66,0.18,0.13,6.48,0.01,0.02,0.03,32.82,-3.16,-33.37
331,25.97,1.81,-5.0,137.59,97345.04,331.66,-0.11,-0.1,6.5,0.03,0.02,0.02,33.86,-4.29,-41.98
332,23.02,5.03,-0.31,-105.76,97333.02,332.67,0.39,0.07,6.52,-0.03,-0.03,-0.03,22.96,6.04,-39.05
333,25.81,1.71,1.82,97.3,97320.99,333.67,-0.27,0.15,6.54,-0.03,0.04,-0.1,29.52,2.01,-36.6
334,23.98,12.45,-3.66,-135.69,97308.97,334.67,0.19,0.02,6.56,-0.06,0.05,-0.06,27.85,8.43,-36.38
335,24.29,4.02,-0.99,-139.21,97296.94,335.67,0.02,-0.05,6.58,-0.1,0.06,0.01,25.03,5.05,-46.85
336,23.26,1.02,0.81,9.65,97284.92,336.67,0.06,0.33,6.6,-0.01,0.04,-0.09,27.74,-7.19,-36.45
337,26.25,-2.33,-2.72,133.81,97272.9,337.68,-0.08,0.08,6.62,-0.02,-0.03,-0.01,37.86,-6.2,-37.63
338,20.35,-4.14,-6.32,-58.26,97260.87,338.68,-0.11,-0.24,6.64,0.01,-0.0,0.06,27.1,-2.87,-48.65
339,28.28,1.0,1.08,58.7,97248.85,339.68,-0.37,-0.13,6.66,-0.07,-0.06,0.01,24.16,-6.67,-48.99
340,24.42,-3.55,6.08,166.6,97236.82,340.68,0.08,0.07,6.68,0.01,0.01,-0.07,31.24,-1.6,-39.75
341,21.65,5.12,-0.04,-82.54,97224.8,341.68,-0.39,-0.22,6.7,-0.01,0.07,-0.01,20.88,-9.04,-41.83
342,23.15,2.52,-1.41,150.24,97212.78,342.69,-0.17,0.14,6.72,-0.05,-0.03,0.08,35.55,7.09,-40.4
343,25.15,-4.84,4.11,12.63,97200.75,343.69,0.0,-0.26,6.74,-0.0,0.04,0.01,31.34,-6.08,-35.19
344,24.59,0.48,9.11,-129.09,97188.73,344.69,0.05,-0.33,6.76,-0.01,0.02,0.07,20.03,4.03,-40.49
345,25.8,3.83,-1.86,-47.14,97176.7,345.69,-0.31,0.17,6.78,-0.06,0.07,-0.02,30.09,-3.64,-42.27
346,27.39,2.64,-10.77,151.84,97164.68,346.69,-0.1,-0.21,6.8,-0.0,-0.06,-0.04,32.59,-5.62,-46.71
347,22.26,-1.16,-2.48,-104.36,97152.66,347.7,-0.31,-0.19,6.81,-0.04,0.07,0.01,28.51,-4.42,-32.52
348,26.63,6.83,-1.95,-166.62,97140.63,348.7,-0.25,-0.27,6.83,-0.02,0.06,0.03,30.41,-1.19,-33.83
349,25.14,0.77,4.63,-57.26,97128.61,349.7,0.05,-0.06,6.85,-0.04,-0.03,-0.01,38.49,-2.68,-36.86
350,23.03,-6.16,1.22,-144.09,97116.58,350.7,0.0,0.05,6.87,-0.03,-0.03,0.09,27.26,1.45,-39.51
351,26.42,0.75,4.81,-37.39,97104.56,351.7,-0.09,-0.05,6.89,0.01,0.01,-0.01,33.73,6.31,-37.62
352,24.57,-3.51,-1.51,-102.23,97092.54,352.71,-0.1,0.05,6.91,-0.01,-0.09,0.02,24.29,-9.55,-34.78
353,32.13,-1.23,11.96,-115.34,97080.51,353.71,0.11,-0.1,6.93,0.01,0.01,-0.06,30.88,3.09,-38.67
354,25.11,-6.92,-9.71,122.32,97068.49,354.71,-0.09,0.15,6.95,0.07,-0.07,-0.06,26.93,4.73,-41.24
355,28.16,-1.96,0.19,-11.95,97056.46,355.71,0.16,-0.22,6.97,-0.06,-0.02,-0.05,28.53,-4.63,-39.37
356,24.63,-2.13,-1.58,78.77,97044.44,356.71,-0.22,0.2,6.99,-0.05,-0.04,0.01,29.36,4.72,-34.42
357,26.54,-4.16,14.15,60.8,97032.41,357.72,0.07,0.36,7.01,0.02,0.05,0.03,34.89,2.26,-35.63
358,26.6,1.12,-6.41,126.32,97020.39,358.72,0.26,-0.06,7.03,0.08,-0.01,-0.0,40.58,-7.56,-40.54
359,25.57,-6.6,-3.83,135.01,97008.37,359.72,0.26,-0.5,7.05,-0.0,-0.02,0.05,26.31,-5.56,-34.37
360,24.89,-1.89,0.49,-87.65,96996.34,360.72,-0.06,0.1,7.07,-0.02,0.04,0.07,38.3,0.71,-37.27
361,25.41,-10.77,3.29,-69.35,96984.32,361.72,0.04,0.11,7.09,0.0,-0.01,-0.1,33.65,-5.75,-39.72
362,24.41,1.65,-6.41,-78.88,96972.29,362.73,0.12,0.03,7.11,0.0,0.03,0.01,33.72,-3.3,-45.16
363,25.03,6.59,7.11,16.58,96960.27,363.73,0.07,-0.08,7.13,0.01,0.04,0.04,34.08,-2.97,-43.57
364,28.23,8.37,1.39,7.45,96948.25,364.73,-0.34,0.15,7.15,-0.03,0.01,0.03,39.07,-4.98,-39.44
365,23.61,0.32,-0.21,-113.08,96936.22,365.73,0.01,-0.26,7.17,0.01,-0.09,-0.06,28.33,-12.39,-40.83
366,22.12,-6.89,-3.77,-34.29,96924.2,366.73,0.1,0.44,7.19,0.07,-0.16,-0.0,28.7,-5.07,-34.19
367,25.62,3.79,4.43,86.29,96912.17,367.74,0.26,-0.06,7.21,0.01,-0.01,0.0,25.06,-6.97,-49.01
368,28.3,0.61,-4.15,-153.79,96900.15,368.74,-0.29,-0.28,7.23,0.06,-0.01,0.03,34.22,10.99,-31.67
369,23.8,3.44,-3.66,54.02,96888.13,369.74,0.27,-0.07,7.25,0.01,-0.03,0.0,26.1,5.65,-40.08
370,25.47,9.3,-0.03,-142.41,96876.1,370.74,-0.04,0.12,7.27,-0.05,0.01,-0.04,21.85,7.04,-35.54
371,22.67,-6.26,-3.97,-97.63,96864.08,371.74,0.04,0.23,7.29,0.05,-0.08,0.11,29.11,-0.66,-40.25
372,28.67,3.64,1.83,131.12,96852.05,372.75,0.18,0.23,7.31,-0.04,0.0,0.01,29.25,-3.88,-49.01
373,23.22,-3.9,-1.01,-159.56,96840.03,373.75,-0.2,-0.07,7.33,-0.08,0.05,-0.01,19.61,-6.27,-45.42
374,21.78,-4.05,3.65,178.15,96828.01,374.75,-0.24,-0.15,7.35,-0.04,0.07,-0.12,29.87,-2.86,-31.86
375,25.74,0.14,-0.61,98.45,96815.98,375.75,0.06,-0.1,7.36,0.02,-0.04,-0.08,30.39,-4.45,-35.99
376,24.35,-13.96,2.32,-89.77,96803.96,376.75,-0.11,-0.49,7.38,0.03,-0.0,-0.03,18.36,-1.09,-42.79
377,25.22,-2.83,2.62,108.64,96791.93,377.76,-0.21,-0.04,7.4,-0.01,0.03,-0.05,35.5,-11.04,-42.11
378,24.16,-6.28,-7.54,-133.26,96779.91,378.76,-0.46,0.24,7.42,-0.07,-0.08,0.03,35.92,-2.39,-38.35
379,28.49,2.73,-6.64,8.04,96767.89,379.76,0.26,-0.18,7.44,-0.09,0.1,-0.02,30.97,1.19,-39.26
380,25.12,3.66,6.86,-84.2,96755.86,380.76,0.02,0.11,7.46,0.04,0.03,0.04,26.53,-0.18,-42.85
381,25.57,-8.74,1.75,109.92,96743.84,381.76,-0.42,-0.03,7.48,-0.07,0.06,0.03,26.77,-6.41,-36.71
382,22.06,-3.17,3.31,136.57,96731.81,382.77,0.5,0.06,7.5,-0.03,0.06,-0.01,20.36,7.45,-41.09
383,24.48,-1.26,11.14,-167.07,96719.79,383.77,-0.3,0.06,7.52,0.02,-0.13,-0.05,29.15,7.38,-36.93
384,26.47,5.31,-3.35,155.9,96707.77,384.77,-0.23,0.05,7.54,-0.08,-0.04,0.03,27.0,0.69,-40.98
385,21.82,-1.39,2.66,-130.64,96695.74,385.77,0.17,-0.1,7.56,-0.04,0.06,-0.04,26.24,-2.54,-40.68
386,26.69,14.22,5.65,-177.48,96683.72,386.77,-0.1,-0.03,7.58,0.0,0.05,0.12,29.45,-0.49,-36.06
387,23.74,7.64,0.29,65.25,96671.69,387.78,-0.25,0.08,7.6,0.01,0.05,0.07,34.15,0.72,-56.22
388,23.95,2.63,0.94,36.38,96659.67,388.78,-0.04,-0.01,7.62,-0.09,0.07,0.01,34.11,3.39,-42.55
389,20.96,-5.2,-4.47,-11.57,96647.65,389.78,0.16,-0.23,7.64,0.03,-0.06,-0.08,39.54,-4.62,-38.27
390,28.18,3.75,-0.29,111.54,96635.62,390.78,-0.16,0.03,7.66,-0.04,0.06,0.01,38.1,7.6,-41.33
391,26.08,2.43,6.59,-43.9,96623.6,391.78,-0.22,-0.32,7.68,-0.11,0.09,0.01,21.64,-3.03,-36.16
392,21.28,3.53,8.24,-26.72,96611.57,392.79,0.25,0.09,7.7,0.0,0.03,-0.1,39.17,-9.32,-41.68
393,25.59,3.85,3.94,-8.16,96599.55,393.79,0.33,0.03,7.72,0.06,-0.02,-0.01,33.61,-11.58,-38.43
394,22.13,-1.61,-11.62,174.73,96587.53,394.79,0.2,0.29,7.74,-0.05,0.01,-0.06,36.79,1.79,-40.36
395,25.35,0.95,0.67,-165.6,96575.5,395.79,-0.03,-0.11,7.76,-0.03,-0.04,0.04,32.3,0.28,-35.91
396,24.65,5.46,-6.24,46.2,96563.48,396.79,-0.18,-0.26,7.78,0.07,-0.05,-0.03,34.88,-4.86,-30.59
397,27.6,3.98,-2.26,-55.77,96551.45,397.8,-0.07,0.12,7.8,0.03,-0.02,0.1,33.31,0.41,-41.56
398,27.37,7.97,7.83,-44.04,96539.43,398.8,-0.14,-0.12,7.82,0.01,0.03,-0.0,16.84,6.86,-38.19
399,22.46,6.67,-4.01,15.96,96527.4,399.8,0.31,0.09,7.84,0.02,-0.01,-0.04,32.73,-1.63,-38.36
400,24.71,1.79,3.77,-126.18,96515.38,400.8,-0.1,0.37,7.86,0.0,0.03,-0.07,32.98,4.32,-36.9
401,30.29,-6.38,-8.84,-62.2,96503.36,401.8,-0.03,0.27,7.88,0.05,0.01,0.05,34.73,3.17,-44.24
402,24.75,1.76,-6.68,175.16,96491.33,402.81,-0.11,-0.16,7.89,0.02,0.01,-0.02,26.6,-2.67,-41.0
403,23.97,4.78,3.8,18.49,96479.31,403.81,-0.25,0.07,7.91,0.02,-0.02,0.06,30.11,2.94,-40.01
404,23.7,-1.19,-1.63,-21.65,96467.28,404.81,-0.16,-0.21,7.93,0.09,-0.01,-0.03,28.27,5.94,-46.84
405,23.28,3.48,2.61,80.55,96455.26,405.81,-0.21,-0.05,7.95,0.03,0.01,-0.01,22.4,5.7,-36.29
406,23.94,-6.67,-2.19,115.04,96443.24,406.81,0.08,-0.41,7.97,-0.06,-0.04,0.08,18.08,0.46,-33.74
407,22.35,-6.92,-5.32,139.53,96431.21,407.82,0.42,0.41,7.99,0.02,0.0,-0.08,34.0,-1.24,-35.86
408,22.54,2.21,3.85,157.81,96419.19,408.82,0.42,0.14,8.01,0.08,0.05,0.02,31.0,5.29,-32.51
409,21.41,-0.34,-3.56,57.71,96407.16,409.82,0.11,0.21,8.03,0.02,-0.02,0.03,31.41,2.73,-38.23
410,25.29,-7.58,5.21,-112.29,96395.14,410.82,-0.25,-0.21,8.05,-0.06,-0.03,0.01,16.17,-2.28,-38.51
411,26.58,-0.5,-0.6,37.59,96383.12,411.82,-0.39,0.17,8.07,0.02,-0.02,0.0,33.35,-7.67,-45.2
412,23.9,11.11,2.12,-22.78,96371.09,412.83,0.49,-0.3,8.09,0.02,0.04,0.02,31.55,1.96,-48.82
413,26.3,0.72,-1.43,58.41,96359.07,413.83,-0.1,-0.16,8.11,-0.02,0.02,-0.04,28.52,0.21,-44.65
414,28.68,3.22,-6.27,52.31,96347.04,414.83,0.12,-0.17,8.13,-0.06,0.01,-0.03,32.22,4.13,-35.48
415,21.93,0.85,0.5,160.44,96335.02,415.83,-0.1,0.36,8.15,-0.06,0.01,-0.04,32.85,12.58,-43.49
416,24.36,3.26,-1.91,1.6,96323.0,416.83,0.08,-0.0,8.17,0.06,-0.15,0.03,36.51,0.53,-42.72
417,21.93,0.05,7.83,35.26,96310.97,417.84,-0.01,-0.02,8.19,-0.0,-0.06,-0.03,18.49,-5.75,-37.55
418,23.95,-4.23,5.88,95.98,96298.95,418.84,-0.43,-0.17,8.21,-0.03,0.02,0.09,36.81,-3.25,-35.83
419,25.99,2.79,-3.97,-167.75,96286.92,419.84,0.02,0.29,8.23,0.03,0.06,-0.02,33.38,1.75,-42.89
420,26.87,2.75,-4.35,29.03,96274.9,420.84,-0.1,0.13,8.25,-0.04,0.02,-0.01,23.73,5.35,-41.66
421,22.83,0.57,-4.83,2.93,96262.88,421.84,-0.01,-0.33,8.27,-0.05,-0.0,0.04,29.31,-1.66,-44.92
422,26.02,10.44,-1.55,-147.4,96250.85,422.85,-0.03,0.32,8.29,-0.0,-0.04,0.05,33.3,-8.62,-44.29
423,30.45,-2.2,3.24,-114.32,96238.83,423.85,0.13,0.04,8.31,-0.04,-0.01,0.09,26.65,5.87,-42.94
424,27.22,-2.28,1.76,-125.02,96226.8,424.85,-0.21,-0.28,8.33,0.05,-0.01,-0.04,30.11,2.84,-39.9
425,26.84,-2.36,3.01,112.16,96214.78,425.85,0.26,0.07,8.35,-0.02,0.02,-0.01,31.67,1.26,-36.58
426,28.42,3.14,6.05,-42.93,96202.76,426.85,-0.04,0.12,8.37,0.08,0.04,-0.03,33.63,-4.94,-45.31
427,26.32,7.74,-1.09,175.38,96190.73,427.86,0.11,-0.14,8.39,-0.04,-0.13,-0.11,41.2,-2.98,-27.43
428,24.24,1.88,-7.87,-11.55,96178.71,428.86,-0.08,-0.05,8.41,-0.03,-0.04,-0.04,33.91,-5.61,-37.78
429,21.15,-5.38,5.73,69.41,96166.68,429.86,0.09,0.04,8.43,0.0,-0.06,0.02,29.49,-5.42,-44.69
430,22.09,0.73,-4.91,142.42,96154.66,430.86,-0.31,-0.17,8.44,0.05,0.02,0.01,30.81,-3.38,-39.34
431,26.49,-0.04,3.52,109.58,96142.64,431.86,-0.07,0.11,8.46,-0.0,0.03,0.02,25.51,9.31,-39.51
432,27.81,-0.95,2.38,-135.24,96130.61,432.87,0.11,0.03,8.48,0.11,0.11,0.01,36.13,-0.6,-37.13
433,28.13,2.04,-0.73,27.47,96118.59,433.87,-0.12,0.24,8.5,0.01,-0.06,-0.03,32.62,-14.72,-43.16
434,26.44,4.55,-2.02,-119.42,96106.56,434.87,-0.09,0.18,8.52,0.07,0.07,0.05,26.64,-0.56,-36.01
435,26.67,-4.98,-5.3,67.73,96094.54,435.87,-0.08,-0.17,8.54,-0.03,-0.03,-0.07,26.99,-3.94,-43.05
436,21.75,5.19,7.47,158.5,96082.52,436.87,0.02,0.24,8.56,-0.03,-0.05,0.02,29.86,7.73,-37.25
437,28.13,1.17,1.94,101.54,96070.49,437.88,0.04,-0.26,8.58,0.01,-0.09,-0.03,28.75,-0.08,-36.96
438,26.47,-2.86,-4.64,-158.17,96058.47,438.88,0.29,-0.28,8.6,0.09,-0.02,0.0,28.79,11.02,-31.61
439,25.98,-0.13,-3.43,-55.24,96046.44,439.88,-0.36,-0.09,8.62,0.03,-0.02,-0.0,29.92,-1.49,-35.55
440,26.67,5.3,3.03,3.95,96034.42,440.88,-0.11,0.06,8.64,0.08,-0.1,0.01,38.13,-3.04,-43.18
441,21.37,3.07,4.3,-145.39,96022.39,441.88,-0.16,-0.0,8.66,-0.04,0.02,0.12,37.79,3.99,-40.78
442,23.61,5.34,-5.7,-81.59,96010.37,442.89,-0.1,0.51,8.68,-0.01,0.03,0.08,32.74,2.1,-39.67
443,22.78,-0.22,0.09,40.58,95998.35,443.89,0.11,0.15,8.7,0.03,0.06,0.0,35.33,-5.25,-30.95
444,24.43,15.8,4.54,28.66,95986.32,444.89,0.06,0.26,8.72,0.02,-0.01,0.01,24.45,-0.55,-46.1
445,23.25,3.46,-4.0,-116.87,95974.3,445.89,0.52,0.13,8.74,0.0,-0.02,-0.11,25.66,-2.03,-35.31
446,22.81,-5.44,-6.86,49.24,95962.27,446.89,-0.28,-0.11,8.76,-0.03,0.04,-0.04,25.17,-5.0,-37.5
447,22.89,-9.64,-1.67,116.48,95950.25,447.9,-0.17,0.07,8.78,0.04,0.02,0.05,28.79,-6.2,-35.97
448,27.49,-5.59,-5.61,147.79,95938.23,448.9,0.2,0.26,8.8,0.05,0.01,-0.07,30.83,4.83,-44.93
449,24.07,-1.89,4.22,-10.59,95926.2,449.9,-0.19,0.25,8.82,0.05,-0.04,0.01,23.71,-3.75,-40.33
450,22.46,-0.94,-10.41,85.12,95914.18,450.9,-0.15,-0.23,8.84,-0.0,-0.02,-0.06,31.56,0.06,-42.0
451,22.75,-1.46,-1.44,-49.62,95902.15,451.9,-0.23,-0.11,8.86,-0.01,-0.07,-0.01,27.69,-1.68,-37.07
452,21.28,-0.66,-12.67,-3.53,95890.13,452.91,0.03,0.19,8.88,0.08,-0.05,-0.08,29.28,9.66,-45.13
453,28.8,-2.24,-3.18,-58.17,95878.11,453.91,-0.07,0.01,8.9,-0.04,0.0,-0.06,32.72,2.25,-49.71
454,27.68,-8.86,5.64,12.92,95866.08,454.91,-0.07,-0.36,8.92,-0.01,-0.01,0.05,32.39,-10.22,-46.33
455,21.32,3.64,-2.53,19.92,95854.06,455.91,0.07,-0.07,8.94,0.02,0.1,-0.05,24.29,6.35,-32.82
456,25.07,0.77,5.43,35.34,95842.03,456.91,0.1,0.13,8.96,-0.03,-0.07,-0.04,36.72,1.22,-35.21
457,24.37,6.76,-4.13,10.51,95830.01,457.92,0.28,-0.05,8.98,0.03,-0.05,0.0,29.38,1.72,-40.96
458,20.55,2.15,3.61,69.73,95817.99,458.92,-0.11,0.33,8.99,-0.03,0.02,0.01,18.12,-3.4,-36.06
459,29.4,-1.51,-5.25,-0.32,95805.96,459.92,-0.04,0.3,9.01,-0.01,-0.04,0.01,30.66,-1.73,-35.67
460,30.9,-1.7,-9.45,72.28,95793.94,460.92,-0.1,-0.01,9.03,0.08,-0.05,0.04,28.21,4.66,-49.73
461,24.64,3.04,-1.28,-112.72,95781.91,461.92,-0.26,-0.24,9.05,0.01,0.03,0.11,32.29,-9.05,-40.95
462,25.84,1.65,-1.15,77.83,95769.89,462.93,0.03,-0.1,9.07,0.03,0.03,0.03,32.96,4.28,-34.26
463,27.38,-1.83,3.74,27.36,95757.87,463.93,-0.22,-0.03,9.09,0.02,0.06,-0.04,32.89,1.96,-35.57
464,24.49,-3.91,1.36,36.18,95745.84,464.93,0.18,-0.28,9.11,-0.02,-0.03,0.01,28.68,6.58,-46.89
465,24.88,1.4,-0.49,92.4,95733.82,465.93,0.08,0.15,9.13,0.05,-0.03,-0.05,34.91,-4.34,-50.23
466,24.36,-0.46,6.36,174.89,95721.79,466.93,-0.26,-0.15,9.15,-0.06,0.03,-0.05,32.2,1.99,-44.16
467,27.69,7.98,3.94,67.59,95709.77,467.94,-0.18,-0.23,9.17,0.04,-0.0,-0.03,29.32,-8.48,-52.49
468,25.6,-13.61,0.28,59.26,95697.75,468.94,0.09,-0.17,9.19,-0.05,0.01,0.06,28.62,-0.2,-30.41
469,26.59,-5.09,0.1,-38.04,95685.72,469.94,-0.13,0.25,9.21,0.02,0.01,0.01,37.06,-3.43,-37.7
470,26.6,2.04,3.23,-149.23,95673.7,470.94,0.03,-0.15,9.23,-0.03,-0.14,0.05,28.28,0.76,-39.66
471,24.01,5.1,-0.13,-75.74,95661.67,471.94,-0.11,0.25,9.25,-0.02,-0.09,-0.06,35.01,5.64,-46.18
472,23.64,6.77,1.49,-8.96,95649.65,472.95,0.18,-0.02,9.27,-0.07,0.02,-0.04,36.33,7.92,-41.27
473,25.51,-6.0,3.31,160.81,95637.63,473.95,0.04,-0.16,9.29,0.03,0.05,-0.0,27.76,-10.74,-38.62
474,26.41,-4.74,3.87,-82.2,95625.6,474.95,-0.34,0.23,9.31,0.09,0.03,0.08,27.97,-0.23,-42.81
475,27.45,2.68,9.33,-178.5,95613.58,475.95,0.05,-0.14,9.33,0.06,-0.04,0.01,28.84,-4.04,-44.41
476,28.78,-0.33,1.57,-15.0,95601.55,476.95,0.27,0.28,9.35,-0.01,-0.06,-0.02,33.81,-1.83,-50.81
477,26.93,3.99,10.95,123.77,95589.53,477.96,0.09,0.17,9.37,0.05,0.07,0.02,31.16,2.74,-35.53
478,25.91,-10.41,5.62,-146.97,95577.51,478.96,0.29,-0.14,9.39,0.04,0.05,0.06,23.09,0.86,-30.02
479,25.15,9.4,-7.41,100.91,95565.48,479.96,-0.08,-0.0,9.41,0.1,-0.03,-0.01,13.97,-1.89,-44.61
480,26.71,-4.72,-0.81,-133.98,95553.46,480.96,0.21,0.03,9.43,-0.03,-0.03,0.08,27.22,5.65,-42.06
481,24.89,-4.19,3.14,147.47,95541.43,481.96,0.08,0.02,9.45,-0.02,0.1,-0.05,33.4,2.34,-38.41
482,24.02,6.46,11.59,-127.95,95529.41,482.97,0.35,-0.03,9.47,-0.02,-0.04,0.01,34.03,-4.69,-45.63
483,25.42,-2.22,1.66,-42.18,95517.38,483.97,-0.05,-0.17,9.49,0.07,-0.01,-0.01,34.96,-3.8,-43.29
484,21.98,7.98,-0.41,-159.65,95505.36,484.97,-0.29,0.13,9.51,0.07,-0.02,0.02,32.56,-4.42,-49.85
485,24.27,-0.38,-2.78,-46.69,95493.34,485.97,-0.18,0.09,9.53,-0.02,0.05,-0.04,37.8,-3.59,-40.76
486,26.6,4.65,8.37,-159.27,95481.31,486.97,-0.19,0.07,9.54,0.02,0.04,-0.04,30.42,-0.67,-49.94
487,28.46,-2.67,-3.49,117.81,95469.29,487.98,-0.19,-0.0,9.56,-0.01,0.11,-0.01,23.66,-9.63,-39.82
488,20.31,-5.2,-10.84,68.0,95457.26,488.98,0.09,0.01,9.58,-0.01,0.12,0.04,41.18,2.89,-48.06
489,25.89,4.03,-2.7,122.58,95445.24,489.98,-0.42,-0.1,9.6,-0.02,0.08,0.03,21.94,-4.44,-39.79
490,25.55,0.84,-3.43,-164.67,95433.22,490.98,0.02,-0.11,9.62,-0.01,-0.03,0.04,25.35,-1.46,-35.85
491,26.08,-3.7,-0.69,-161.99,95421.19,491.98,0.14,-0.14,9.64,-0.04,-0.0,-0.03,28.79,-6.02,-39.12
492,28.48,-1.21,-5.87,114.49,95409.17,492.99,0.1,0.33,9.66,-0.04,-0.1,0.14,23.91,-5.49,-47.92
493,23.3,1.66,-0.61,-164.86,95397.14,493.99,0.2,0.18,9.68,-0.05,-0.03,0.06,30.52,-3.8,-41.76
494,29.51,6.62,5.02,72.28,95385.12,494.99,-0.26,-0.54,9.7,-0.09,-0.02,0.01,30.22,4.33,-39.86
495,24.15,1.0,4.19,16.81,95373.1,495.99,0.18,-0.25,9.72,0.01,0.01,0.03,37.95,-1.63,-40.58
496,25.3,4.06,-3.93,-131.14,95361.07,496.99,0.29,0.19,9.74,-0.12,0.0,0.01,31.62,1.09,-38.95
497,25.94,8.9,-4.48,-102.78,95349.05,498.0,-0.35,0.18,9.76,0.07,-0.03,-0.03,35.46,-0.72,-33.46
498,26.34,1.08,0.78,-38.29,95337.02,499.0,-0.03,-0.2,9.78,0.12,-0.03,-0.01,33.83,4.49,-38.82
499,28.52,11.18,-3.13,100.49,95325.0,500.0,0.11,0.21,9.8,-0.0,0.0,0.04,35.55,-2.84,-36.41
500,24.53,2.08,3.69,-174.08,95325.0,500.0,-0.22,-0.01,9.8,-0.05,-0.05,0.02,29.33,0.63,-49.46
501,28.26,-2.16,-2.71,-99.07,95337.02,499.0,-0.09,0.39,9.78,-0.03,0.01,0.01,25.53,2.82,-38.18
502,26.17,3.08,1.51,172.82,95349.05,498.0,-0.33,-0.04,9.76,-0.01,-0.03,-0.04,25.95,-4.16,-48.07
503,26.17,-3.26,8.79,-79.63,95361.07,496.99,0.1,0.2,9.74,-0.03,-0.04,-0.02,37.52,7.18,-41.81
504,24.94,-1.23,-4.62,110.6,95373.1,495.99,0.02,-0.2,9.72,0.05,0.06,0.03,28.59,-7.12,-52.4
505,24.75,6.31,4.4,31.79,95385.12,494.99,0.17,0.25,9.7,-0.06,-0.0,-0.01,23.9,-1.52,-35.59
506,26.48,-7.52,0.27,42.97,95397.14,493.99,0.01,0.28,9.68,-0.0,-0.09,0.04,30.81,10.6,-39.54
507,26.68,4.53,-0.21,-124.32,95409.17,492.99,-0.09,0.23,9.66,0.01,0.04,0.0,28.83,0.97,-42.03
508,26.14,3.35,-0.36,115.27,95421.19,491.98,-0.01,-0.17,9.64,-0.02,-0.07,-0.01,30.51,13.63,-55.89
509,23.87,3.34,-5.44,-0.51,95433.22,490.98,0.1,0.19,9.62,0.02,0.06,-0.07,34.08,-3.47,-46.88
510,26.95,5.05,3.99,-139.06,95445.24,489.98,-0.04,0.18,9.6,-0.05,-0.02,-0.04,21.22,-3.61,-39.39
511,26.79,9.95,4.04,-149.18,95457.26,488.98,-0.28,-0.12,9.58,0.06,-0.06,0.02,24.04,4.49,-44.79
512,26.65,3.29,-2.1,81.51,95469.29,487.98,0.05,-0.23,9.56,0.01,0.06,-0.04,24.53,-2.28,-48.73
513,27.73,6.67,-3.35,-78.21,95481.31,486.97,-0.23,0.15,9.54,0.04,0.1,0.1,36.01,5.9,-45.26
514,29.59,0.43,2.85,-44.92,95493.34,485.97,-0.06,-0.01,9.53,-0.08,-0.06,-0.0,30.46,-4.45,-44.75
515,27.45,3.5,-0.83,-32.49,95505.36,484.97,0.24,-0.07,9.51,-0.04,0.02,-0.02,32.5,-12.38,-51.43
516,26.3,5.02,2.54,-79.32,95517.38,483.97,0.38,-0.11,9.49,-0.02,-0.0,-0.01,28.87,1.64,-45.94
517,22.59,-4.85,-2.98,58.72,95529.41,482.97,-0.1,-0.31,9.47,-0.09,-0.05,0.05,21.61,-2.77,-31.3
518,25.1,9.09,-4.91,-178.63,95541.43,481.96,-0.06,-0.25,9.45,-0.04,0.0,-0.05,25.93,0.06,-45.14
519,23.75,-4.76,5.03,162.23,95553.46,480.96,-0.41,0.2,9.43,0.02,0.0,-0.0,27.74,-4.65,-30.68
520,27.93,1.06,6.83,-146.77,95565.48,479.96,0.08,0.01,9.41,0.11,0.02,-0.02,22.58,4.48,-36.51
521,25.41,4.36,-3.24,179.5,95577.51,478.96,-0.01,-0.19,9.39,-0.01,0.04,-0.15,35.48,-2.05,-40.38
522,26.32,8.01,-2.47,82.46,95589.53,477.96,0.05,0.1,9.37,0.03,0.0,0.15,30.48,-1.44,-25.84
523,22.28,-2.08,12.47,0.14,95601.55,476.95,0.29,-0.04,9.35,0.04,-0.0,-0.02,30.61,5.53,-45.78
524,20.74,1.5,4.23,-37.82,95613.58,475.95,-0.02,-0.55,9.33,-0.03,-0.06,0.04,29.75,-0.36,-46.56
525,23.14,1.25,4.58,-64.56,95625.6,474.95,-0.07,0.01,9.31,-0.04,-0.07,-0.01,32.66,2.45,-32.42
526,24.67,7.4,-4.71,10.87,95637.63,473.95,0.08,0.01,9.29,-0.02,-0.07,-0.07,29.15,0.51,-39.77
527,26.8,-1.07,2.54,151.04,95649.65,472.95,0.19,-0.28,9.27,-0.08,-0.06,-0.04,35.25,4.84,-32.56
528,23.65,-13.67,-0.62,13.6,95661.67,471.94,-0.17,-0.08,9.25,-0.03,-0.0,0.02,31.17,1.48,-45.72
529,22.96,-4.35,-1.71,0.31,95673.7,470.94,-0.01,-0.18,9.23,0.02,0.04,-0.01,34.43,-8.15,-38.64
530,28.53,1.29,-3.96,48.67,95685.72,469.94,-0.02,-0.03,9.21,-0.06,0.0,-0.01,30.18,7.41,-36.93
531,25.72,0.36,-13.29,-23.31,95697.75,468.94,-0.08,0.1,9.19,0.07,0.02,0.04,28.17,1.99,-34.44
532,27.77,-4.32,1.18,-98.74,95709.77,467.94,0.22,0.11,9.17,0.06,-0.07,0.0,33.68,3.38,-54.69
533,26.13,2.26,5.34,-167.14,95721.79,466.93,0.03,-0.05,9.15,0.03,-0.02,0.06,35.07,-5.13,-46.6
534,25.84,4.72,-5.12,83.01,95733.82,465.93,-0.1,0.04,9.13,-0.04,0.07,0.02,24.82,-3.52,-43.73
535,25.82,-2.33,0.1,130.78,95745.84,464.93,-0.07,0.09,9.11,0.0,-0.04,-0.0,36.19,-6.31,-41.81
536,24.9,-1.72,-0.97,136.48,95757.87,463.93,-0.06,-0.27,9.09,0.05,0.03,0.04,34.72,-1.62,-39.74
537,23.89,0.37,-11.07,-38.43,95769.89,462.93,-0.06,-0.22,9.07,0.01,-0.04,0.07,39.46,0.86,-39.89
538,27.0,10.06,5.46,89.86,95781.91,461.92,-0.16,0.11,9.05,0.02,-0.03,0.03,28.64,8.9,-46.64
539,23.2,-1.42,1.81,-170.47,95793.94,460.92,0.03,0.08,9.03,-0.04,0.11,0.08,18.7,3.0,-37.99
540,26.07,-6.97,0.47,163.05,95805.96,459.92,-0.16,0.08,9.01,0.02,-0.06,0.05,22.56,3.56,-42.07
541,22.13,-2.06,5.56,-129.78,95817.99,458.92,0.27,-0.05,8.99,0.08,-0.0,-0.01,28.48,-1.47,-42.83
542,20.61,1.29,-0.49,23.89,95830.01,457.92,0.22,-0.31,8.98,0.03,0.01,-0.07,25.07,-7.98,-44.7
543,26.02,-11.16,12.73,-146.54,95842.03,456.91,-0.0,0.06,8.96,-0.0,0.0,0.04,23.09,-1.49,-34.93
544,28.19,4.44,-14.15,62.81,95854.06,455.91,0.32,0.28,8.94,0.01,0.03,-0.02,35.28,1.82,-33.98
545,23.3,-0.08,0.82,52.23,95866.08,454.91,0.16,-0.19,8.92,-0.02,0.04,-0.04,31.79,-1.25,-42.4
546,25.47,4.91,0.28,-51.11,95878.11,453.91,0.03,0.16,8.9,0.05,-0.08,0.11,28.87,-6.59,-43.19
547,22.55,0.24,5.61,-153.44,95890.13,452.91,0.1,0.23,8.88,0.01,-0.02,0.01,36.63,5.2,-36.62
548,24.61,-0.8,1.46,-167.92,95902.15,451.9,0.16,0.25,8.86,0.06,-0.06,0.08,24.1,-5.24,-47.21
549,21.37,-2.81,-3.71,-133.33,95914.18,450.9,-0.17,0.03,8.84,-0.06,-0.09,0.05,28.18,5.39,-42.01
550,28.63,3.96,-5.37,47.5,95926.2,449.9,-0.04,0.02,8.82,-0.05,-0.02,0.04,38.13,-1.58,-36.07
551,24.22,-2.17,7.13,-111.2,95938.23,448.9,0.21,-0.07,8.8,-0.0,0.07,-0.02,32.45,3.2,-42.9
552,23.35,-4.18,1.33,98.92,95950.25,447.9,0.28,-0.2,8.78,0.03,0.03,-0.03,28.24,-2.36,-37.56
553,24.78,-4.16,-2.08,-135.19,95962.27,446.89,-0.38,0.11,8.76,-0.02,-0.09,0.04,20.31,-6.32,-32.74
554,24.83,-1.21,0.04,-121.62,95974.3,445.89,0.23,0.08,8.74,0.04,-0.02,-0.0,29.19,1.77,-36.82
555,20.46,5.33,-6.88,77.6,95986.32,444.89,0.08,-0.33,8.72,0.02,-0.14,0.02,34.21,9.08,-31.59
556,25.98,-6.24,0.1,120.64,95998.35,443.89,0.28,-0.01,8.7,-0.01,-0.07,0.06,24.42,-5.15,-34.13
557,22.65,7.85,4.53,41.73,96010.37,442.89,-0.36,0.07,8.68,-0.0,0.04,-0.05,27.62,5.01,-38.12
558,24.12,-7.19,9.41,97.15,96022.39,441.88,-0.03,-0.18,8.66,0.08,-0.04,0.01,28.06,-5.81,-46.48
559,24.52,-2.77,5.82,-105.26,96034.42,440.88,-0.31,0.04,8.64,-0.05,-0.03,0.07,33.25,-2.45,-38.27
560,24.65,0.08,1.81,7.99,96046.44,439.88,0.15,-0.53,8.62,0.06,0.02,-0.0,26.53,8.58,-47.34
561,23.91,2.38,0.35,-119.13,96058.47,438.88,0.18,0.08,8.6,0.05,-0.05,-0.03,28.68,0.29,-52.3
562,27.28,-1.13,3.36,163.7,96070.49,437.88,0.16,0.13,8.58,0.05,-0.06,-0.1,31.1,-4.27,-35.02
563,24.45,1.52,2.73,-162.1,96082.52,436.87,0.17,0.21,8.56,0.02,-0.05,-0.05,27.78,4.18,-52.16
564,21.26,15.97,-3.67,-91.59,96094.54,435.87,0.25,-0.17,8.54,-0.01,0.01,-0.01,29.86,-2.56,-36.88
565,24.37,0.09,3.9,5.17,96106.56,434.87,0.2,0.11,8.52,-0.0,0.02,-0.04,21.49,3.8,-35.11
566,24.25,-3.47,-3.12,3.08,96118.59,433.87,0.21,0.52,8.5,0.03,0.03,-0.0,31.99,-0.2,-43.52
567,27.06,-0.11,-7.75,-119.29,96130.61,432.87,-0.18,0.09,8.48,0.05,0.02,0.07,35.97,4.67,-40.8
568,22.72,2.36,0.99,-52.46,96142.64,431.86,-0.35,-0.17,8.46,-0.07,0.1,0.01,25.24,10.99,-36.15
569,27.28,-14.31,-1.6,39.08,96154.66,430.86,0.02,-0.07,8.44,0.02,0.01,-0.03,27.87,-1.96,-34.17
570,24.68,-6.63,-8.53,-143.3,96166.68,429.86,-0.07,0.19,8.43,-0.03,-0.02,0.05,30.5,-2.0,-41.57
571,27.01,1.79,-1.61,171.64,96178.71,428.86,-0.44,-0.12,8.41,-0.01,-0.09,-0.03,29.64,5.8,-38.34
572,29.4,-5.5,2.24,91.2,96190.73,427.86,-0.26,-0.11,8.39,-0.09,-0.03,-0.04,30.08,3.52,-36.43
573,26.74,-4.54,-2.59,-74.36,96202.76,426.85,0.14,0.07,8.37,-0.0,0.03,0.05,27.27,0.58,-40.09
574,22.8,-4.65,11.16,87.78,96214.78,425.85,-0.34,0.04,8.35,-0.04,-0.01,-0.02,28.27,-0.22,-42.22
575,26.95,-4.06,-1.88,-3.68,96226.8,424.85,0.11,0.38,8.33,-0.06,-0.03,-0.03,23.4,1.22,-38.38
576,24.79,-0.62,-3.16,-165.74,96238.83,423.85,-0.12,-0.36,8.31,-0.02,0.04,-0.0,30.07,-0.95,-40.11
577,26.7,1.5,-3.71,106.18,96250.85,422.85,0.07,-0.16,8.29,-0.08,0.07,0.05,28.48,4.33,-51.33
578,26.9,-3.57,-0.83,33.88,96262.88,421.84,0.44,0.02,8.27,-0.08,0.05,-0.03,33.79,-7.82,-39.99
579,25.42,9.2,8.58,159.99,96274.9,420.84,-0.2,-0.16,8.25,0.04,0.02,-0.07,18.44,-7.7,-41.18
580,20.37,1.9,6.33,135.01,96286.92,419.84,0.17,0.07,8.23,-0.07,0.03,-0.04,28.03,-13.5,-38.5
581,20.56,0.34,3.26,7.99,96298.95,418.84,-0.23,-0.24,8.21,0.05,-0.03,-0.05,28.47,3.13,-40.21
582,25.82,5.83,0.69,12.53,96310.97,417.84,0.09,0.33,8.19,0.03,0.02,0.03,34.27,-6.26,-37.78
583,25.92,12.34,4.29,-2.32,96323.0,416.83,0.1,-0.06,8.17,0.05,-0.05,-0.06,17.64,3.64,-45.11
584,21.06,-1.78,1.21,175.36,96335.02,415.83,0.17,-0.26,8.15,-0.03,0.05,-0.02,33.29,4.91,-41.25
585,25.93,-7.0,0.68,161.91,96347.04,414.83,0.18,-0.08,8.13,0.04,0.11,-0.03,30.38,-3.45,-39.09
586,26.62,-4.94,0.53,47.06,96359.07,413.83,0.37,-0.04,8.11,0.08,0.01,0.0,28.87,-1.23,-38.77
587,26.89,-3.53,-2.04,-172.6,96371.09,412.83,-0.21,-0.4,8.09,0.04,0.05,0.05,29.98,0.57,-31.17
588,24.04,-3.53,1.58,-112.39,96383.12,411.82,0.11,0.29,8.07,-0.08,0.1,-0.01,29.64,-0.35,-37.73
589,25.84,0.12,9.12,-9.0,96395.14,410.82,-0.11,0.27,8.05,-0.06,-0.03,0.04,30.61,-1.13,-43.71
590,24.96,0.4,-2.4,-136.53,96407.16,409.82,-0.04,-0.27,8.03,-0.05,-0.0,-0.08,21.53,-4.86,-33.78
591,23.37,4.99,0.95,111.41,96419.19,408.82,0.18,0.26,8.01,-0.05,0.02,-0.02,35.92,-1.51,-43.89
592,24.17,7.62,0.79,91.73,96431.21,407.82,-0.03,-0.39,7.99,0.08,-0.07,0.03,36.89,-10.15,-36.31
593,25.95,2.46,3.1,84.22,96443.24,406.81,0.14,0.29,7.97,-0.03,-0.04,-0.08,34.46,-1.8,-41.53
594,24.4,9.69,-0.73,-128.71,96455.26,405.81,-0.23,-0.01,7.95,-0.07,0.05,0.04,27.2,-0.64,-32.12
595,28.08,0.52,-2.11,16.97,96467.28,404.81,-0.02,-0.3,7.93,-0.04,-0.04,0.01,26.78,1.69,-34.74
596,27.12,3.84,10.14,115.9,96479.31,403.81,-0.04,0.19,7.91,0.0,-0.02,0.09,28.11,3.86,-37.98
597,27.65,-4.33,-5.02,-32.92,96491.33,402.81,-0.1,0.06,7.89,-0.05,0.01,-0.02,25.8,-2.48,-38.17
598,21.91,1.21,-3.9,169.26,96503.36,401.8,-0.46,-0.05,7.88,0.03,-0.02,-0.05,22.05,5.74,-39.96
599,23.87,-6.92,-3.18,133.15,96515.38,400.8,0.09,-0.14,7.86,0.04,0.02,0.02,33.99,-4.72,-50.6
600,22.97,-8.02,0.04,35.76,96527.4,399.8,0.03,-0.08,7.84,0.05,-0.05,0.01,22.06,-0.75,-43.08
601,27.97,-3.1,-5.94,-31.08,96539.43,398.8,-0.29,-0.21,7.82,-0.01,-0.01,0.03,33.89,-6.34,-35.77
602,27.08,-10.38,2.68,-96.82,96551.45,397.8,-0.04,0.12,7.8,-0.03,0.07,-0.01,30.43,5.15,-40.66
603,26.87,2.54,2.01,19.86,96563.48,396.79,-0.53,-0.22,7.78,0.1,0.01,-0.09,30.25,-7.31,-50.06
604,23.83,0.55,-3.0,44.82,96575.5,395.79,0.12,0.09,7.76,0.03,-0.02,-0.08,20.63,-6.97,-30.65
605,23.06,3.38,6.65,168.89,96587.53,394.79,0.13,0.26,7.74,0.02,0.1,-0.02,36.19,5.98,-46.71
606,25.93,-4.38,3.48,38.37,96599.55,393.79,-0.04,-0.11,7.72,0.0,-0.03,-0.03,28.24,1.94,-34.18
607,30.1,-3.65,5.61,-89.34,96611.57,392.79,0.04,-0.12,7.7,0.03,-0.05,0.03,26.86,-1.21,-47.13
608,23.33,-7.08,0.97,-23.86,96623.6,391.78,0.29,0.1,7.68,-0.07,-0.02,-0.03,39.35,3.82,-32.87
609,25.59,-4.83,3.9,-148.34,96635.62,390.78,0.06,-0.42,7.66,-0.1,-0.09,0.05,25.08,0.83,-45.71
610,22.83,6.61,-7.16,52.58,96647.65,389.78,-0.1,0.15,7.64,0.02,-0.03,0.05,25.34,0.3,-42.47
611,24.45,0.34,1.59,6.87,96659.67,388.78,0.06,-0.04,7.62,0.01,-0.0,0.01,26.64,-4.67,-41.37
612,23.75,-13.23,2.39,-17.24,96671.69,387.78,0.25,-0.28,7.6,-0.11,-0.01,-0.06,31.86,10.47,-47.06
613,24.75,-2.81,0.19,15.73,96683.72,386.77,0.2,0.13,7.58,0.02,-0.02,0.0,29.66,-4.35,-46.96
614,26.9,-2.34,-5.51,1.49,96695.74,385.77,0.05,0.04,7.56,0.02,0.05,0.01,33.72,2.54,-37.68
615,25.51,-1.1,-5.31,136.61,96707.77,384.77,0.26,-0.13,7.54,0.02,0.05,-0.04,29.45,-6.08,-35.8
616,26.29,-1.39,-6.48,-75.97,96719.79,383.77,0.18,0.03,7.52,0.05,0.06,-0.05,33.46,2.85,-39.03
617,23.01,4.22,2.38,-25.63,96731.81,382.77,-0.17,-0.26,7.5,0.0,0.03,0.01,29.78,7.39,-42.15
618,25.41,-1.35,-7.77,-38.79,96743.84,381.76,-0.03,-0.1,7.48,0.04,0.02,-0.0,36.57,4.76,-44.47
619,25.44,4.27,-5.28,-173.36,96755.86,380.76,0.25,-0.15,7.46,0.02,-0.02,0.01,31.64,-8.53,-43.18
620,23.23,5.98,0.37,-136.17,96767.89,379.76,0.1,0.04,7.44,0.04,0.07,-0.0,33.02,-1.42,-35.64
621,29.77,0.45,3.47,-164.1,96779.91,378.76,0.04,-0.08,7.42,0.03,-0.07,0.02,33.8,-1.91,-44.15
622,21.11,0.79,-2.26,-45.11,96791.93,377.76,-0.17,-0.11,7.4,-0.01,0.0,-0.05,27.74,8.15,-48.61
623,22.3,-2.18,2.03,88.88,96803.96,376.75,-0.1,0.08,7.38,-0.07,0.03,0.02,32.82,-2.6,-39.96
624,24.59,-7.96,13.84,-44.8,96815.98,375.75,-0.19,0.26,7.36,-0.04,0.01,-0.01,28.78,11.87,-50.28
625,23.56,10.88,-3.27,-58.56,96828.01,374.75,-0.3,-0.07,7.35,-0.04,0.03,-0.08,34.28,3.13,-40.85
626,27.17,-4.97,-2.77,30.0,96840.03,373.75,0.12,-0.33,7.33,0.01,-0.07,-0.02,23.96,3.18,-33.44
627,25.67,0.21,-7.45,101.57,96852.05,372.75,-0.11,0.1,7.31,-0.02,0.03,-0.02,25.42,-2.29,-37.3
628,20.49,-4.2,-2.27,-44.41,96864.08,371.74,-0.01,-0.17,7.29,0.08,0.03,-0.05,31.87,9.4,-35.43
629,28.33,-4.64,0.37,136.83,96876.1,370.74,0.08,-0.39,7.27,0.05,-0.07,0.06,18.89,7.78,-35.95
630,26.61,5.47,0.11,7.82,96888.13,369.74,-0.2,-0.1,7.25,0.07,0.08,0.04,36.77,-5.94,-35.42
631,28.11,11.24,6.93,-114.01,96900.15,368.74,0.1,0.08,7.23,0.03,0.11,-0.0,33.03,3.71,-35.43
632,25.77,8.37,-4.61,42.87,96912.17,367.74,0.17,0.32,7.21,0.01,-0.01,-0.02,32.27,-4.69,-41.7
633,27.37,0.33,1.3,-55.67,96924.2,366.73,0.09,0.04,7.19,-0.09,0.03,0.07,32.8,3.12,-38.08
634,23.95,5.15,6.74,-136.45,96936.22,365.73,-0.14,0.27,7.17,0.01,-0.01,0.02,31.58,-4.02,-35.48
635,22.65,-3.02,2.02,-3.7,96948.25,364.73,-0.15,0.03,7.15,-0.02,0.04,-0.04,33.34,2.16,-43.82
636,28.62,-1.61,4.14,-89.93,96960.27,363.73,0.23,-0.26,7.13,0.01,0.04,0.03,26.26,9.72,-38.78
637,26.22,2.09,4.6,-65.98,96972.29,362.73,-0.34,-0.19,7.11,0.04,-0.06,-0.0,37.57,-0.94,-41.04
638,25.01,0.14,0.61,-67.73,96984.32,361.72,0.25,0.2,7.09,0.01,0.03,0.0,36.88,5.23,-39.1
639,25.74,0.64,-2.98,-14.55,96996.34,360.72,0.28,0.04,7.07,0.04,-0.01,-0.08,34.8,-6.28,-38.76
640,23.25,5.8,-3.07,119.58,97008.37,359.72,-0.13,-0.22,7.05,-0.0,-0.02,-0.05,30.47,-5.98,-46.69
641,24.4,4.4,8.11,144.08,97020.39,358.72,0.1,-0.23,7.03,0.0,-0.03,-0.01,33.13,-3.59,-30.28
