Timestamp,Temperature,Roll,Pitch,Yaw,Pressure,Altitude,ax,ay,az,gx,gy,gz,mx,my,mz
2225018,29.00,-0.81,0.29,-8.36,1013.25,600.00,-0.01,-0.01,0.97,0.06,1.46,1.40,47.02,-6.91,-150.79
2225069,29.00,-0.77,0.27,-8.20,1013.25,600.00,-0.00,-0.01,0.97,0.06,1.53,1.46,46.35,-6.68,-149.04
2225119,29.00,-0.78,0.26,-8.04,1013.25,600.00,-0.00,-0.01,0.97,0.00,1.34,1.46,46.09,-6.51,-150.84
2225169,29.00,-0.83,0.27,-8.48,1013.25,600.00,-0.00,-0.01,0.97,0.12,1.59,1.46,47.08,-7.04,-150.52
2225219,29.00,-0.84,0.30,-9.07,1013.25,600.00,-0.01,-0.01,0.97,-0.06,1.34,1.34,46.61,-7.47,-149.44
2225270,29.00,-0.77,0.27,-8.46,1013.25,600.00,-0.00,-0.01,0.97,-0.06,1.59,1.40,46.86,-6.95,-149.06
2225320,29.00,-0.76,0.30,-8.02,1013.25,600.00,-0.01,-0.01,0.97,0.00,1.46,1.46,47.52,-6.68,-149.41
2225371,29.00,-0.78,0.28,-8.23,1013.25,600.00,-0.00,-0.01,0.97,0.18,1.46,1.46,46.94,-6.80,-150.31
2225421,29.00,-0.76,0.30,-8.72,1013.25,600.00,-0.01,-0.01,0.97,0.00,1.40,1.40,46.89,-7.21,-151.18
2225471,29.00,-0.79,0.29,-8.43,1013.25,600.00,-0.00,-0.01,0.97,0.18,1.34,1.53,47.24,-6.99,-150.12
2225521,29.00,-0.79,0.27,-8.02,1013.25,600.00,-0.00,-0.01,0.97,0.18,1.59,1.59,46.86,-6.59,-151.10
2225572,29.00,-0.84,0.28,-8.22,1013.25,600.00,-0.00,-0.01,0.97,0.06,1.46,1.53,46.58,-6.74,-149.89
2225622,29.00,-0.81,0.24,-8.56,1013.25,600.00,-0.00,-0.01,0.97,-0.06,1.59,1.34,47.30,-7.14,-151.75
2225672,29.00,-0.77,0.31,-8.61,1013.25,600.00,-0.01,-0.01,0.97,0.06,1.53,1.46,46.91,-7.10,-150.68
2225722,29.00,-0.81,0.29,-8.15,1013.25,600.00,-0.00,-0.01,0.97,-0.06,1.46,1.53,46.72,-6.68,-150.01
2225773,29.00,-0.77,0.32,-7.88,1013.25,600.00,-0.01,-0.01,0.97,0.18,1.40,1.53,46.88,-6.48,-151.06
2225823,29.00,-0.77,0.28,-8.55,1013.25,600.00,-0.00,-0.01,0.97,0.06,1.46,1.53,46.46,-7.02,-150.62
2225873,29.00,-0.79,0.35,-8.09,1013.25,600.00,-0.01,-0.01,0.97,-0.12,1.53,1.34,47.01,-6.67,-149.98
2225923,29.00,-0.81,0.30,-8.61,1013.25,600.00,-0.01,-0.01,0.97,-0.06,1.34,1.46,47.20,-7.18,-150.63
2225974,29.00,-0.75,0.29,-8.82,1013.25,600.00,-0.00,-0.01,0.97,-0.18,1.46,1.34,47.13,-7.32,-150.67
2226024,29.00,-0.80,0.31,-8.36,1013.25,600.00,-0.01,-0.01,0.97,0.00,1.53,1.53,47.07,-6.90,-148.93
2226124,29.00,-0.80,0.28,-8.06,1013.25,600.00,-0.00,-0.01,0.97,0.00,1.46,1.40,46.84,-6.63,-150.81
2226225,29.00,-0.80,0.23,-8.23,1013.25,600.00,-0.00,-0.01,0.97,-0.06,1.59,1.40,46.94,-6.80,-149.41
2226275,29.00,-0.80,0.34,-8.38,1013.25,600.00,-0.01,-0.01,0.97,-0.06,1.46,1.40,46.66,-6.88,-149.46
2226325,29.00,-0.76,0.32,-7.94,1013.25,600.00,-0.01,-0.01,0.97,-0.06,1.46,1.46,47.64,-6.63,-150.87
2226376,29.00,-0.79,0.30,-8.66,1013.25,600.00,-0.01,-0.01,0.97,-0.06,1.53,1.40,47.06,-7.20,-149.57
2226426,29.00,-0.78,0.28,-8.03,1013.25,600.00,-0.00,-0.01,0.97,-0.06,1.59,1.46,47.24,-6.64,-150.54
2226477,29.00,-0.74,0.33,-7.47,1013.25,600.00,-0.01,-0.01,0.97,0.12,1.53,1.40,47.12,-6.15,-149.78
2226527,29.00,-0.77,0.29,-8.84,1013.25,600.00,-0.00,-0.01,0.97,0.06,1.46,1.40,46.90,-7.36,-149.95
2226577,29.00,-0.81,0.26,-8.44,1013.25,600.00,-0.00,-0.01,0.97,-0.12,1.53,1.46,46.97,-6.96,-150.46
2226627,29.00,-0.81,0.30,-8.23,1013.25,600.00,-0.01,-0.01,0.97,-0.06,1.34,1.71,47.24,-6.82,-150.31
2226678,29.00,-0.78,0.29,-8.82,1013.25,600.00,-0.00,-0.01,0.97,-0.06,1.28,1.46,46.86,-7.30,-151.06
2226728,29.00,-0.76,0.31,-8.42,1013.25,600.00,-0.01,-0.01,0.97,0.24,1.59,1.53,46.84,-6.92,-149.11
2226778,29.00,-0.79,0.34,-8.18,1013.25,600.00,-0.01,-0.01,0.97,0.00,1.53,1.46,47.03,-6.75,-150.18
2226828,29.00,-0.83,0.33,-8.41,1013.25,600.00,-0.01,-0.01,0.97,0.06,1.34,1.59,46.95,-6.96,-151.09
2226878,29.00,-0.81,0.28,-8.00,1013.25,600.00,-0.00,-0.01,0.97,0.12,1.40,1.40,46.85,-6.57,-150.39
2226928,29.00,-0.77,0.26,-8.47,1013.25,600.00,-0.00,-0.01,0.97,-0.12,1.40,1.53,46.81,-6.99,-149.62
2226979,29.00,-0.81,0.28,-8.01,1013.25,600.00,-0.00,-0.01,0.97,0.12,1.53,1.53,47.24,-6.63,-150.63
2227029,29.00,-0.77,0.23,-7.93,1013.25,600.00,-0.00,-0.01,0.97,0.12,1.28,1.46,46.78,-6.52,-149.93
2227080,29.00,-0.76,0.36,-8.57,1013.25,600.00,-0.01,-0.01,0.97,0.00,1.40,1.59,46.95,-7.10,-150.92
2227130,29.00,-0.81,0.32,-7.86,1013.25,600.00,-0.01,-0.01,0.97,-0.06,1.65,1.34,47.69,-6.56,-150.52
2227180,29.00,-0.79,0.30,-8.24,1013.25,600.00,-0.01,-0.01,0.97,-0.06,1.40,1.59,47.16,-6.85,-151.10
2227230,29.00,-0.79,0.31,-7.94,1013.25,600.00,-0.01,-0.01,0.97,-0.06,1.71,1.46,47.24,-6.58,-150.43
2227281,29.00,-0.82,0.27,-8.38,1013.25,600.00,-0.00,-0.01,0.97,0.00,1.46,1.40,46.90,-6.93,-149.88
2227331,29.00,-0.83,0.26,-7.67,1013.25,600.00,-0.00,-0.01,0.97,-0.06,1.34,1.53,47.24,-6.34,-150.67
2227381,29.00,-0.75,0.25,-8.06,1013.25,600.00,-0.00,-0.01,0.97,0.00,1.53,1.53,46.83,-6.65,-149.34
2227431,29.00,-0.78,0.26,-7.94,1013.25,600.00,-0.00,-0.01,0.97,-0.06,1.40,1.59,47.22,-6.58,-150.32
2227482,29.00,-0.79,0.36,-7.89,1013.25,600.00,-0.01,-0.01,0.97,0.00,1.46,1.40,46.92,-6.51,-149.91
2227532,29.00,-0.76,0.32,-8.45,1013.25,600.00,-0.01,-0.01,0.97,0.12,1.40,1.34,47.14,-7.03,-149.93
2227582,29.00,-0.83,0.33,-8.53,1013.25,600.00,-0.01,-0.01,0.97,0.06,1.46,1.53,47.31,-7.10,-150.98
2227632,29.00,-0.80,0.36,-8.47,1013.25,600.00,-0.01,-0.01,0.97,-0.12,1.46,1.53,46.58,-6.93,-150.54
2227683,29.00,-0.77,0.33,-8.87,1013.25,600.00,-0.01,-0.01,0.97,0.00,1.46,1.40,46.90,-7.34,-149.82
2227733,29.00,-0.73,0.37,-8.27,1013.25,600.00,-0.01,-0.01,0.97,0.00,1.40,1.59,47.20,-6.84,-150.28
2227783,29.00,-0.72,0.31,-8.26,1013.25,600.00,-0.01,-0.01,0.97,-0.06,1.46,1.71,47.42,-6.88,-150.60
2227834,29.00,-0.87,0.33,-8.61,1013.25,600.00,-0.01,-0.01,0.97,-0.12,1.46,1.34,47.46,-7.20,-150.71
2227884,29.00,-0.78,0.28,-8.11,1013.25,600.00,-0.00,-0.01,0.97,-0.06,1.53,1.40,47.66,-6.77,-151.23
2227934,29.00,-0.70,0.33,-7.75,1013.25,600.00,-0.01,-0.01,0.97,0.00,1.59,1.59,47.44,-6.45,-150.45
2227985,29.00,-0.77,0.29,-8.01,1013.25,600.00,-0.00,-0.01,0.97,0.00,1.22,1.46,47.23,-6.67,-150.84
2228035,29.00,-0.91,0.29,-8.40,1013.25,600.00,-0.00,-0.02,0.97,0.12,1.53,1.40,46.79,-6.93,-150.50
2228085,29.00,-0.72,0.26,-8.59,1013.25,600.00,-0.00,-0.01,0.97,-0.06,1.40,1.53,46.20,-6.99,-149.52
2228135,29.00,-0.72,0.30,-8.38,1013.25,600.00,-0.01,-0.01,0.97,-0.06,1.40,1.28,46.39,-6.82,-149.93
2228186,29.00,-0.91,0.29,-8.33,1013.25,600.00,-0.00,-0.02,0.97,0.12,1.46,1.46,46.33,-6.79,-148.34
2228236,29.00,-0.81,0.29,-8.25,1013.25,600.00,-0.00,-0.01,0.97,0.00,1.40,1.40,46.97,-6.81,-149.77
2228286,29.00,-0.67,0.37,-8.15,1013.25,600.00,-0.01,-0.01,0.97,0.00,1.28,1.40,47.34,-6.77,-149.15
2228337,29.00,-0.85,0.26,-8.29,1013.25,600.00,-0.00,-0.01,0.97,0.00,1.53,1.53,47.01,-6.86,-149.66
2228387,29.00,-0.88,0.28,-8.21,1013.25,600.00,-0.00,-0.01,0.97,0.12,1.28,1.40,47.19,-6.81,-150.48
2228437,29.00,-0.73,0.31,-8.91,1013.25,600.00,-0.01,-0.01,0.97,-0.06,1.40,1.40,47.23,-7.43,-150.28
2228488,29.00,-0.69,0.27,-8.26,1013.25,600.00,-0.00,-0.01,0.97,-0.06,1.46,1.53,47.01,-6.80,-149.77
2228538,29.00,-0.86,0.26,-8.73,1013.25,600.00,-0.00,-0.01,0.97,0.18,1.34,1.46,46.73,-7.20,-149.32
2228588,29.00,-0.88,0.20,-8.37,1013.25,600.00,-0.00,-0.01,0.97,-0.06,1.40,1.53,46.78,-6.87,-149.45
2228639,29.00,-0.72,0.31,-8.37,1013.25,600.00,-0.01,-0.01,0.97,0.00,1.22,1.40,47.34,-6.97,-150.99
2228689,29.00,-0.78,0.25,-8.68,1013.25,600.00,-0.00,-0.01,0.97,0.00,1.46,1.53,46.97,-7.19,-151.20
2228739,29.00,-0.91,0.21,-7.20,1013.25,600.00,-0.00,-0.02,0.97,-0.06,1.28,1.53,47.25,-5.91,-150.01
2228790,29.00,-0.80,0.30,-7.84,1013.25,600.00,-0.01,-0.01,0.97,0.06,1.40,1.46,47.52,-6.58,-150.18
2228840,29.00,-0.70,0.32,-7.55,1013.25,600.00,-0.01,-0.01,0.97,-0.06,1.46,1.46,46.88,-6.20,-148.32
2228891,29.00,-0.73,0.31,-7.73,1013.25,600.00,-0.01,-0.01,0.97,0.00,1.53,1.59,46.85,-6.37,-149.33
2228991,29.00,-0.76,0.29,-8.44,1013.25,600.00,-0.00,-0.01,0.97,-0.12,1.34,1.40,46.86,-6.99,-150.29
2229092,29.00,-0.78,0.30,-8.39,1013.25,600.00,-0.01,-0.01,0.97,0.12,1.40,1.46,46.98,-6.93,-150.49
2229142,29.00,-0.79,0.27,-8.18,1013.25,600.00,-0.00,-0.01,0.97,0.18,1.71,1.46,47.02,-6.75,-150.18
2229192,29.00,-0.79,0.24,-8.47,1013.25,600.00,-0.00,-0.01,0.97,-0.06,1.53,1.22,47.18,-7.04,-149.78
2229242,29.00,-0.83,0.32,-8.28,1013.25,600.00,-0.01,-0.01,0.97,-0.18,1.34,1.46,47.27,-6.87,-149.98
2229293,29.00,-0.80,0.25,-8.54,1013.25,600.00,-0.00,-0.01,0.96,0.00,1.46,1.40,46.73,-7.03,-149.73
2229343,29.00,-0.75,0.26,-7.71,1013.25,600.00,-0.00,-0.01,0.97,-0.18,1.40,1.53,46.68,-6.29,-149.96
2229393,29.00,-0.80,0.28,-8.16,1013.25,600.00,-0.00,-0.01,0.97,0.06,1.40,1.46,46.44,-6.68,-150.45
2229444,29.00,-0.80,0.31,-8.07,1013.25,600.00,-0.01,-0.01,0.97,-0.06,1.40,1.22,47.44,-6.73,-149.06
2229494,29.00,-0.75,0.29,-7.96,1013.25,600.00,-0.00,-0.01,0.97,-0.06,1.59,1.46,47.13,-6.59,-149.40
2229544,29.00,-0.78,0.28,-8.23,1013.25,600.00,-0.00,-0.01,0.97,0.12,1.34,1.53,46.66,-6.76,-148.85
2229595,29.00,-0.80,0.27,-7.77,1013.25,600.00,-0.00,-0.01,0.97,0.00,1.40,1.46,46.72,-6.36,-149.73
2229645,29.00,-0.77,0.27,-7.86,1013.25,600.00,-0.00,-0.01,0.97,0.06,1.53,1.53,47.50,-6.57,-148.51
2229695,29.00,-0.77,0.31,-7.56,1013.25,600.00,-0.01,-0.01,0.97,0.00,1.40,1.40,47.17,-6.25,-150.63
2229745,29.00,-0.82,0.30,-8.17,1013.25,600.00,-0.01,-0.01,0.97,-0.24,1.65,1.46,47.14,-6.80,-150.32
2229796,29.00,-0.81,0.28,-8.80,1013.25,600.00,-0.00,-0.01,0.97,-0.12,1.34,1.46,46.94,-7.30,-149.87
2229846,29.00,-0.79,0.29,-8.44,1013.25,600.00,-0.00,-0.01,0.97,-0.06,1.34,1.46,47.13,-6.98,-150.62
2229897,29.00,-0.76,0.29,-8.63,1013.25,600.00,-0.00,-0.01,0.97,0.12,1.34,1.46,46.80,-7.12,-148.60
2229947,29.00,-0.74,0.29,-8.48,1013.25,600.00,-0.00,-0.01,0.97,-0.18,1.40,1.40,46.88,-6.98,-148.43
2229997,29.00,-0.77,0.26,-8.17,1013.25,600.00,-0.00,-0.01,0.97,0.00,1.53,1.59,47.03,-6.74,-148.14
2230047,29.00,-0.77,0.24,-8.32,1013.25,600.00,-0.00,-0.01,0.97,-0.12,1.34,1.46,46.59,-6.82,-149.55
2230098,29.00,-0.78,0.29,-8.34,1013.25,600.00,-0.00,-0.01,0.97,0.00,1.53,1.46,46.91,-6.88,-149.22
2230148,29.00,-0.65,0.26,-8.13,1013.25,600.00,-0.00,-0.01,0.97,0.18,1.46,1.34,46.88,-6.69,-149.63
2230199,29.00,-0.31,0.19,-8.43,1013.25,600.00,-0.00,-0.00,0.98,-0.18,0.73,-66.96,46.86,-6.81,-149.68
2230249,29.00,-0.37,0.30,-8.72,1013.25,600.00,-0.01,-0.01,0.98,0.31,4.76,1.04,48.27,-7.42,-149.04
2230300,29.00,-4.08,-2.99,-8.21,1013.25,600.00,0.06,-0.07,0.98,2.44,15.56,3.17,48.50,-6.98,-149.38
2230350,29.00,-0.98,-0.74,-8.49,1013.25,600.00,0.01,-0.01,1.00,-0.06,50.29,-2.20,49.19,-7.35,-149.55
2230400,29.00,-1.04,-7.25,-8.23,1013.25,600.00,0.13,-0.02,0.96,0.92,71.35,1.71,50.28,-7.26,-150.04
2230451,29.00,-0.72,-9.83,-7.82,1013.25,600.00,0.17,-0.01,0.96,-2.32,73.79,-0.49,51.09,-6.99,-150.88
2230501,29.00,-1.47,-17.39,-7.14,1013.25,600.00,0.30,-0.02,0.92,4.15,88.32,8.42,52.98,-6.63,-151.09
2230552,29.00,0.13,-20.57,-7.20,1013.25,600.00,0.34,0.00,0.90,1.59,93.14,1.83,54.75,-6.92,-151.09
2230602,29.00,-0.59,-28.43,-7.51,1013.25,600.00,0.47,-0.01,0.85,-0.67,94.60,-4.27,56.25,-7.42,-151.26
2230653,29.00,0.51,-32.42,-7.26,1013.25,600.00,0.51,0.01,0.79,10.31,83.68,5.25,57.95,-7.39,-149.80
2230703,29.00,-0.50,-34.51,-6.94,1013.25,600.00,0.54,-0.01,0.78,-0.98,62.87,-0.79,59.09,-7.18,-150.33
2230753,29.00,-15.24,-36.54,-7.05,1013.25,600.00,0.58,-0.21,0.74,0.85,31.19,-0.31,60.36,-7.47,-149.29
2230804,29.00,-1.84,-39.27,-7.12,1013.25,600.00,0.61,-0.01,0.74,-0.73,7.51,-3.11,60.34,-7.53,-149.26
2230854,29.00,-2.18,-39.43,-7.07,1013.25,600.00,0.61,-0.03,0.74,-1.16,-3.85,-0.98,60.66,-7.52,-149.15
2230905,29.00,-5.08,-36.84,-6.77,1013.25,600.00,0.57,-0.07,0.76,7.26,-19.10,15.62,60.07,-7.15,-147.30
2230955,29.00,-2.06,-36.52,-6.89,1013.25,600.00,0.57,-0.03,0.77,7.87,-41.81,13.18,59.16,-7.19,-149.52
2231005,29.00,-2.10,-33.19,-7.04,1013.25,600.00,0.51,-0.03,0.79,8.97,-54.81,16.11,58.48,-7.28,-149.82
2231056,29.00,-0.72,-30.04,-7.26,1013.25,600.00,0.47,-0.01,0.83,5.68,-81.42,15.75,57.06,-7.32,-150.11
2231106,29.00,-0.25,-22.66,-7.57,1013.25,600.00,0.36,-0.00,0.89,8.30,-91.37,15.32,54.68,-7.32,-149.44
2231157,29.00,-1.37,-16.26,-7.41,1013.25,600.00,0.26,-0.02,0.92,3.91,-86.67,8.85,52.80,-6.88,-150.12
2231208,29.00,-1.26,-12.49,-8.03,1013.25,600.00,0.21,-0.02,0.99,10.44,-70.98,9.09,50.63,-7.19,-150.55
2231258,29.00,-3.45,-8.54,-7.96,1013.25,600.00,0.14,-0.06,0.99,49.93,-65.55,20.87,49.90,-7.02,-151.56
2231309,29.00,-6.58,-5.33,-5.72,1013.25,600.00,0.09,-0.12,0.99,84.35,-55.30,21.67,47.80,-4.74,-152.70
2231359,29.00,-13.87,-1.53,-4.47,1013.25,600.00,0.02,-0.24,0.95,61.77,-36.32,13.55,46.53,-3.61,-155.13
2231410,29.00,-10.58,-2.08,-3.03,1013.25,600.00,0.04,-0.18,0.98,72.20,-28.32,-3.36,45.28,-2.33,-156.64
2231461,29.00,-17.12,-0.42,-0.04,1013.25,600.00,0.01,-0.31,0.97,58.17,-4.46,7.87,45.00,0.07,-156.77
2231511,29.00,-23.28,-0.84,2.20,1013.25,600.00,0.01,-0.40,0.90,74.04,-1.10,13.73,44.21,1.76,-158.42
2231562,29.00,-29.26,-0.87,4.78,1013.25,600.00,0.01,-0.48,0.83,73.79,-5.43,20.81,43.82,3.72,-159.53
2231612,29.00,-33.38,-1.05,6.92,1013.25,600.00,0.02,-0.53,0.80,46.88,-2.50,12.02,43.32,5.32,-160.38
2231663,29.00,-35.16,-1.03,9.09,1013.25,600.00,0.02,-0.56,0.78,19.71,-2.32,8.54,42.72,6.91,-161.15
2231713,29.00,-34.57,-0.17,8.76,1013.25,600.00,0.00,-0.55,0.80,-11.84,0.85,-0.61,42.55,6.54,-160.82
2231764,29.00,-38.07,1.33,7.32,1013.25,600.00,-0.02,-0.52,0.67,-94.97,23.74,-35.10,43.21,5.57,-160.02
2231815,29.00,-31.34,-6.29,-0.13,1013.25,600.00,0.09,-0.38,0.65,-222.66,11.96,-20.81,44.56,-0.37,-156.79
2231865,29.00,72.70,22.36,-8.51,1013.25,600.00,-0.24,0.53,0.11,-122.80,27.71,11.35,45.26,-7.15,-148.08
2231916,29.00,4.92,0.56,-7.94,1013.25,600.00,0.01,0.02,0.98,-5.25,0.61,3.60,45.25,-6.30,-149.51
2231966,29.00,-0.58,0.32,-8.20,1013.25,600.00,-0.01,-0.01,0.97,0.49,0.92,1.77,45.54,-6.58,-149.95
2232017,29.00,-0.76,0.28,-8.27,1013.25,600.00,-0.00,-0.01,0.97,0.49,0.98,1.71,44.73,-6.51,-149.39
2232067,29.00,-0.72,0.28,-8.20,1013.25,600.00,-0.00,-0.01,0.97,0.55,0.98,1.77,44.64,-6.43,-149.34
2232117,29.00,-0.68,0.34,-7.68,1013.25,600.00,-0.01,-0.01,0.97,0.85,1.40,1.83,44.97,-6.04,-149.15
2232167,29.00,-0.74,0.26,-8.00,1013.25,600.00,-0.00,-0.01,0.97,0.55,0.85,1.83,45.06,-6.35,-150.24
2232218,29.00,-0.76,0.22,-7.92,1013.25,600.00,-0.00,-0.01,0.96,0.49,1.28,1.77,44.68,-6.21,-148.47
2232318,29.00,-0.67,0.36,-8.05,1013.25,600.00,-0.01,-0.01,0.99,0.61,0.73,1.71,45.24,-6.41,-149.93
2232419,29.00,-0.83,0.23,-8.53,1013.25,600.00,-0.00,-0.01,0.96,0.49,1.46,1.89,45.72,-6.88,-149.06
2232468,29.00,-0.62,0.32,-8.18,1013.25,600.00,-0.01,-0.01,0.98,0.43,0.79,1.77,45.01,-6.46,-150.21
2232519,29.00,-0.77,0.24,-8.35,1013.25,600.00,-0.00,-0.01,0.97,0.49,0.85,1.89,45.19,-6.64,-150.81
2232569,29.00,-0.83,0.16,-8.42,1013.25,600.00,-0.00,-0.01,0.96,0.61,1.04,1.71,44.87,-6.65,-150.79
2232619,29.00,-0.66,0.26,-8.75,1013.25,600.00,-0.00,-0.01,0.97,0.55,1.10,1.77,45.19,-6.97,-150.71
2232669,29.00,-0.64,0.38,-8.62,1013.25,600.00,-0.01,-0.01,0.98,0.79,0.79,1.77,44.47,-6.74,-149.96
2232720,29.00,-0.81,0.23,-8.71,1013.25,600.00,-0.00,-0.01,0.97,0.49,1.04,1.71,44.96,-6.90,-148.57
2232770,29.00,-0.80,0.18,-8.37,1013.25,600.00,-0.00,-0.01,0.96,0.49,0.98,1.77,44.79,-6.58,-150.02
2232820,29.00,-0.70,0.29,-8.21,1013.25,600.00,-0.01,-0.01,0.97,0.55,0.92,1.77,45.29,-6.53,-150.94
2232871,29.00,-0.73,0.28,-8.69,1013.25,600.00,-0.00,-0.01,0.97,0.49,0.92,1.77,44.73,-6.86,-150.93
2232921,29.00,-0.84,0.17,-8.39,1013.25,600.00,-0.00,-0.01,0.97,0.43,0.92,1.65,45.31,-6.68,-149.66
2232971,29.00,-0.79,0.24,-8.86,1013.25,600.00,-0.00,-0.01,0.97,0.43,0.79,1.71,45.10,-7.06,-150.49
2233022,29.00,-0.74,0.26,-8.67,1013.25,600.00,-0.00,-0.01,0.97,0.55,0.98,1.77,44.70,-6.81,-150.07
2233072,29.00,-0.75,0.20,-7.86,1013.25,600.00,-0.00,-0.01,0.97,0.61,0.92,1.83,45.07,-6.19,-148.71
2233123,29.00,-0.83,0.19,-8.42,1013.25,600.00,-0.00,-0.01,0.97,0.49,0.73,1.71,44.19,-6.57,-150.71
2233173,29.00,-0.75,0.27,-8.16,1013.25,600.00,-0.00,-0.01,0.97,0.49,1.28,1.65,44.69,-6.40,-149.68
2233223,29.00,-0.71,0.31,-8.58,1013.25,600.00,-0.01,-0.01,0.97,0.49,0.92,1.71,44.74,-6.77,-150.66
2233273,29.00,-0.78,0.24,-7.83,1013.25,600.00,-0.00,-0.01,0.97,0.61,0.98,1.71,45.23,-6.19,-149.21
2233324,29.00,-0.76,0.25,-7.65,1013.25,600.00,-0.00,-0.01,0.97,0.61,0.98,1.71,44.65,-5.99,-148.35
2233374,29.00,-0.77,0.27,-8.14,1013.25,600.00,-0.00,-0.01,0.97,0.49,0.98,1.83,44.89,-6.45,-150.43
2233424,29.00,-0.76,0.23,-8.55,1013.25,600.00,-0.00,-0.01,0.97,0.61,1.04,1.89,44.13,-6.65,-149.33
2233475,29.00,-0.76,0.20,-8.12,1013.25,600.00,-0.00,-0.01,0.97,0.61,1.10,1.83,44.85,-6.38,-149.19
2233525,29.00,-0.79,0.23,-8.25,1013.25,600.00,-0.00,-0.01,0.97,0.73,1.16,1.77,45.07,-6.54,-150.46
2233575,29.00,-0.76,0.27,-8.57,1013.25,600.00,-0.00,-0.01,0.97,0.31,0.79,1.83,44.58,-6.74,-149.08
2233625,29.00,-0.70,0.24,-8.23,1013.25,600.00,-0.00,-0.01,0.97,0.61,1.16,1.83,44.82,-6.47,-150.74
2233675,29.00,-0.75,0.23,-7.67,1013.25,600.00,-0.00,-0.01,0.97,0.61,0.98,1.65,44.76,-6.01,-150.43
2233726,29.00,-0.70,0.26,-8.34,1013.25,600.00,-0.00,-0.01,0.97,0.61,1.16,1.71,44.65,-6.58,-150.46
2233776,29.00,-0.77,0.24,-8.17,1013.25,600.00,-0.00,-0.01,0.97,0.55,1.16,1.65,44.59,-6.40,-150.00
2233826,29.00,-0.79,0.25,-8.02,1013.25,600.00,-0.00,-0.01,0.97,0.43,0.92,1.89,45.17,-6.36,-148.84
2233876,29.00,-0.76,0.22,-8.40,1013.25,600.00,-0.00,-0.01,0.97,0.67,1.10,1.65,44.45,-6.58,-149.22
2233927,29.00,-0.76,0.22,-8.44,1013.25,600.00,-0.00,-0.01,0.97,0.31,1.04,1.71,44.86,-6.67,-148.56
2233977,29.00,-0.76,0.25,-8.08,1013.25,600.00,-0.00,-0.01,0.97,0.67,1.16,1.77,44.79,-6.35,-150.95
2234027,29.00,-0.71,0.29,-8.31,1013.25,600.00,-0.00,-0.01,0.97,0.43,0.79,1.89,44.70,-6.54,-150.10
2234078,29.00,-0.74,0.29,-7.79,1013.25,600.00,-0.00,-0.01,0.97,0.61,1.28,1.71,44.92,-6.13,-148.78
2234128,29.00,-0.80,0.28,-7.23,1013.25,600.00,-0.00,-0.01,0.97,0.49,0.98,1.71,45.10,-5.70,-149.12
2234178,29.00,-0.80,0.21,-7.47,1013.25,600.00,-0.00,-0.01,0.97,0.61,0.98,1.46,44.62,-5.86,-149.07
2234228,29.00,-0.76,0.33,-8.05,1013.25,600.00,-0.01,-0.01,0.97,0.55,0.85,1.83,44.79,-6.36,-148.90
2234278,29.00,-0.74,0.26,-8.57,1013.25,600.00,-0.00,-0.01,0.97,0.43,1.10,1.95,44.48,-6.73,-149.74
2234328,29.00,-0.83,0.24,-7.37,1013.25,600.00,-0.00,-0.01,0.97,0.55,1.34,1.71,44.89,-5.76,-148.55
2234379,29.00,-0.73,0.29,-8.04,1013.25,600.00,-0.00,-0.01,0.97,0.49,1.10,1.71,44.97,-6.38,-148.91
2234429,29.00,-0.75,0.26,-8.20,1013.25,600.00,-0.00,-0.01,0.97,0.49,0.98,1.77,44.46,-6.42,-149.57
2234479,29.00,-0.80,0.21,-8.18,1013.25,600.00,-0.00,-0.01,0.97,0.55,1.22,1.83,44.21,-6.36,-149.69
2234530,29.00,-0.73,0.26,-8.48,1013.25,600.00,-0.00,-0.01,0.97,0.37,1.10,1.71,44.76,-6.69,-149.63
2234580,29.00,-0.70,0.27,-7.44,1013.25,600.00,-0.00,-0.01,0.97,0.49,0.79,1.71,44.73,-5.80,-149.57
2234630,29.00,-0.75,0.21,-8.14,1013.25,600.00,-0.00,-0.01,0.97,0.61,1.16,1.71,45.17,-6.49,-148.56
2234681,29.00,-0.73,0.21,-8.31,1013.25,600.00,-0.00,-0.01,0.97,0.61,1.22,1.83,44.86,-6.57,-148.16
2234731,29.00,-0.78,0.27,-8.30,1013.25,600.00,-0.00,-0.01,0.97,0.61,1.22,1.71,44.97,-6.57,-149.46
2234781,29.00,-0.74,0.19,-8.21,1013.25,600.00,-0.00,-0.01,0.97,0.55,0.92,1.71,44.57,-6.43,-150.17
2234832,29.00,-0.74,0.21,-8.40,1013.25,600.00,-0.00,-0.01,0.97,0.49,0.85,1.71,44.98,-6.65,-149.39
2234882,29.00,-0.76,0.22,-8.35,1013.25,600.00,-0.00,-0.01,0.97,0.24,0.92,1.65,44.97,-6.60,-148.62
2234932,29.00,-0.75,0.25,-8.17,1013.25,600.00,-0.00,-0.01,0.97,0.67,1.10,1.53,44.60,-6.40,-150.44
2234983,29.00,-0.80,0.24,-8.66,1013.25,600.00,-0.00,-0.01,0.97,0.61,0.79,1.71,45.07,-6.88,-148.86
2235033,29.00,-0.73,0.22,-8.51,1013.25,600.00,-0.00,-0.01,0.97,0.67,1.16,1.83,44.81,-6.70,-148.50
2235133,29.00,-0.72,0.25,-8.44,1013.25,600.00,-0.00,-0.01,0.97,0.43,0.98,1.65,44.81,-6.65,-150.39
2235234,29.00,-0.71,0.28,-8.58,1013.25,600.00,-0.00,-0.01,0.97,0.67,1.16,1.77,45.07,-6.81,-149.61
2235334,29.00,-0.81,0.29,-8.64,1013.25,600.00,-0.00,-0.01,0.97,0.67,1.28,1.71,45.46,-6.92,-150.96
2235385,29.00,-0.82,0.26,-8.65,1013.25,600.00,-0.00,-0.01,0.97,0.67,1.10,1.59,44.85,-6.82,-149.94
2235435,29.00,-0.74,0.29,-8.45,1013.25,600.00,-0.00,-0.01,0.97,0.55,1.04,1.89,44.92,-6.67,-150.13
2235485,29.00,-0.80,0.24,-8.00,1013.25,600.00,-0.00,-0.01,0.97,0.55,1.16,1.83,44.95,-6.30,-149.52
2235536,29.00,-0.76,0.27,-8.38,1013.25,600.00,-0.00,-0.01,0.97,0.61,0.92,1.77,45.03,-6.65,-149.61
2235586,29.00,-0.70,0.25,-8.34,1013.25,600.00,-0.00,-0.01,0.97,0.61,0.92,1.71,44.38,-6.51,-149.01
2235636,29.00,-0.76,0.29,-8.04,1013.25,600.00,-0.00,-0.01,0.97,0.61,1.10,1.77,44.49,-6.27,-150.17
2235686,29.00,-0.83,0.24,-8.13,1013.25,600.00,-0.00,-0.01,0.97,0.73,1.22,1.71,44.82,-6.41,-149.49
2235736,29.00,-0.78,0.23,-8.06,1013.25,600.00,-0.00,-0.01,0.96,0.49,1.10,1.59,44.98,-6.37,-149.45
2235787,29.00,-0.80,0.45,-8.38,1013.25,600.00,-0.01,-0.01,1.01,0.73,0.85,2.01,44.52,-6.58,-150.04
2235837,29.00,-0.81,0.27,-8.38,1013.25,600.00,-0.00,-0.01,0.97,0.61,0.67,1.89,45.12,-6.65,-149.58
2235887,29.00,-0.66,0.24,-8.57,1013.25,600.00,-0.00,-0.01,0.96,0.49,1.16,1.83,44.63,-6.74,-149.40
2235938,29.00,-0.65,0.32,-8.40,1013.25,600.00,-0.01,-0.01,0.97,0.55,0.98,1.89,44.59,-6.58,-148.73
2235988,29.00,-0.92,0.24,-8.31,1013.25,600.00,-0.00,-0.02,0.97,0.55,0.73,1.71,44.79,-6.54,-148.11
2236038,29.00,-0.86,0.20,-8.31,1013.25,600.00,-0.00,-0.01,0.97,0.55,0.98,1.83,44.79,-6.54,-149.02
2236089,29.00,-0.73,0.31,-8.69,1013.25,600.00,-0.01,-0.01,0.97,0.49,1.10,1.71,44.75,-6.86,-148.96
2236139,29.00,-0.72,0.34,-8.82,1013.25,600.00,-0.01,-0.01,0.97,0.67,0.98,1.59,44.49,-6.91,-148.90
2236189,29.00,-0.92,0.27,-8.51,1013.25,600.00,-0.00,-0.02,0.97,0.49,0.67,1.65,44.14,-6.59,-149.71
2236239,29.00,-0.76,0.34,-8.00,1013.25,600.00,-0.01,-0.01,0.97,0.49,0.79,1.71,44.67,-6.26,-149.55
2236290,29.00,-0.64,0.32,-8.62,1013.25,600.00,-0.01,-0.01,0.97,0.61,0.98,1.65,44.74,-6.81,-150.40
2236340,29.00,-0.76,0.34,-8.63,1013.25,600.00,-0.01,-0.01,0.97,0.49,1.04,1.65,44.95,-6.82,-150.66
2236390,29.00,-0.85,0.26,-9.09,1013.25,600.00,-0.00,-0.01,0.97,0.49,1.04,1.77,44.71,-7.18,-149.95
2236440,29.00,-0.71,0.34,-8.51,1013.25,600.00,-0.01,-0.01,0.97,0.55,0.85,1.77,44.52,-6.64,-150.39
2236490,29.00,-0.69,0.40,-8.92,1013.25,600.00,-0.01,-0.01,0.97,0.49,1.10,1.95,45.04,-7.09,-149.21
2236541,29.00,-0.83,0.26,-8.35,1013.25,600.00,-0.00,-0.01,0.97,0.67,1.10,1.83,45.29,-6.63,-149.55
2236591,29.00,-0.85,0.34,-7.83,1013.25,600.00,-0.01,-0.01,0.97,0.67,1.04,1.77,45.21,-6.20,-150.37
2236641,29.00,-0.66,0.33,-8.70,1013.25,600.00,-0.01,-0.01,0.97,0.61,0.79,1.71,44.81,-6.90,-150.45
2236692,29.00,-0.73,0.36,-8.23,1013.25,600.00,-0.01,-0.01,0.97,0.55,0.92,1.71,44.62,-6.43,-149.93
2236742,29.00,-0.81,0.30,-7.62,1013.25,600.00,-0.01,-0.01,0.97,0.73,1.10,1.71,45.07,-6.01,-150.56
2236792,29.00,-0.76,0.35,-8.05,1013.25,600.00,-0.01,-0.01,0.97,0.55,1.10,1.71,44.92,-6.37,-148.27
2236843,29.00,-0.67,0.30,-8.27,1013.25,600.00,-0.01,-0.01,0.97,0.49,0.92,1.83,44.59,-6.49,-150.15
2236893,29.00,-0.82,0.31,-8.09,1013.25,600.00,-0.01,-0.01,0.97,0.55,1.04,1.40,44.60,-6.34,-149.19
2236943,29.00,-0.87,0.35,-8.63,1013.25,600.00,-0.01,-0.01,0.97,0.37,0.61,1.53,45.25,-6.90,-149.29
2236994,29.00,-0.73,0.34,-8.20,1013.25,600.00,-0.01,-0.01,0.97,0.49,1.16,1.77,45.00,-6.47,-150.90
2237044,29.00,-0.67,0.42,-7.75,1013.25,600.00,-0.01,-0.01,0.97,0.43,0.85,1.71,45.12,-6.13,-149.89
2237094,29.00,-0.78,0.32,-8.29,1013.25,600.00,-0.01,-0.01,0.97,0.43,0.85,1.71,44.97,-6.58,-150.21
2237145,29.00,-0.85,0.31,-7.60,1013.25,600.00,-0.01,-0.01,0.97,0.67,1.10,1.71,45.19,-6.01,-150.22
2237195,29.00,-0.71,0.38,-8.72,1013.25,600.00,-0.01,-0.01,0.97,0.79,1.16,1.77,44.73,-6.91,-149.41
2237245,29.00,-0.69,0.36,-8.81,1013.25,600.00,-0.01,-0.01,0.97,0.49,0.85,1.65,44.85,-6.96,-149.32
2237295,29.00,-0.78,0.29,-9.00,1013.25,600.00,-0.00,-0.01,0.97,0.55,0.55,1.59,44.96,-7.13,-149.99
2237345,29.00,-0.80,0.28,-8.68,1013.25,600.00,-0.00,-0.01,0.97,0.55,1.04,1.77,45.00,-6.86,-149.34
2237396,29.00,-0.80,0.30,-8.23,1013.25,600.00,-0.01,-0.01,0.97,0.61,0.79,1.71,45.07,-6.51,-151.01
2237446,29.00,-0.64,0.33,-8.89,1013.25,600.00,-0.01,-0.01,0.97,0.43,0.92,1.71,44.90,-7.06,-149.71
2237496,29.00,-0.76,0.31,-9.00,1013.25,600.00,-0.01,-0.01,0.97,0.79,0.85,1.65,45.50,-7.21,-148.00
2237546,29.00,-0.78,0.36,-8.40,1013.25,600.00,-0.01,-0.01,0.97,0.55,0.92,1.77,44.27,-6.52,-149.84
2237597,29.00,-0.75,0.40,-8.64,1013.25,600.00,-0.01,-0.01,0.97,0.37,1.04,1.83,44.74,-6.81,-149.58
2237647,29.00,-0.68,0.37,-8.17,1013.25,600.00,-0.01,-0.01,0.97,0.55,1.04,1.65,45.18,-6.47,-149.78
2237697,29.00,-0.97,0.28,-8.58,1013.25,600.00,-0.00,-0.02,0.97,0.49,0.85,1.53,44.95,-6.80,-149.91
2237747,29.00,-0.91,0.26,-8.46,1013.25,600.00,-0.00,-0.02,0.97,0.55,0.92,1.59,44.67,-6.64,-149.18
2237798,29.00,-0.58,0.43,-8.33,1013.25,600.00,-0.01,-0.01,0.97,0.67,0.92,1.59,45.14,-6.60,-149.26
2237848,29.00,-0.64,0.37,-8.81,1013.25,600.00,-0.01,-0.01,0.97,0.73,1.10,1.71,45.20,-7.03,-149.57
2237948,29.00,-0.74,0.27,-8.58,1013.25,600.00,-0.00,-0.01,0.97,0.55,0.92,1.71,45.06,-6.80,-149.87
2238049,29.00,-0.80,0.34,-8.63,1013.25,600.00,-0.01,-0.01,0.97,0.55,0.98,1.77,44.67,-6.79,-149.35
2238099,29.00,-0.86,0.31,-8.77,1013.25,600.00,-0.01,-0.01,0.97,0.61,1.04,1.65,44.96,-6.95,-148.66
2238149,29.00,-0.74,0.32,-9.25,1013.25,600.00,-0.01,-0.01,0.97,0.37,0.92,1.59,44.90,-7.34,-150.11
2238199,29.00,-0.65,0.37,-8.75,1013.25,600.00,-0.01,-0.01,0.97,0.49,1.04,1.59,44.91,-6.90,-149.91
2238249,29.00,-0.81,0.35,-8.80,1013.25,600.00,-0.01,-0.01,0.97,0.49,0.98,1.77,45.21,-7.01,-148.94
2238300,29.00,-0.80,0.36,-8.42,1013.25,600.00,-0.01,-0.01,0.97,0.61,0.85,1.71,44.93,-6.64,-150.68
2238350,29.00,-0.66,0.34,-8.93,1013.25,600.00,-0.01,-0.01,0.97,0.79,1.16,1.59,45.23,-7.13,-149.27
2238400,29.00,-0.74,0.35,-8.88,1013.25,600.00,-0.01,-0.01,0.97,0.55,0.98,1.71,45.45,-7.10,-149.17
2238451,29.00,-0.83,0.34,-8.63,1013.25,600.00,-0.01,-0.01,0.97,0.55,0.79,1.71,44.95,-6.81,-149.72
2238501,29.00,-0.81,0.35,-8.40,1013.25,600.00,-0.01,-0.01,0.97,0.55,1.04,1.65,44.98,-6.64,-149.24
2238551,29.00,-0.78,0.30,-8.60,1013.25,600.00,-0.01,-0.01,0.97,0.43,1.04,1.77,44.70,-6.77,-150.23
2238602,29.00,-0.74,0.38,-8.59,1013.25,600.00,-0.01,-0.01,0.97,0.61,1.28,1.95,44.89,-6.79,-150.23
2238652,29.00,-0.78,0.31,-8.31,1013.25,600.00,-0.01,-0.01,0.97,0.49,0.98,1.65,45.30,-6.60,-148.19
2238702,29.00,-0.74,0.33,-9.21,1013.25,600.00,-0.01,-0.01,0.97,0.55,0.85,1.59,44.92,-7.32,-149.54
2238752,29.00,-0.76,0.33,-8.64,1013.25,600.00,-0.01,-0.01,0.97,0.61,1.10,1.71,44.71,-6.77,-150.13
2238802,29.00,-0.77,0.36,-8.59,1013.25,600.00,-0.01,-0.01,0.97,0.37,0.98,1.65,44.98,-6.80,-149.41
2238852,29.00,-0.69,0.33,-8.87,1013.25,600.00,-0.01,-0.01,0.97,0.37,0.98,1.71,44.54,-6.97,-149.45
2238903,29.00,-0.81,0.33,-8.49,1013.25,600.00,-0.01,-0.01,0.97,0.49,0.55,1.59,44.91,-6.69,-149.08
2238953,29.00,-0.79,0.39,-9.13,1013.25,600.00,-0.01,-0.01,0.97,0.49,1.04,1.71,45.24,-7.30,-150.16
2239003,29.00,-0.72,0.36,-8.61,1013.25,600.00,-0.01,-0.01,0.97,0.31,0.79,1.65,45.20,-6.82,-149.38
2239054,29.00,-0.76,0.35,-8.17,1013.25,600.00,-0.01,-0.01,0.97,0.49,0.98,1.59,44.91,-6.43,-148.85
2239104,29.00,-0.82,0.35,-8.10,1013.25,600.00,-0.01,-0.01,0.97,0.61,0.98,1.65,44.51,-6.34,-149.40
2239154,29.00,-0.71,0.37,-8.62,1013.25,600.00,-0.01,-0.01,0.97,0.55,0.92,1.53,44.71,-6.80,-148.39
2239205,29.00,-0.70,0.34,-8.53,1013.25,600.00,-0.01,-0.01,0.97,0.43,1.04,1.53,44.67,-6.70,-150.52
2239255,29.00,-0.83,0.26,-8.61,1013.25,600.00,-0.00,-0.01,0.97,0.73,0.98,1.89,45.25,-6.86,-149.79
2239305,29.00,-0.81,0.31,-8.91,1013.25,600.00,-0.01,-0.01,0.97,0.67,0.61,1.71,45.12,-7.09,-150.31
2239356,29.00,-0.68,0.37,-8.85,1013.25,600.00,-0.01,-0.01,0.97,0.73,0.85,1.65,44.67,-6.96,-150.27
2239406,29.00,-0.70,0.36,-8.61,1013.25,600.00,-0.01,-0.01,0.97,0.24,0.98,1.65,44.64,-6.75,-149.65
2239456,29.00,-0.83,0.32,-7.87,1013.25,600.00,-0.01,-0.01,0.97,0.43,0.92,1.89,44.86,-6.18,-149.52
2239506,29.00,-0.77,0.38,-8.52,1013.25,600.00,-0.01,-0.01,0.97,0.55,1.10,1.65,44.71,-6.73,-148.67
2239556,29.00,-0.74,0.39,-8.44,1013.25,600.00,-0.01,-0.01,0.97,0.49,1.10,1.77,44.48,-6.60,-149.55
2239606,29.00,-0.79,0.32,-8.26,1013.25,600.00,-0.01,-0.01,0.97,0.31,0.85,1.59,44.87,-6.51,-149.05
2239657,29.00,-0.76,0.31,-8.61,1013.25,600.00,-0.01,-0.01,0.97,0.49,1.04,1.71,44.40,-6.74,-150.29
2239707,29.00,-0.70,0.41,-8.13,1013.25,600.00,-0.01,-0.01,0.97,0.37,1.22,1.53,44.82,-6.38,-150.38
2239757,29.00,-0.73,0.32,-7.40,1013.25,600.00,-0.01,-0.01,0.97,0.55,1.04,1.77,44.76,-5.79,-149.43
2239807,29.00,-0.82,0.31,-7.57,1013.25,600.00,-0.01,-0.01,0.97,0.49,0.79,1.71,45.19,-6.02,-149.48
2239858,29.00,-0.82,0.29,-8.03,1013.25,600.00,-0.00,-0.01,0.97,0.61,1.16,1.83,44.82,-6.35,-149.90
2239908,29.00,-0.73,0.41,-8.11,1013.25,600.00,-0.01,-0.01,0.97,0.49,0.98,1.65,44.67,-6.37,-149.05
2239959,29.00,-0.77,0.35,-8.28,1013.25,600.00,-0.01,-0.01,0.97,0.37,1.10,1.77,44.64,-6.51,-148.57
2240009,29.00,-0.86,0.27,-8.42,1013.25,600.00,-0.00,-0.01,0.97,0.85,0.98,1.40,44.45,-6.59,-149.07
2240059,29.00,-0.73,0.41,-8.07,1013.25,600.00,-0.01,-0.01,0.97,0.73,0.92,1.71,44.96,-6.36,-149.24
2240109,29.00,-0.73,0.34,-7.78,1013.25,600.00,-0.01,-0.01,0.97,0.37,1.04,1.71,44.56,-6.08,-150.20
2240159,29.00,-0.87,0.35,-8.76,1013.25,600.00,-0.01,-0.01,0.97,0.55,0.98,1.65,44.65,-6.92,-149.52
2240210,29.00,-0.73,0.36,-8.73,1013.25,600.00,-0.01,-0.01,0.97,0.85,0.92,1.65,44.41,-6.82,-150.43
2240260,29.00,-0.77,0.38,-8.65,1013.25,600.00,-0.01,-0.01,0.97,0.79,0.85,1.65,44.60,-6.79,-149.18
2240310,29.00,-0.76,0.35,-8.54,1013.25,600.00,-0.01,-0.01,0.97,0.67,1.04,1.71,44.49,-6.68,-149.56
2240360,29.00,-0.82,0.34,-8.43,1013.25,600.00,-0.01,-0.01,0.97,0.49,1.16,1.59,44.41,-6.58,-149.98
2240410,29.00,-0.72,0.34,-8.35,1013.25,600.00,-0.01,-0.01,0.97,0.61,0.98,1.65,45.06,-6.62,-149.37
2240461,29.00,-0.76,0.29,-8.55,1013.25,600.00,-0.00,-0.01,0.97,0.55,0.98,1.59,43.84,-6.60,-148.41
2240511,29.00,-0.84,0.33,-8.89,1013.25,600.00,-0.01,-0.01,0.97,0.61,1.04,1.83,44.86,-7.03,-148.41
2240561,29.00,-0.77,0.31,-8.08,1013.25,600.00,-0.01,-0.01,0.97,0.43,0.85,1.59,44.18,-6.24,-148.41
2240611,29.00,-0.78,0.38,-8.75,1013.25,600.00,-0.01,-0.01,0.97,0.31,0.92,1.65,44.23,-6.84,-149.52
2240712,29.00,-0.76,0.37,-8.88,1013.25,600.00,-0.01,-0.01,0.97,0.43,0.85,1.65,44.68,-6.99,-148.66
2240813,29.00,-0.75,0.31,-8.67,1013.25,600.00,-0.01,-0.01,0.97,0.73,1.10,1.71,45.26,-6.90,-148.41
2240914,29.00,-0.77,0.30,-8.53,1013.25,600.00,-0.01,-0.01,0.97,0.49,0.85,1.65,45.10,-6.76,-149.01
2240964,29.00,-0.74,0.33,-8.75,1013.25,600.00,-0.01,-0.01,0.97,0.55,1.04,1.59,44.91,-6.92,-149.11
2241014,29.00,-0.77,0.34,-8.65,1013.25,600.00,-0.01,-0.01,0.97,0.61,1.10,1.83,44.62,-6.79,-149.38
2241065,29.00,-0.80,0.32,-8.41,1013.25,600.00,-0.01,-0.01,0.97,0.49,0.98,1.71,44.79,-6.62,-149.77
2241115,29.00,-0.81,0.33,-8.85,1013.25,600.00,-0.01,-0.01,0.97,0.55,1.04,1.77,44.34,-6.92,-149.26
2241165,29.00,-0.77,0.37,-8.18,1013.25,600.00,-0.01,-0.01,0.97,0.61,0.92,1.65,44.47,-6.37,-149.19
2241216,29.00,-0.78,0.38,-8.36,1013.25,600.00,-0.01,-0.01,0.97,0.61,0.79,1.59,44.51,-6.56,-149.33
2241266,29.00,-0.79,0.37,-8.43,1013.25,600.00,-0.01,-0.01,0.97,0.67,1.04,1.83,44.41,-6.59,-149.19
2241316,29.00,-0.74,0.42,-8.38,1013.25,600.00,-0.01,-0.01,0.97,0.79,0.79,1.71,45.00,-6.63,-150.23
2241366,29.00,-0.76,0.37,-8.38,1013.25,600.00,-0.01,-0.01,0.97,0.31,0.98,1.83,44.67,-6.58,-150.05
2241417,29.00,-0.71,0.36,-7.92,1013.25,600.00,-0.01,-0.01,0.97,0.49,1.16,1.83,44.86,-6.23,-149.58
2241467,29.00,-0.79,0.42,-7.99,1013.25,600.00,-0.01,-0.01,0.97,0.31,1.04,1.65,45.25,-6.36,-149.49
2241517,29.00,-0.79,0.41,-8.79,1013.25,600.00,-0.01,-0.01,0.97,0.43,1.04,1.83,44.81,-6.97,-148.38
2241567,29.00,-0.80,0.28,-9.01,1013.25,600.00,-0.00,-0.01,0.97,0.37,0.73,1.71,45.34,-7.20,-150.21
2241617,29.00,-0.80,0.37,-8.40,1013.25,600.00,-0.01,-0.01,0.97,0.37,0.92,1.77,45.06,-6.63,-149.79
2241668,29.00,-0.76,0.38,-8.73,1013.25,600.00,-0.01,-0.01,0.97,0.67,0.73,1.53,44.56,-6.86,-149.48
2241718,29.00,-0.80,0.36,-8.09,1013.25,600.00,-0.01,-0.01,0.97,0.61,0.92,1.59,45.41,-6.43,-149.52
2241768,29.00,-0.77,0.32,-8.41,1013.25,600.00,-0.01,-0.01,0.97,0.55,0.98,1.77,44.81,-6.64,-148.57
2241819,29.00,-0.76,0.37,-8.60,1013.25,600.00,-0.01,-0.01,0.97,0.43,0.98,1.65,44.31,-6.71,-149.73
2241869,29.00,-0.73,0.38,-8.32,1013.25,600.00,-0.01,-0.01,0.97,0.43,0.85,1.71,44.57,-6.51,-149.16
2241919,29.00,-0.77,0.37,-8.47,1013.25,600.00,-0.01,-0.01,0.97,0.73,0.92,1.89,44.75,-6.68,-149.68
2241969,29.00,-0.80,0.34,-8.83,1013.25,600.00,-0.01,-0.01,0.97,0.37,0.85,1.71,45.21,-7.04,-150.37
2242020,29.00,-0.78,0.35,-8.41,1013.25,600.00,-0.01,-0.01,0.97,0.49,0.92,1.83,45.10,-6.65,-149.82
2242070,29.00,-0.77,0.40,-8.35,1013.25,600.00,-0.01,-0.01,0.97,0.61,0.79,1.65,44.71,-6.57,-149.74
2242120,29.00,-0.78,0.30,-7.86,1013.25,600.00,-0.00,-0.01,0.97,0.49,0.98,1.89,45.10,-6.21,-150.35
2242170,29.00,-0.78,0.32,-8.36,1013.25,600.00,-0.01,-0.01,0.97,0.43,0.73,1.59,45.00,-6.64,-149.66
2242221,29.00,-0.74,0.40,-8.72,1013.25,600.00,-0.01,-0.01,0.97,0.49,1.10,1.83,44.86,-6.90,-149.93
2242271,29.00,-0.78,0.34,-8.30,1013.25,600.00,-0.01,-0.01,0.97,0.49,1.04,1.83,45.04,-6.56,-149.56
2242321,29.00,-0.83,0.31,-7.96,1013.25,600.00,-0.01,-0.01,0.97,0.73,1.04,1.77,44.78,-6.25,-151.60
2242372,29.00,-0.78,0.37,-8.20,1013.25,600.00,-0.01,-0.01,0.97,0.55,0.85,1.77,45.14,-6.52,-149.78
2242422,29.00,-0.75,0.36,-8.11,1013.25,600.00,-0.01,-0.01,0.97,0.43,1.04,1.83,44.79,-6.38,-149.61
2242472,29.00,-0.78,0.29,-8.22,1013.25,600.00,-0.00,-0.01,0.97,0.55,1.22,1.83,44.70,-6.47,-150.74
2242522,29.00,-0.78,0.32,-8.11,1013.25,600.00,-0.01,-0.01,0.97,0.67,1.22,1.71,45.07,-6.42,-150.74
2242573,29.00,-0.77,0.37,-8.20,1013.25,600.00,-0.01,-0.01,0.97,0.73,0.79,1.71,44.69,-6.45,-150.49
2242623,29.00,-0.80,0.38,-8.49,1013.25,600.00,-0.01,-0.01,0.97,0.55,0.98,1.65,44.87,-6.71,-149.74
2242673,29.00,-0.77,0.32,-8.69,1013.25,600.00,-0.01,-0.01,0.97,0.43,0.67,1.65,44.31,-6.79,-149.83
2242723,29.00,-0.79,0.31,-8.29,1013.25,600.00,-0.01,-0.01,0.97,0.61,1.04,1.65,44.51,-6.47,-149.84
2242774,29.00,-0.81,0.38,-8.88,1013.25,600.00,-0.01,-0.01,0.97,0.37,0.85,1.65,44.53,-6.98,-150.51
2242824,29.00,-0.80,0.30,-8.70,1013.25,600.00,-0.01,-0.01,0.97,0.67,0.98,1.59,44.48,-6.80,-148.90
2242874,29.00,-0.75,0.26,-7.83,1013.25,600.00,-0.00,-0.01,0.97,0.55,0.92,1.77,44.98,-6.15,-149.67
2242924,29.00,-0.73,0.33,-8.74,1013.25,600.00,-0.01,-0.01,0.97,0.43,0.85,1.65,44.98,-6.96,-149.60
2242975,29.00,-0.76,0.34,-7.87,1013.25,600.00,-0.01,-0.01,0.97,0.73,0.85,1.65,45.09,-6.20,-150.79
2243025,29.00,-0.84,0.32,-8.74,1013.25,600.00,-0.01,-0.01,0.97,0.61,1.04,1.71,45.08,-6.97,-150.68
2243075,29.00,-0.79,0.37,-8.45,1013.25,600.00,-0.01,-0.01,0.97,0.55,0.85,1.65,44.93,-6.67,-150.37
2243126,29.00,-0.73,0.34,-8.29,1013.25,600.00,-0.01,-0.01,0.97,0.85,0.98,1.59,44.79,-6.52,-149.38
2243176,29.00,-0.78,0.37,-8.76,1013.25,600.00,-0.01,-0.01,0.97,0.49,0.92,1.77,44.53,-6.88,-149.27
2243226,29.00,-0.78,0.34,-9.01,1013.25,600.00,-0.01,-0.01,0.97,0.37,0.79,1.89,44.65,-7.09,-148.72
2243277,29.00,-0.76,0.35,-8.24,1013.25,600.00,-0.01,-0.01,0.97,0.43,1.40,1.71,44.38,-6.40,-149.43
2243327,29.00,-0.77,0.34,-8.61,1013.25,600.00,-0.01,-0.01,0.97,0.61,1.04,1.71,44.68,-6.79,-149.72
2243377,29.00,-0.76,0.36,-8.77,1013.25,600.00,-0.01,-0.01,0.97,0.61,0.92,1.71,44.62,-6.90,-149.56
2243427,29.00,-0.73,0.33,-8.80,1013.25,600.00,-0.01,-0.01,0.97,0.49,0.85,1.65,44.67,-6.92,-149.58
2243477,29.00,-0.79,0.33,-8.68,1013.25,600.00,-0.01,-0.01,0.97,0.49,0.85,1.71,44.71,-6.82,-148.75
2243578,29.00,-0.78,0.38,-9.01,1013.25,600.00,-0.01,-0.01,0.97,0.61,0.92,1.65,44.97,-7.15,-149.44
2243679,29.00,-0.77,0.33,-8.63,1013.25,600.00,-0.01,-0.01,0.97,0.55,1.22,1.77,44.71,-6.77,-147.85
2243779,29.00,-0.77,0.36,-8.66,1013.25,600.00,-0.01,-0.01,0.97,0.55,0.92,1.59,45.04,-6.87,-150.82
2243829,29.00,-0.76,0.34,-8.85,1013.25,600.00,-0.01,-0.01,0.97,0.55,1.10,1.65,44.79,-6.98,-148.69
2243880,29.00,-0.75,0.29,-8.54,1013.25,600.00,-0.00,-0.01,0.97,0.67,1.10,1.77,45.18,-6.77,-150.79
2243930,29.00,-0.80,0.30,-8.36,1013.25,600.00,-0.01,-0.01,0.97,0.31,1.04,1.83,44.86,-6.59,-150.17
2243980,29.00,-0.79,0.31,-8.37,1013.25,600.00,-0.01,-0.01,0.97,0.73,1.04,1.83,44.21,-6.51,-150.79
2244031,29.00,-0.75,0.28,-9.07,1013.25,600.00,-0.00,-0.01,0.97,0.55,0.92,1.65,44.89,-7.20,-149.78
2244081,29.00,-0.81,0.31,-9.24,1013.25,600.00,-0.01,-0.01,0.97,0.55,0.85,1.71,44.71,-7.29,-149.71
2244131,29.00,-0.82,0.38,-8.77,1013.25,600.00,-0.01,-0.01,0.97,0.43,0.98,1.77,44.40,-6.84,-150.04
2244181,29.00,-0.75,0.34,-8.92,1013.25,600.00,-0.01,-0.01,0.97,0.73,1.04,1.95,45.14,-7.09,-149.18
2244231,29.00,-0.77,0.35,-9.01,1013.25,600.00,-0.01,-0.01,0.97,0.73,1.04,1.83,44.98,-7.14,-149.08
2244282,29.00,-0.79,0.37,-9.17,1013.25,600.00,-0.01,-0.01,0.97,0.55,1.04,1.71,44.23,-7.15,-149.26
2244332,29.00,-0.78,0.33,-8.47,1013.25,600.00,-0.01,-0.01,0.97,0.37,0.98,1.71,45.00,-6.68,-149.37
2244382,29.00,-0.74,0.31,-8.49,1013.25,600.00,-0.01,-0.01,0.97,0.55,0.98,1.83,45.29,-6.76,-149.50
2244432,29.00,-0.77,0.35,-8.34,1013.25,600.00,-0.01,-0.01,0.97,0.55,1.10,1.71,44.73,-6.56,-148.36
2244483,29.00,-0.81,0.36,-8.38,1013.25,600.00,-0.01,-0.01,0.97,0.73,1.10,1.77,45.21,-6.67,-148.72
2244533,29.00,-0.74,0.31,-8.28,1013.25,600.00,-0.01,-0.01,0.97,0.31,0.79,1.65,44.43,-6.47,-149.73
2244583,29.00,-0.80,0.32,-8.44,1013.25,600.00,-0.01,-0.01,0.97,0.55,0.67,1.71,44.76,-6.65,-149.05
2244633,29.00,-0.78,0.29,-8.19,1013.25,600.00,-0.00,-0.01,0.97,0.67,1.04,1.71,44.84,-6.45,-148.69
2244684,29.00,-0.76,0.37,-8.58,1013.25,600.00,-0.01,-0.01,0.97,0.55,0.92,1.65,45.01,-6.81,-150.59
2244734,29.00,-0.76,0.33,-8.74,1013.25,600.00,-0.01,-0.01,0.97,0.73,0.85,1.65,44.89,-6.91,-147.99
2244784,29.00,-0.72,0.36,-8.51,1013.25,600.00,-0.01,-0.01,0.97,0.73,1.16,1.71,45.18,-6.75,-149.78
2244834,29.00,-0.75,0.36,-9.22,1013.25,600.00,-0.01,-0.01,0.97,0.67,1.10,1.77,44.70,-7.29,-149.44
2244885,29.00,-0.75,0.37,-8.12,1013.25,600.00,-0.01,-0.01,0.97,0.61,1.10,1.71,45.20,-6.41,-149.85
2244935,29.00,-0.82,0.39,-8.66,1013.25,600.00,-0.01,-0.01,0.97,0.43,0.61,1.71,44.95,-6.87,-149.21
2244985,29.00,-0.78,0.35,-8.83,1013.25,600.00,-0.01,-0.01,0.97,0.49,0.85,1.65,44.78,-6.97,-148.99
2245035,29.00,-0.77,0.34,-8.40,1013.25,600.00,-0.01,-0.01,0.97,0.55,0.85,1.77,45.30,-6.68,-149.65
2245085,29.00,-0.76,0.33,-8.02,1013.25,600.00,-0.01,-0.01,0.97,0.49,0.98,1.71,44.87,-6.31,-150.05
2245136,29.00,-0.78,0.31,-8.49,1013.25,600.00,-0.01,-0.01,0.97,0.61,0.79,1.65,45.08,-6.75,-150.18
2245186,29.00,-0.76,0.31,-9.03,1013.25,600.00,-0.01,-0.01,0.97,0.43,1.10,1.77,45.08,-7.19,-149.74
2245236,29.00,-0.73,0.33,-9.04,1013.25,600.00,-0.01,-0.01,0.97,0.37,0.92,1.65,45.09,-7.18,-150.29
2245287,29.00,-0.72,0.31,-8.69,1013.25,600.00,-0.01,-0.01,0.97,0.73,1.10,1.71,44.93,-6.86,-149.73
2245337,29.00,-0.76,0.30,-8.45,1013.25,600.00,-0.01,-0.01,0.97,0.49,0.85,1.83,44.89,-6.67,-149.65
2245387,29.00,-0.76,0.29,-8.28,1013.25,600.00,-0.00,-0.01,0.97,0.37,0.98,1.65,44.97,-6.54,-148.96
2245438,29.00,-0.76,0.32,-8.01,1013.25,600.00,-0.01,-0.01,0.97,0.55,0.79,1.65,44.90,-6.31,-149.72
2245488,29.00,-0.78,0.31,-8.49,1013.25,600.00,-0.01,-0.01,0.97,0.73,1.22,1.83,44.80,-6.71,-150.31
2245539,29.00,-0.80,0.37,-8.49,1013.25,600.00,-0.01,-0.01,0.97,0.37,0.92,1.77,44.87,-6.70,-149.16
2245589,29.00,-0.72,0.38,-8.55,1013.25,600.00,-0.01,-0.01,0.97,0.49,1.10,1.77,44.54,-6.70,-150.00
2245639,29.00,-0.77,0.39,-8.01,1013.25,600.00,-0.01,-0.01,0.97,0.61,0.85,1.77,44.82,-6.29,-149.61
2245689,29.00,-0.78,0.28,-8.72,1013.25,600.00,-0.00,-0.01,0.97,0.79,0.85,1.77,44.67,-6.88,-149.84
2245739,29.00,-0.76,0.31,-9.02,1013.25,600.00,-0.01,-0.01,0.97,0.55,0.92,1.83,44.74,-7.12,-149.38
2245790,29.00,-0.74,0.33,-8.62,1013.25,600.00,-0.01,-0.01,0.97,0.55,0.79,1.71,44.64,-6.75,-148.51
2245840,29.00,-0.77,0.31,-8.23,1013.25,600.00,-0.01,-0.01,0.97,0.37,0.98,1.59,45.30,-6.54,-149.58
2245890,29.00,-0.82,0.33,-8.36,1013.25,600.00,-0.01,-0.01,0.97,0.61,0.85,1.77,45.40,-6.68,-150.12
2245940,29.00,-0.79,0.34,-8.72,1013.25,600.00,-0.01,-0.01,0.97,0.61,1.10,1.71,44.84,-6.90,-150.81
2245990,29.00,-0.76,0.35,-8.32,1013.25,600.00,-0.01,-0.01,0.97,0.55,0.98,1.59,44.51,-6.49,-150.33
2246041,29.00,-0.79,0.25,-8.38,1013.25,600.00,-0.00,-0.01,0.97,0.49,0.98,1.77,44.71,-6.59,-148.32
2246091,29.00,-0.76,0.32,-8.34,1013.25,600.00,-0.01,-0.01,0.97,0.43,0.92,1.59,44.47,-6.52,-149.01
2246141,29.00,-0.81,0.33,-8.29,1013.25,600.00,-0.01,-0.01,0.97,0.37,1.04,1.71,44.63,-6.51,-148.74
2246191,29.00,-0.77,0.29,-8.61,1013.25,600.00,-0.00,-0.01,0.97,0.61,1.04,1.65,45.14,-6.85,-150.79
2246242,29.00,-0.76,0.33,-8.73,1013.25,600.00,-0.01,-0.01,0.97,0.37,1.04,1.65,44.85,-6.90,-149.94
2246292,29.00,-0.72,0.33,-9.03,1013.25,600.00,-0.01,-0.01,0.97,0.61,1.04,1.59,44.78,-7.13,-148.96
2246393,29.00,-0.72,0.40,-8.21,1013.25,600.00,-0.01,-0.01,0.97,0.55,0.98,1.77,44.63,-6.41,-149.46
2246494,29.00,-0.73,0.33,-8.00,1013.25,600.00,-0.01,-0.01,0.97,0.73,1.16,1.59,45.26,-6.36,-149.93
2246594,29.00,-0.82,0.36,-8.12,1013.25,600.00,-0.01,-0.01,0.97,0.73,1.10,1.53,45.32,-6.48,-149.12
2246644,29.00,-0.81,0.32,-8.24,1013.25,600.00,-0.01,-0.01,0.97,0.37,0.98,1.77,44.69,-6.48,-149.46
2246695,29.00,-0.79,0.37,-8.36,1013.25,600.00,-0.01,-0.01,0.97,0.61,0.98,1.65,45.04,-6.63,-149.16
2246745,29.00,-0.75,0.34,-8.11,1013.25,600.00,-0.01,-0.01,0.97,0.73,1.28,1.83,44.76,-6.37,-150.59
2246795,29.00,-0.73,0.28,-8.74,1013.25,600.00,-0.00,-0.01,0.97,0.79,1.04,1.65,44.29,-6.84,-149.30
2246846,29.00,-0.79,0.32,-8.50,1013.25,600.00,-0.01,-0.01,0.97,0.43,0.92,1.53,44.81,-6.69,-150.43
2246896,29.00,-0.75,0.31,-8.67,1013.25,600.00,-0.01,-0.01,0.97,0.61,0.98,1.71,44.14,-6.74,-148.22
2246946,29.00,-0.78,0.32,-8.66,1013.25,600.00,-0.01,-0.01,0.97,0.79,1.10,1.77,44.40,-6.76,-149.85
2246996,29.00,-0.73,0.31,-8.83,1013.25,600.00,-0.01,-0.01,0.97,0.61,0.85,1.71,44.73,-6.96,-148.95
2247047,29.00,-0.73,0.29,-9.16,1013.25,600.00,-0.00,-0.01,0.97,0.55,1.04,1.65,44.62,-7.21,-148.57
2247097,29.00,-0.75,0.29,-8.34,1013.25,600.00,-0.00,-0.01,0.97,0.43,1.34,1.83,44.51,-6.49,-149.46
2247147,29.00,-0.69,0.34,-8.41,1013.25,600.00,-0.01,-0.01,0.97,0.31,1.16,1.65,44.19,-6.54,-149.58
2247197,29.00,-0.75,0.19,-8.42,1013.25,600.00,-0.00,-0.01,0.95,0.55,1.04,1.71,44.81,-6.64,-149.06
2247247,29.00,-0.72,0.27,-9.05,1013.25,600.00,-0.00,-0.01,0.96,0.49,1.28,1.53,44.90,-7.18,-150.60
2247297,29.00,-0.76,0.32,-8.62,1013.25,600.00,-0.01,-0.01,0.99,0.43,0.92,1.65,45.03,-6.81,-149.13
2247348,29.00,-0.80,0.23,-8.78,1013.25,600.00,-0.00,-0.01,0.97,0.67,0.67,1.65,44.98,-6.96,-149.84
2247398,29.00,-0.75,0.19,-8.03,1013.25,600.00,-0.00,-0.01,0.96,0.73,1.16,1.71,45.08,-6.34,-149.32
2247448,29.00,-0.71,0.26,-7.88,1013.25,600.00,-0.00,-0.01,0.97,0.67,1.16,1.83,44.49,-6.15,-150.12
2247498,29.00,-0.77,0.29,-9.13,1013.25,600.00,-0.01,-0.01,0.98,0.37,0.49,1.71,44.70,-7.24,-149.27
2247548,29.00,-0.85,0.23,-8.72,1013.25,600.00,-0.00,-0.01,0.97,0.61,0.85,1.77,45.04,-6.90,-149.72
2247598,29.00,-0.79,0.23,-8.73,1013.25,600.00,-0.00,-0.01,0.97,0.67,0.92,1.65,44.97,-6.91,-150.29
2247649,29.00,-0.74,0.32,-8.88,1013.25,600.00,-0.01,-0.01,0.97,0.55,1.10,1.71,44.65,-6.98,-150.11
2247699,29.00,-0.76,0.31,-8.38,1013.25,600.00,-0.01,-0.01,0.97,0.55,1.16,1.71,45.13,-6.63,-150.38
2247749,29.00,-0.80,0.27,-8.35,1013.25,600.00,-0.00,-0.01,0.97,0.31,1.16,1.71,45.46,-6.68,-149.73
2247800,29.00,-0.75,0.29,-8.90,1013.25,600.00,-0.00,-0.01,0.97,0.61,0.85,1.71,45.06,-7.08,-150.18
2247850,29.00,-0.82,0.26,-8.55,1013.25,600.00,-0.00,-0.01,0.97,0.43,1.04,1.71,45.13,-6.77,-149.30
2247900,29.00,-0.79,0.26,-8.04,1013.25,600.00,-0.00,-0.01,0.97,0.55,1.22,1.53,45.40,-6.40,-150.83
2247950,29.00,-0.71,0.27,-8.94,1013.25,600.00,-0.00,-0.01,0.97,0.61,0.85,1.53,44.84,-7.09,-149.51
2248000,29.00,-0.75,0.26,-8.75,1013.25,600.00,-0.00,-0.01,0.97,0.49,0.85,1.65,45.29,-6.97,-148.84
2248050,29.00,-0.82,0.26,-8.63,1013.25,600.00,-0.00,-0.01,0.97,0.37,1.16,1.83,44.56,-6.76,-150.12
2248101,29.00,-0.81,0.24,-8.61,1013.25,600.00,-0.00,-0.01,0.97,0.43,0.98,1.71,45.28,-6.86,-150.23
2248151,29.00,-0.69,0.26,-8.25,1013.25,600.00,-0.00,-0.01,0.97,0.24,0.85,1.71,45.10,-6.53,-150.29
2248201,29.00,-0.80,0.24,-8.35,1013.25,600.00,-0.00,-0.01,0.97,0.49,0.98,1.71,45.43,-6.68,-149.37
2248251,29.00,-0.81,0.24,-9.03,1013.25,600.00,-0.00,-0.01,0.97,0.55,0.73,1.40,44.42,-7.09,-150.26
2248302,29.00,-0.76,0.32,-8.63,1013.25,600.00,-0.01,-0.01,0.97,0.31,1.04,1.59,44.79,-6.79,-149.55
2248352,29.00,-0.69,0.30,-8.70,1013.25,600.00,-0.01,-0.01,0.97,0.43,1.10,1.59,45.29,-6.93,-150.50
2248402,29.00,-0.78,0.26,-9.37,1013.25,600.00,-0.00,-0.01,0.97,0.61,0.85,1.59,44.78,-7.42,-150.70
2248452,29.00,-0.76,0.24,-9.22,1013.25,600.00,-0.00,-0.01,0.97,0.55,1.10,1.77,44.86,-7.28,-150.81
2248503,29.00,-0.68,0.27,-8.12,1013.25,600.00,-0.00,-0.01,0.97,0.61,0.92,1.65,44.86,-6.36,-150.21
2248553,29.00,-0.76,0.30,-9.07,1013.25,600.00,-0.01,-0.01,0.97,0.67,0.98,1.71,44.70,-7.18,-149.58
2248603,29.00,-0.79,0.26,-8.77,1013.25,600.00,-0.00,-0.01,0.97,0.55,0.98,1.71,45.41,-6.99,-149.65
2248653,29.00,-0.76,0.25,-8.56,1013.25,600.00,-0.00,-0.01,0.97,0.31,0.98,1.89,44.96,-6.76,-150.70
2248704,29.00,-0.69,0.31,-8.51,1013.25,600.00,-0.01,-0.01,0.97,0.37,0.98,1.65,45.02,-6.74,-150.78
2248754,29.00,-0.79,0.22,-8.68,1013.25,600.00,-0.00,-0.01,0.97,0.37,0.98,1.65,45.43,-6.95,-149.61
2248804,29.00,-0.81,0.21,-8.10,1013.25,600.00,-0.00,-0.01,0.97,0.55,1.04,1.77,45.12,-6.40,-150.22
2248854,29.00,-0.70,0.27,-9.10,1013.25,600.00,-0.00,-0.01,0.97,0.43,0.79,1.53,45.00,-7.25,-150.34
2248904,29.00,-0.74,0.28,-8.53,1013.25,600.00,-0.00,-0.01,0.97,0.49,0.67,1.77,45.12,-6.75,-150.18
2248955,29.00,-0.82,0.28,-8.25,1013.25,600.00,-0.00,-0.01,0.97,0.06,0.98,1.65,45.13,-6.53,-149.66
2249005,29.00,-0.78,0.24,-7.86,1013.25,600.00,-0.00,-0.01,0.97,0.61,1.04,1.71,44.57,-6.14,-150.29
2249055,29.00,-0.69,0.32,-9.02,1013.25,600.00,-0.01,-0.01,0.97,0.49,0.67,1.53,44.98,-7.19,-150.02
2249156,29.00,-0.87,0.27,-9.14,1013.25,600.00,-0.00,-0.02,0.97,0.49,0.98,1.77,44.67,-7.20,-149.99
2249256,29.00,-0.63,0.33,-9.01,1013.25,600.00,-0.01,-0.01,0.97,0.61,1.04,1.77,44.85,-7.12,-149.78
2249307,29.00,-0.80,0.27,-8.11,1013.25,600.00,-0.00,-0.01,0.97,0.37,0.85,1.71,44.60,-6.32,-148.91
2249357,29.00,-0.79,0.27,-8.42,1013.25,600.00,-0.00,-0.01,0.97,0.49,1.16,1.77,44.58,-6.62,-150.40
2249407,29.00,-0.74,0.26,-8.48,1013.25,600.00,-0.00,-0.01,0.97,0.37,1.04,1.83,45.41,-6.77,-150.06
2249457,29.00,-0.71,0.32,-8.56,1013.25,600.00,-0.01,-0.01,0.97,0.49,0.98,1.83,45.26,-6.82,-150.37
2249507,29.00,-0.78,0.28,-8.77,1013.25,600.00,-0.00,-0.01,0.97,0.43,1.04,1.71,44.81,-6.92,-149.27
2249558,29.00,-0.82,0.27,-8.38,1013.25,600.00,-0.00,-0.01,0.97,0.55,1.04,1.65,44.36,-6.52,-149.72
2249608,29.00,-0.75,0.26,-8.69,1013.25,600.00,-0.00,-0.01,0.97,0.43,0.49,1.53,44.69,-6.85,-148.41
2249658,29.00,-0.72,0.27,-8.53,1013.25,600.00,-0.00,-0.01,0.97,0.49,1.22,1.71,44.40,-6.65,-151.26
2249708,29.00,-0.82,0.25,-8.03,1013.25,600.00,-0.00,-0.01,0.97,0.31,0.67,1.59,44.58,-6.27,-148.74
2249758,29.00,-0.87,0.27,-8.68,1013.25,600.00,-0.00,-0.01,0.97,0.67,1.10,1.71,44.74,-6.86,-150.24
2249809,29.00,-0.77,0.36,-8.12,1013.25,600.00,-0.01,-0.01,0.97,0.18,0.85,1.65,45.12,-6.42,-149.27
2249859,29.00,-0.73,0.27,-8.60,1013.25,600.00,-0.00,-0.01,0.97,0.55,1.22,1.77,44.49,-6.75,-149.19
2249909,29.00,-0.78,0.30,-8.58,1013.25,600.00,-0.01,-0.01,0.97,0.67,1.16,1.77,44.71,-6.75,-149.72
2249959,29.00,-0.78,0.30,-8.55,1013.25,600.00,-0.01,-0.01,0.97,0.49,0.92,1.77,45.15,-6.79,-149.87
2250009,29.00,-0.76,0.25,-8.66,1013.25,600.00,-0.00,-0.01,0.97,0.49,1.04,1.59,44.69,-6.81,-149.77
2250059,29.00,-0.80,0.24,-7.89,1013.25,600.00,-0.00,-0.01,0.97,0.67,1.04,1.77,44.60,-6.15,-149.87
2250110,29.00,-0.78,0.26,-8.18,1013.25,600.00,-0.00,-0.01,0.97,0.61,1.10,1.65,44.73,-6.45,-149.29
2250160,29.00,-0.78,0.27,-8.92,1013.25,600.00,-0.00,-0.01,0.97,0.61,1.10,1.71,44.95,-7.09,-149.18
2250210,29.00,-0.69,0.28,-7.76,1013.25,600.00,-0.00,-0.01,0.97,0.49,0.98,1.83,44.97,-6.08,-149.61
2250261,29.00,-0.74,0.26,-8.16,1013.25,600.00,-0.00,-0.01,0.97,0.49,0.79,1.77,44.95,-6.47,-149.89
2250311,29.00,-0.82,0.27,-8.52,1013.25,600.00,-0.00,-0.01,0.97,0.43,0.85,1.83,44.78,-6.73,-149.91
2250361,29.00,-0.76,0.32,-8.37,1013.25,600.00,-0.01,-0.01,0.97,0.31,0.49,1.65,44.40,-6.53,-149.01
2250412,29.00,-0.76,0.29,-8.22,1013.25,600.00,-0.00,-0.01,0.97,0.06,0.73,1.65,44.49,-6.42,-149.65
2250462,29.00,-0.76,0.22,-8.64,1013.25,600.00,-0.00,-0.01,0.97,0.67,1.10,1.65,44.45,-6.77,-149.15
2250513,29.00,-0.75,0.32,-8.23,1013.25,600.00,-0.01,-0.01,0.97,0.18,1.04,1.83,44.25,-6.38,-150.15
2250563,29.00,-0.68,0.24,-8.37,1013.25,600.00,-0.00,-0.01,0.97,0.49,0.98,1.71,44.07,-6.49,-149.87
2250613,29.00,-0.77,0.24,-8.52,1013.25,600.00,-0.00,-0.01,0.97,0.73,1.16,1.65,44.35,-6.65,-150.20
2250664,29.00,-0.80,0.21,-8.70,1013.25,600.00,-0.00,-0.01,0.97,0.55,0.92,1.71,44.20,-6.77,-150.23
2250714,29.00,-0.75,0.25,-8.77,1013.25,600.00,-0.00,-0.01,0.97,0.67,0.79,1.59,44.20,-6.82,-150.06
2250765,29.00,-0.75,0.30,-8.63,1013.25,600.00,-0.01,-0.01,0.97,0.43,0.92,1.53,44.56,-6.76,-149.94
2250815,29.00,-0.76,0.27,-8.90,1013.25,600.00,-0.00,-0.01,0.97,0.37,0.79,1.59,45.04,-7.07,-149.87
2250865,29.00,-0.75,0.30,-8.45,1013.25,600.00,-0.01,-0.01,0.97,0.55,1.04,1.77,45.03,-6.68,-150.90
2250915,29.00,-0.76,0.23,-8.58,1013.25,600.00,-0.00,-0.01,0.97,0.37,0.92,1.65,44.68,-6.75,-150.78
2250966,29.00,-0.75,0.27,-8.74,1013.25,600.00,-0.00,-0.01,0.97,0.61,1.16,1.71,44.62,-6.87,-148.65
2251016,29.00,-0.82,0.28,-8.75,1013.25,600.00,-0.00,-0.01,0.97,0.37,0.85,1.59,45.04,-6.93,-149.71
2251066,29.00,-0.76,0.28,-9.02,1013.25,600.00,-0.00,-0.01,0.97,0.67,1.28,1.71,44.59,-7.09,-149.84
2251117,29.00,-1.29,0.22,-9.05,1013.25,600.00,-0.00,-0.02,0.98,1.59,5.92,-9.70,44.67,-7.09,-149.34
2251167,29.00,0.45,0.85,-8.99,1013.25,600.00,-0.01,0.01,0.95,0.85,13.85,-18.19,45.76,-7.20,-150.65
2251217,29.00,-1.33,0.18,-8.99,1013.25,600.00,-0.00,-0.02,0.99,-3.66,18.25,-35.28,46.41,-7.26,-150.72
2251268,29.00,-3.64,-5.49,-9.07,1013.25,600.00,0.10,-0.06,0.98,-23.13,27.28,-21.61,47.60,-7.56,-149.10
2251319,29.00,0.96,-1.69,-9.23,1013.25,600.00,0.03,0.02,0.96,-5.31,36.74,17.94,48.74,-7.97,-149.13
2251369,29.00,2.39,-4.87,-9.08,1013.25,600.00,0.09,0.04,0.98,-18.92,43.46,8.54,48.44,-7.75,-150.00
2251420,29.00,3.92,-9.71,-10.09,1013.25,600.00,0.17,0.07,0.94,-43.09,39.25,-10.62,48.90,-8.73,-147.64
2251470,29.00,6.38,-9.96,-9.86,1013.25,600.00,0.17,0.11,0.94,-33.26,43.21,-3.42,50.33,-8.73,-146.28
2251521,29.00,10.58,-17.36,-10.67,1013.25,600.00,0.29,0.17,0.89,-35.28,56.76,-16.05,51.40,-9.68,-145.83
2251572,29.00,10.97,-15.80,-11.28,1013.25,600.00,0.27,0.18,0.93,-30.46,60.85,-6.47,51.65,-10.31,-143.85
2251622,29.00,18.89,-25.17,-10.78,1013.25,600.00,0.41,0.28,0.81,-22.64,77.45,-13.49,54.05,-10.23,-143.92
2251673,29.00,8.10,-26.84,-11.46,1013.25,600.00,0.38,0.10,0.74,-1.40,72.88,-2.08,54.57,-11.10,-142.83
2251724,29.00,11.16,-32.53,-10.49,1013.25,600.00,0.52,0.15,0.78,34.55,83.80,-8.61,56.09,-10.31,-144.65
2251774,29.00,10.09,-34.36,-10.19,1013.25,600.00,0.55,0.14,0.79,22.22,56.21,-3.72,56.97,-10.22,-145.78
2251825,29.00,9.23,-38.92,-9.84,1013.25,600.00,0.60,0.12,0.72,13.18,33.26,3.66,57.31,-9.94,-145.94
2251875,29.00,8.17,-40.19,-9.44,1013.25,600.00,0.63,0.10,0.73,24.84,20.94,-0.79,57.86,-9.59,-147.05
2251925,29.00,6.94,-42.59,-9.47,1013.25,600.00,0.65,0.08,0.70,5.86,3.36,-2.38,58.39,-9.73,-146.92
2251975,29.00,6.30,-43.56,-9.13,1013.25,600.00,0.66,0.07,0.69,29.54,-6.04,4.09,58.81,-9.45,-147.11
2252026,29.00,3.11,-38.80,-8.40,1013.25,600.00,0.59,0.04,0.74,33.33,-30.88,-0.67,58.29,-8.57,-148.36
2252076,29.00,5.15,-36.69,-7.82,1013.25,600.00,0.56,0.07,0.75,48.46,-32.65,3.97,57.20,-7.84,-150.21
2252126,29.00,4.28,-31.55,-7.05,1013.25,600.00,0.53,0.06,0.88,22.95,-52.73,6.10,56.68,-6.98,-151.98
2252227,29.00,-10.74,-28.77,-4.01,1013.25,600.00,0.45,-0.18,0.82,120.12,-68.05,-3.23,53.38,-3.58,-157.26
2252328,29.00,-27.60,-20.68,2.27,1013.25,600.00,0.33,-0.44,0.79,106.02,-70.31,-1.04,51.68,2.36,-161.95
2252429,29.00,-32.16,-14.48,5.12,1013.25,600.00,0.23,-0.50,0.78,30.58,-47.06,-12.82,49.15,4.59,-163.62
2252479,29.00,-30.42,-12.78,7.22,1013.25,600.00,0.21,-0.49,0.83,41.08,-76.78,-18.19,47.05,6.09,-162.71
2252530,29.00,-35.33,-6.04,8.07,1013.25,600.00,0.09,-0.57,0.80,-2.32,-55.36,-11.17,45.83,6.56,-163.53
2252580,29.00,-40.11,-1.33,8.67,1013.25,600.00,0.02,-0.64,0.75,-23.86,-16.91,-8.18,43.86,6.73,-161.56
2252631,29.00,-31.70,-2.54,8.09,1013.25,600.00,0.05,-0.52,0.85,-6.04,-0.92,2.62,43.49,6.15,-160.34
2252681,29.00,-32.53,-3.15,8.19,1013.25,600.00,0.05,-0.52,0.82,30.52,-4.03,13.61,43.75,6.27,-159.99
2252732,29.00,-37.01,-3.48,9.45,1013.25,600.00,0.06,-0.58,0.76,10.62,-0.31,5.55,43.62,7.30,-160.40
2252782,29.00,-35.36,-1.80,9.83,1013.25,600.00,0.03,-0.57,0.81,15.32,5.68,14.34,43.47,7.52,-161.94
2252832,29.00,-33.49,-8.00,10.53,1013.25,600.00,0.14,-0.53,0.81,-19.78,24.66,16.85,43.37,8.06,-160.80
2252883,29.00,-32.64,-6.88,10.15,1013.25,600.00,0.12,-0.53,0.84,0.92,27.77,26.25,43.70,7.75,-161.57
2252933,29.00,-34.72,-8.82,10.67,1013.25,600.00,0.15,-0.53,0.77,-22.34,37.78,16.30,44.64,8.40,-162.33
2252984,29.00,-25.65,-12.95,9.84,1013.25,600.00,0.23,-0.41,0.88,-49.38,46.51,10.86,44.84,7.71,-161.98
2253034,29.00,-28.03,-13.93,8.28,1013.25,600.00,0.26,-0.48,0.90,-38.57,22.16,10.74,45.58,6.54,-162.87
2253085,29.00,-24.34,-15.22,6.82,1013.25,600.00,0.25,-0.37,0.82,-30.76,-2.20,1.16,46.03,5.44,-161.69
2253135,29.00,-27.24,-12.54,6.22,1013.25,600.00,0.21,-0.44,0.85,27.47,-5.62,-9.03,45.52,4.96,-159.67
2253186,29.00,-28.80,-16.13,6.86,1013.25,600.00,0.27,-0.44,0.80,40.53,-8.00,-8.30,45.10,5.47,-160.89
2253237,29.00,-37.79,-10.99,7.31,1013.25,600.00,0.20,-0.65,0.82,47.67,17.94,-21.91,46.08,5.98,-161.94
2253287,29.00,-38.19,-8.48,8.94,1013.25,600.00,0.15,-0.63,0.80,32.23,16.85,-52.37,46.17,7.45,-162.84
2253338,29.00,-30.77,-8.73,9.80,1013.25,600.00,0.16,-0.53,0.89,49.99,-26.55,-37.84,48.50,8.51,-162.88
2253388,29.00,-36.11,-6.40,11.09,1013.25,600.00,0.11,-0.59,0.80,32.29,-38.15,-21.00,48.14,9.55,-163.65
2253439,29.00,-44.67,-4.34,12.01,1013.25,600.00,0.07,-0.66,0.65,1.59,-38.64,-26.25,47.27,10.16,-163.32
2253489,29.00,-37.96,-2.28,11.61,1013.25,600.00,0.04,-0.63,0.82,-13.98,-31.19,-27.59,46.44,9.58,-163.17
2253540,29.00,-37.33,-0.86,10.87,1013.25,600.00,0.01,-0.59,0.77,-15.81,-40.47,-30.94,45.85,8.84,-162.73
2253590,29.00,-40.22,4.07,9.97,1013.25,600.00,-0.08,-0.69,0.81,-11.60,-26.43,-16.30,44.69,7.85,-161.66
2253641,29.00,-35.09,6.07,9.81,1013.25,600.00,-0.10,-0.52,0.74,-22.71,-28.38,-27.16,44.18,7.69,-161.21
2253692,29.00,-38.22,9.73,9.48,1013.25,600.00,-0.18,-0.64,0.81,-22.40,-24.17,-17.46,43.29,7.25,-159.35
2253742,29.00,-23.89,9.98,8.14,1013.25,600.00,-0.14,-0.31,0.72,-35.46,-25.27,-16.48,43.53,6.20,-159.59
2253793,29.00,-32.84,12.27,6.43,1013.25,600.00,-0.21,-0.53,0.82,-78.55,-15.56,-19.71,43.65,4.90,-158.96
2253844,29.00,-24.62,10.85,3.73,1013.25,600.00,-0.18,-0.39,0.88,-109.31,14.22,-16.54,43.79,2.78,-157.31
2253894,29.00,-14.93,11.03,0.18,1013.25,600.00,-0.18,-0.23,0.91,-144.04,43.64,-22.09,44.03,0.04,-155.44
2253945,29.00,-1.36,9.62,-4.10,1013.25,600.00,-0.16,-0.01,0.95,-119.14,42.72,-10.62,45.86,-3.44,-152.27
2253996,29.00,1.22,7.00,-5.99,1013.25,600.00,-0.13,0.03,1.06,-100.71,27.77,-4.46,46.47,-4.94,-148.29
2254046,29.00,10.77,5.89,-7.79,1013.25,600.00,-0.10,0.20,0.99,-70.98,14.89,4.94,48.40,-6.71,-146.13
2254097,29.00,13.39,5.20,-8.38,1013.25,600.00,-0.09,0.24,0.97,-73.12,9.40,1.10,48.08,-7.12,-143.29
2254147,29.00,16.86,3.61,-9.01,1013.25,600.00,-0.05,0.27,0.87,-95.64,30.09,-2.69,47.66,-7.58,-141.52
2254198,29.00,14.97,1.76,-9.33,1013.25,600.00,-0.02,0.24,0.90,-47.12,58.96,-5.74,48.51,-7.97,-138.48
2254248,29.00,20.53,-1.70,-9.85,1013.25,600.00,0.03,0.35,0.91,-30.40,44.56,-13.67,49.27,-8.54,-138.23
2254299,29.00,25.76,-5.67,-10.38,1013.25,600.00,0.09,0.40,0.81,-31.68,49.01,-19.59,50.18,-9.17,-137.29
2254349,29.00,27.91,-9.21,-10.26,1013.25,600.00,0.17,0.48,0.90,-20.75,72.14,-19.47,50.95,-9.17,-136.12
2254400,29.00,28.44,-13.82,-10.69,1013.25,600.00,0.18,0.35,0.64,3.30,63.29,-22.46,52.17,-9.81,-135.85
2254451,29.00,25.92,-16.88,-10.67,1013.25,600.00,0.32,0.45,0.92,2.44,82.46,-28.93,53.28,-9.96,-135.97
2254501,29.00,31.40,-22.67,-10.37,1013.25,600.00,0.37,0.45,0.73,18.43,72.08,-38.76,54.52,-9.86,-136.15
2254552,29.00,22.43,-26.89,-10.09,1013.25,600.00,0.41,0.30,0.74,15.50,47.73,-17.40,55.46,-9.80,-137.05
2254603,29.00,22.95,-26.85,-9.56,1013.25,600.00,0.46,0.35,0.84,60.55,52.19,-30.40,56.46,-9.40,-138.29
2254654,29.00,10.44,-26.93,-8.92,1013.25,600.00,0.47,0.15,0.92,120.85,28.20,-24.11,57.73,-8.96,-140.93
2254703,29.00,5.16,-33.65,-6.89,1013.25,600.00,0.49,0.06,0.72,192.57,-14.89,-31.98,58.97,-6.93,-147.13
2254754,29.00,-5.30,-29.49,-4.45,1013.25,600.00,0.51,-0.10,0.91,207.70,-14.34,-31.62,60.02,-4.44,-152.93
2254804,29.00,-19.10,-30.92,0.47,1013.25,600.00,0.46,-0.27,0.72,166.26,-44.07,-27.95,59.80,0.84,-156.87
2254855,29.00,-24.27,-23.90,3.45,1013.25,600.00,0.38,-0.36,0.79,92.83,-29.60,11.47,59.00,3.69,-159.80
2254906,29.00,-36.44,-21.78,4.27,1013.25,600.00,0.36,-0.56,0.74,-38.51,-48.52,18.37,57.04,4.25,-161.54
2254956,29.00,-25.12,-24.10,2.06,1013.25,600.00,0.32,-0.30,0.66,-93.02,-54.02,6.41,55.02,1.86,-159.81
2255007,29.00,-14.86,-9.78,-1.98,1013.25,600.00,0.13,-0.20,0.82,-182.43,-110.60,7.32,53.60,-2.08,-158.15
2255058,29.00,-4.63,-11.83,-6.18,1013.25,600.00,0.22,-0.07,1.05,-70.07,-125.18,-9.16,51.77,-5.79,-154.80
2255109,29.00,35.20,2.53,-8.41,1013.25,600.00,-0.05,0.47,0.61,-33.69,-212.89,51.57,48.80,-7.43,-149.84
2255159,29.00,-5.56,-5.38,-8.91,1013.25,600.00,0.09,-0.12,0.86,0.06,-1.16,7.26,46.09,-7.26,-150.10
2255210,29.00,-0.95,-0.02,-8.69,1013.25,600.00,-0.00,-0.01,0.97,0.55,0.98,1.46,46.37,-7.08,-150.13
2255261,29.00,-0.83,0.23,-8.55,1013.25,600.00,-0.00,-0.01,0.97,0.18,0.79,1.71,46.00,-6.91,-150.40
2255311,29.00,-0.84,0.16,-7.98,1013.25,600.00,-0.00,-0.01,0.97,0.61,0.92,1.65,46.73,-6.53,-150.67
2255361,29.00,-0.78,0.23,-8.57,1013.25,600.00,-0.00,-0.01,0.97,0.49,0.79,1.65,45.83,-6.93,-150.55
2255411,29.00,-0.74,0.23,-8.90,1013.25,600.00,-0.00,-0.01,0.97,0.37,0.73,1.77,46.04,-7.23,-149.06
2255462,29.00,-0.81,0.24,-8.97,1013.25,600.00,-0.00,-0.01,0.97,0.55,0.92,1.59,46.00,-7.26,-150.72
2255512,29.00,-0.83,0.24,-8.60,1013.25,600.00,-0.00,-0.01,0.97,0.49,0.98,1.83,45.76,-6.91,-150.37
2255563,29.00,-0.76,0.26,-8.73,1013.25,600.00,-0.00,-0.01,0.97,0.49,0.98,1.77,45.70,-7.03,-149.99
2255613,29.00,-0.76,0.32,-8.73,1013.25,600.00,-0.01,-0.01,0.97,0.31,1.04,1.77,46.80,-7.19,-150.67
2255663,29.00,-0.77,0.18,-8.92,1013.25,600.00,-0.00,-0.01,0.97,0.49,0.92,1.59,46.25,-7.28,-150.09
2255713,29.00,-0.75,0.22,-9.02,1013.25,600.00,-0.00,-0.01,0.95,0.37,0.92,1.65,46.53,-7.40,-148.90
2255764,29.00,-0.69,0.23,-8.50,1013.25,600.00,-0.00,-0.01,0.96,0.37,1.59,1.77,45.87,-6.84,-149.79
2255814,29.00,-0.83,0.33,-8.45,1013.25,600.00,-0.01,-0.01,1.00,0.67,0.61,1.65,45.52,-6.76,-149.83
2255864,29.00,-0.82,0.21,-8.92,1013.25,600.00,-0.00,-0.01,0.97,0.61,0.55,1.59,46.03,-7.25,-150.11
2255914,29.00,-0.74,0.26,-8.69,1013.25,600.00,-0.00,-0.01,0.95,0.37,1.28,1.65,45.80,-6.99,-151.03
2256015,29.00,-0.79,0.26,-9.10,1013.25,600.00,-0.00,-0.01,0.98,0.55,0.67,1.83,46.09,-7.41,-150.44
