Timestamp,Temperature,Roll,Pitch,Yaw,Pressure,Altitude,ax,ay,az,gx,gy,gz,mx,my,mz
139003,29.00,-5.91,13.29,-10.38,1013.25,10.00,-0.20,-0.09,0.86,7.20,9.89,1.16,37.21,-6.79,-157.36
139053,29.00,-1.86,7.69,-10.43,1013.25,10.00,-0.11,-0.03,0.88,7.14,9.22,1.16,37.46,-6.90,-158.65
139104,29.00,-3.71,6.97,-10.06,1013.25,10.00,-0.11,-0.06,0.88,10.25,13.43,3.48,36.71,-6.51,-157.73
139154,29.00,-2.25,5.73,-9.54,1013.25,10.00,-0.10,-0.04,1.01,4.09,2.14,4.33,36.95,-6.20,-159.24
139205,29.00,-4.57,6.67,-9.14,1013.25,10.00,-0.12,-0.09,1.04,13.73,12.88,3.78,37.08,-5.96,-161.11
139255,29.00,-6.58,6.85,-8.85,1013.25,10.00,-0.12,-0.12,1.03,1.89,2.01,-0.31,37.13,-5.77,-158.76
139306,29.00,-4.85,2.47,-8.91,1013.25,10.00,-0.04,-0.08,1.00,-4.46,0.73,-1.34,37.78,-5.92,-160.91
139356,29.00,-6.35,9.76,-10.11,1013.25,10.00,-0.17,-0.10,0.93,-8.73,-2.81,2.87,37.12,-6.67,-157.75
139407,29.00,-3.99,7.79,-9.51,1013.25,10.00,-0.13,-0.07,0.99,-6.77,3.05,-2.50,37.24,-6.21,-159.77
139458,29.00,-2.90,4.07,-9.61,1013.25,10.00,-0.06,-0.05,0.92,-1.83,0.85,-1.71,37.56,-6.36,-158.07
139508,29.00,-3.62,5.40,-9.85,1013.25,10.00,-0.09,-0.06,0.91,-2.26,-2.32,1.59,37.61,-6.54,-159.78
139559,29.00,-4.38,7.96,-10.21,1013.25,10.00,-0.13,-0.07,0.92,-0.37,8.67,1.28,36.94,-6.67,-159.28
139609,29.00,-4.78,7.81,-9.49,1013.25,10.00,-0.12,-0.07,0.86,3.66,21.55,-4.70,37.94,-6.31,-158.96
139660,29.00,-4.80,5.61,-10.48,1013.25,10.00,-0.09,-0.08,0.91,-4.27,3.48,-6.10,38.20,-7.09,-160.01
139710,29.00,-5.25,4.50,-9.70,1013.25,10.00,-0.08,-0.09,1.00,-3.54,9.34,-6.23,38.21,-6.49,-158.07
139761,29.00,-4.94,6.10,-11.10,1013.25,10.00,-0.10,-0.08,0.97,0.43,4.33,-7.63,38.64,-7.62,-158.35
139812,29.00,-4.66,4.65,-10.62,1013.25,10.00,-0.08,-0.08,0.94,4.21,-9.34,-10.50,38.95,-7.26,-158.26
139862,29.00,-1.78,0.53,-10.78,1013.25,10.00,-0.00,-0.02,0.83,8.91,2.44,-5.98,39.14,-7.45,-160.45
139913,29.00,-2.95,3.17,-10.17,1013.25,10.00,-0.06,-0.05,0.96,2.08,6.04,0.00,39.38,-7.04,-159.06
140013,29.00,-4.57,6.85,-10.24,1013.25,10.00,-0.11,-0.07,0.90,4.46,18.62,-3.97,39.75,-7.17,-158.85
140113,29.00,-4.23,-1.54,-10.17,1013.25,10.00,0.04,-0.08,1.09,-7.57,-11.29,-3.30,40.28,-7.21,-159.41
140165,29.00,-4.52,5.74,-9.79,1013.25,10.00,-0.10,-0.07,0.92,0.43,-5.62,-2.32,40.84,-7.03,-159.73
140215,29.00,-5.68,3.83,-10.09,1013.25,10.00,-0.06,-0.10,0.98,-2.87,-2.26,-3.60,39.89,-7.10,-159.09
140266,29.00,-7.03,2.87,-10.29,1013.25,10.00,-0.04,-0.11,0.90,-7.75,0.55,-3.60,39.79,-7.23,-159.00
140317,29.00,-4.22,1.87,-9.94,1013.25,10.00,-0.03,-0.07,0.93,-15.56,-5.00,-5.00,39.82,-6.96,-156.34
140367,29.00,-1.46,1.70,-11.09,1013.25,10.00,-0.03,-0.02,0.95,-8.36,-6.71,-6.71,39.71,-7.81,-157.59
140418,29.00,-1.14,2.60,-10.87,1013.25,10.00,-0.05,-0.02,1.05,5.55,-27.40,-5.74,39.69,-7.60,-156.88
140469,29.00,-21.95,-4.78,-11.23,1013.25,10.00,0.04,-0.17,0.39,6.29,-19.29,-4.82,39.28,-7.80,-156.21
140518,29.00,-2.40,8.08,-11.11,1013.25,10.00,-0.15,-0.02,0.98,7.32,10.86,-0.43,38.76,-7.60,-156.01
140568,29.00,-2.41,7.10,-10.83,1013.25,10.00,-0.12,-0.04,0.97,6.04,12.94,-0.85,39.06,-7.46,-155.03
140619,29.00,-2.07,5.49,-10.65,1013.25,10.00,-0.09,-0.04,0.99,6.29,2.62,-0.98,38.75,-7.28,-157.14
140669,29.00,-1.79,7.91,-10.17,1013.25,10.00,-0.14,-0.03,0.99,5.68,-10.74,0.73,38.89,-6.96,-155.15
140720,29.00,-5.94,8.96,-10.62,1013.25,10.00,-0.14,-0.09,0.87,14.59,2.44,1.59,38.68,-7.28,-157.57
140770,29.00,-4.93,11.99,-9.75,1013.25,10.00,-0.19,-0.08,0.89,-1.34,-1.04,-0.55,37.93,-6.48,-156.76
140821,29.00,-2.99,8.05,-9.35,1013.25,10.00,-0.14,-0.05,1.00,-5.74,24.54,-4.15,37.88,-6.21,-157.51
140871,29.00,-2.41,5.61,-9.39,1013.25,10.00,-0.10,-0.04,1.01,-3.60,1.16,-4.27,38.34,-6.34,-157.35
140922,29.00,-2.38,4.50,-10.08,1013.25,10.00,-0.08,-0.04,1.00,4.09,3.17,-0.18,38.81,-6.92,-158.02
140973,29.00,-3.58,5.77,-10.52,1013.25,10.00,-0.10,-0.06,1.00,8.12,-5.55,3.36,38.28,-7.13,-159.78
141023,29.00,-3.33,5.65,-9.64,1013.25,10.00,-0.10,-0.06,1.00,5.25,-6.59,2.69,37.96,-6.42,-158.45
141074,29.00,-6.78,8.55,-9.71,1013.25,10.00,-0.14,-0.11,0.93,-0.37,-5.07,1.22,37.59,-6.43,-158.19
141124,29.00,-5.55,5.83,-9.66,1013.25,10.00,-0.10,-0.09,0.97,1.59,17.46,2.62,37.05,-6.31,-158.18
141175,29.00,-5.70,5.48,-9.86,1013.25,10.00,-0.10,-0.10,1.03,-1.34,7.51,3.66,37.78,-6.58,-160.67
141225,29.00,-5.81,4.93,-9.06,1013.25,10.00,-0.09,-0.10,1.00,-0.61,1.28,2.50,36.99,-5.87,-158.94
141276,29.00,-4.43,7.46,-9.83,1013.25,10.00,-0.12,-0.07,0.91,-1.46,1.28,1.16,38.51,-6.70,-160.46
141326,29.00,-5.80,7.37,-10.10,1013.25,10.00,-0.13,-0.10,1.00,-2.14,13.55,0.00,37.99,-6.77,-159.88
141377,29.00,-5.11,5.31,-8.77,1013.25,10.00,-0.09,-0.09,0.98,-2.08,11.78,-1.22,38.79,-5.93,-160.73
141427,29.00,-5.15,5.00,-9.34,1013.25,10.00,-0.09,-0.10,1.06,-2.32,-5.19,-1.53,39.09,-6.45,-161.10
141478,29.00,-3.73,5.50,-8.96,1013.25,10.00,-0.09,-0.06,0.95,-4.15,-12.51,-1.53,38.49,-6.05,-161.36
141528,29.00,-5.04,6.06,-9.53,1013.25,10.00,-0.10,-0.08,0.95,-0.31,-13.37,-0.85,38.79,-6.53,-161.17
141579,29.00,-3.50,6.93,-9.25,1013.25,10.00,-0.11,-0.05,0.90,5.13,-2.69,0.00,38.27,-6.23,-158.51
141629,29.00,-4.73,6.88,-9.56,1013.25,10.00,-0.11,-0.08,0.93,7.81,6.29,1.28,38.43,-6.48,-161.52
141679,29.00,-4.80,5.77,-9.08,1013.25,10.00,-0.10,-0.08,1.00,10.80,7.75,2.20,38.13,-6.08,-160.64
141730,29.00,-4.86,7.34,-9.32,1013.25,10.00,-0.12,-0.08,0.95,3.36,4.70,2.56,38.73,-6.37,-162.02
141780,29.00,-6.73,5.63,-9.12,1013.25,10.00,-0.09,-0.12,0.97,7.69,9.28,1.65,38.66,-6.20,-161.73
141831,29.00,-6.68,6.06,-8.84,1013.25,10.00,-0.10,-0.11,0.93,5.98,7.14,0.37,38.93,-6.04,-162.35
141881,29.00,-7.04,4.54,-8.70,1013.25,10.00,-0.08,-0.12,0.98,10.80,13.24,0.85,38.94,-5.96,-163.67
141932,29.00,-6.90,5.92,-8.45,1013.25,10.00,-0.10,-0.11,0.94,5.74,3.78,0.49,39.23,-5.82,-162.67
141982,29.00,-6.04,2.98,-8.27,1013.25,10.00,-0.05,-0.11,1.01,4.46,7.20,0.31,39.37,-5.71,-164.38
142032,29.00,-7.74,2.64,-7.29,1013.25,10.00,-0.05,-0.14,0.99,0.67,-0.55,1.46,39.38,-5.00,-162.98
142083,29.00,-7.81,3.78,-7.60,1013.25,10.00,-0.06,-0.13,0.95,-1.10,-4.21,1.65,39.44,-5.27,-164.90
142133,29.00,-5.90,3.63,-7.73,1013.25,10.00,-0.06,-0.10,1.01,1.46,-4.94,1.46,38.95,-5.30,-162.39
142183,29.00,-7.78,5.08,-9.26,1013.25,10.00,-0.09,-0.13,0.96,-3.54,-4.15,0.06,38.76,-6.37,-164.00
142234,29.00,-8.14,6.80,-7.58,1013.25,10.00,-0.11,-0.13,0.91,-0.24,-4.21,0.00,37.94,-4.99,-163.56
142284,29.00,-7.43,4.90,-7.89,1013.25,10.00,-0.08,-0.13,1.00,5.31,4.33,-1.28,38.51,-5.35,-161.68
142335,29.00,-10.51,5.97,-7.86,1013.25,10.00,-0.10,-0.17,0.92,2.87,2.32,0.61,39.34,-5.43,-163.78
142385,29.00,-8.78,4.56,-7.20,1013.25,10.00,-0.08,-0.15,0.99,9.09,11.41,-0.98,38.98,-4.90,-163.33
142436,29.00,-8.45,6.27,-6.99,1013.25,10.00,-0.11,-0.14,0.97,-0.61,-2.14,4.03,39.21,-4.81,-165.42
142486,29.00,-8.62,5.64,-7.61,1013.25,10.00,-0.09,-0.14,0.95,-1.83,-0.61,3.42,38.61,-5.19,-163.18
142537,29.00,-8.21,5.04,-7.50,1013.25,10.00,-0.09,-0.14,0.99,-2.08,1.34,3.85,39.22,-5.16,-164.67
142587,29.00,-8.05,5.98,-7.49,1013.25,10.00,-0.10,-0.13,0.94,-2.14,1.28,2.50,38.77,-5.10,-162.68
142637,29.00,-8.75,5.69,-7.83,1013.25,10.00,-0.10,-0.15,0.96,-0.37,2.75,2.14,38.78,-5.35,-162.61
142688,29.00,-8.60,5.71,-7.65,1013.25,10.00,-0.10,-0.15,0.96,-0.73,0.24,2.01,38.62,-5.19,-163.62
142738,29.00,-8.40,5.53,-7.34,1013.25,10.00,-0.09,-0.14,0.95,1.40,0.37,1.46,38.64,-4.97,-162.54
142789,29.00,-9.80,5.76,-8.00,1013.25,10.00,-0.10,-0.17,0.98,2.26,0.92,1.22,39.22,-5.54,-164.60
142839,29.00,-8.13,5.89,-6.96,1013.25,10.00,-0.10,-0.13,0.95,-0.61,-0.67,0.37,38.28,-4.64,-163.53
142889,29.00,-9.66,6.83,-6.81,1013.25,10.00,-0.12,-0.16,0.96,0.00,-1.28,2.01,39.34,-4.70,-164.36
142940,29.00,-10.77,5.97,-7.29,1013.25,10.00,-0.1,-0.19,1.00,-1.65,1.77,1.34,39.06,-5.02,-162.85
142990,29.00,-8.34,5.44,-7.54,1013.25,10.00,-0.09,-0.14,0.96,-4.52,-2.32,0.24,39.04,-5.18,-164.10
143040,29.00,-7.15,6.22,-7.39,1013.25,10.00,-0.10,-0.12,0.94,-4.39,-3.11,-0.73,38.09,-4.93,-161.82
143091,29.00,-5.97,5.38,-7.39,1013.25,10.00,-0.09,-0.10,0.96,-0.31,1.71,-1.34,38.70,-5.02,-163.28
143142,29.00,-8.43,6.66,-7.17,1013.25,10.00,-0.11,-0.14,0.95,2.14,2.20,-0.18,38.50,-4.83,-163.99
143192,29.00,-8.77,7.08,-7.31,1013.25,10.00,-0.12,-0.15,0.97,1.04,1.04,-0.43,38.32,-4.92,-161.61
143243,29.00,-8.31,6.90,-7.55,1013.25,10.00,-0.12,-0.14,0.95,-0.37,2.38,-1.83,38.18,-5.07,-163.79
143293,29.00,-7.82,6.56,-6.75,1013.25,10.00,-0.11,-0.13,0.93,1.28,1.71,-2.01,38.31,-4.50,-161.82
143343,29.00,-7.61,5.49,-6.76,1013.25,10.00,-0.09,-0.13,0.96,0.49,1.95,-1.04,38.64,-4.58,-164.64
143394,29.00,-6.60,5.42,-6.52,1013.25,10.00,-0.09,-0.11,0.94,1.77,1.16,0.18,38.42,-4.38,-162.19
143444,29.00,-8.47,6.00,-7.45,1013.25,10.00,-0.10,-0.15,0.97,2.01,0.67,1.83,39.00,-5.14,-164.45
143544,29.00,-9.00,6.56,-7.69,1013.25,10.00,-0.11,-0.15,0.96,2.14,2.20,2.32,38.39,-5.20,-161.40
143645,29.00,-8.43,5.76,-7.37,1013.25,10.00,-0.10,-0.14,0.95,1.28,3.11,0.67,38.28,-4.94,-163.22
143695,29.00,-7.62,5.18,-6.78,1013.25,10.00,-0.09,-0.13,0.97,0.61,2.26,0.98,38.37,-4.54,-163.79
143745,29.00,-7.84,4.68,-7.23,1013.25,10.00,-0.08,-0.13,0.94,1.28,2.38,2.14,38.42,-4.90,-165.86
143795,29.00,-7.99,4.85,-6.67,1013.25,10.00,-0.08,-0.13,0.95,1.65,1.65,2.75,38.33,-4.47,-163.28
143846,29.00,-9.16,5.70,-6.73,1013.25,10.00,-0.10,-0.16,0.97,1.22,1.59,2.62,38.34,-4.53,-164.82
143896,29.00,-8.77,5.71,-6.33,1013.25,10.00,-0.10,-0.15,0.97,-2.75,-0.24,1.53,38.09,-4.21,-163.61
143946,29.00,-8.72,5.80,-6.34,1013.25,10.00,-0.10,-0.15,0.95,-3.11,-0.73,0.85,37.78,-4.20,-164.10
143997,29.00,-8.12,5.73,-6.56,1013.25,10.00,-0.10,-0.13,0.94,-2.14,-0.79,1.04,37.71,-4.35,-163.93
144047,29.00,-5.87,5.38,-6.42,1013.25,10.00,-0.08,-0.09,0.89,2.01,0.61,0.92,37.79,-4.25,-163.37
144097,29.00,-9.92,5.89,-6.70,1013.25,10.00,-0.10,-0.17,0.95,2.99,0.67,1.53,38.12,-4.49,-163.57
144148,29.00,-9.20,6.04,-7.27,1013.25,10.00,-0.10,-0.15,0.94,-1.83,-0.24,1.46,38.07,-4.88,-162.23
144198,29.00,-8.36,6.09,-6.82,1013.25,10.00,-0.10,-0.14,0.94,-0.61,1.59,0.67,38.12,-4.54,-165.43
144249,29.00,-8.30,5.73,-7.20,1013.25,10.00,-0.10,-0.14,0.95,3.72,3.78,1.28,37.95,-4.81,-163.12
144300,29.00,-9.24,5.83,-7.12,1013.25,10.00,-0.10,-0.16,0.97,2.01,2.69,1.34,38.49,-4.81,-165.81
144350,29.00,-8.67,5.48,-7.97,1013.25,10.00,-0.09,-0.15,0.97,1.53,1.34,0.61,37.71,-5.31,-164.22
144400,29.00,-8.50,5.15,-7.11,1013.25,10.00,-0.09,-0.14,0.96,-0.06,0.67,0.31,38.11,-4.72,-164.06
144450,29.00,-8.92,5.70,-7.24,1013.25,10.00,-0.10,-0.15,0.96,0.92,1.71,0.73,38.57,-4.91,-164.17
144501,29.00,-9.09,5.17,-6.71,1013.25,10.00,-0.09,-0.15,0.97,0.31,2.44,0.49,38.66,-4.53,-164.25
144551,29.00,-8.98,5.48,-6.85,1013.25,10.00,-0.09,-0.15,0.96,-0.18,1.71,0.31,38.45,-4.63,-165.42
144601,29.00,-9.37,5.41,-7.27,1013.25,10.00,-0.09,-0.16,0.97,-0.73,0.61,-0.31,38.44,-4.92,-163.61
144652,29.00,-8.89,5.51,-6.51,1013.25,10.00,-0.09,-0.15,0.95,-0.37,0.92,-0.18,38.77,-4.39,-164.87
144703,29.00,-9.02,5.46,-5.98,1013.25,10.00,-0.09,-0.15,0.94,-0.67,1.28,-0.06,38.40,-4.00,-164.00
144753,29.00,-9.39,5.62,-6.79,1013.25,10.00,-0.09,-0.16,0.95,1.95,2.75,0.92,38.10,-4.57,-163.39
144803,29.00,-9.72,6.34,-6.90,1013.25,10.00,-0.11,-0.17,0.97,1.95,3.23,-1.10,37.71,-4.57,-164.36
144854,29.00,-9.16,5.19,-6.22,1013.25,10.00,-0.09,-0.16,0.97,-0.92,1.95,0.06,38.66,-4.19,-163.48
144904,29.00,-8.49,4.81,-6.17,1013.25,10.00,-0.08,-0.14,0.95,-0.98,0.31,0.37,38.20,-4.13,-163.95
144955,29.00,-8.35,5.30,-6.44,1013.25,10.00,-0.09,-0.14,0.96,-0.18,0.12,1.34,38.68,-4.38,-162.76
145005,29.00,-8.74,5.19,-7.02,1013.25,10.00,-0.09,-0.15,0.96,0.24,1.22,1.83,38.85,-4.81,-164.37
145055,29.00,-8.88,5.95,-6.14,1013.25,10.00,-0.10,-0.15,0.95,0.61,1.59,1.40,38.53,-4.11,-162.94
145106,29.00,-9.39,5.30,-6.34,1013.25,10.00,-0.09,-0.16,0.94,2.01,2.56,0.98,38.56,-4.30,-164.77
145156,29.00,-8.70,5.27,-5.95,1013.25,10.00,-0.09,-0.15,0.99,1.04,2.20,0.31,39.11,-4.06,-162.98
145206,29.00,-9.69,5.32,-5.88,1013.25,10.00,-0.09,-0.16,0.95,-0.61,1.34,-0.61,38.78,-3.99,-165.33
145257,29.00,-9.35,5.33,-6.96,1013.25,10.00,-0.09,-0.16,0.96,-2.38,-0.12,-1.77,38.51,-4.74,-165.76
145307,29.00,-9.14,5.40,-6.27,1013.25,10.00,-0.09,-0.15,0.95,-1.89,-0.49,-1.40,38.71,-4.22,-163.90
145358,29.00,-8.93,5.24,-6.76,1013.25,10.00,-0.09,-0.15,0.95,-1.53,0.31,-0.79,38.56,-4.59,-165.41
145408,29.00,-8.50,4.91,-6.47,1013.25,10.00,-0.08,-0.14,0.95,-0.06,2.20,0.06,38.49,-4.36,-162.87
145458,29.00,-8.79,4.98,-6.79,1013.25,10.00,-0.09,-0.15,0.97,-0.73,1.53,1.04,38.00,-4.54,-165.26
145509,29.00,-8.64,5.14,-6.72,1013.25,10.00,-0.09,-0.15,0.96,-1.65,1.10,1.22,38.34,-4.52,-163.94
145559,29.00,-9.04,5.69,-6.68,1013.25,10.00,-0.10,-0.15,0.94,-0.98,1.04,0.85,38.55,-4.52,-165.86
145609,29.00,-8.81,5.45,-7.11,1013.25,10.00,-0.09,-0.15,0.96,0.24,2.50,0.73,38.33,-4.80,-162.85
145660,29.00,-8.79,5.23,-6.97,1013.25,10.00,-0.09,-0.15,0.95,0.18,1.77,0.55,38.67,-4.72,-164.76
145710,29.00,-8.75,5.29,-7.51,1013.25,10.00,-0.09,-0.15,0.96,0.49,1.89,0.61,37.89,-5.02,-163.66
145761,29.00,-8.89,5.35,-7.28,1013.25,10.00,-0.09,-0.15,0.95,-0.06,1.22,0.31,38.59,-4.92,-164.49
145811,29.00,-8.73,5.11,-7.73,1013.25,10.00,-0.09,-0.15,0.96,0.61,2.20,0.61,38.54,-5.25,-165.34
145861,29.00,-8.95,5.35,-7.22,1013.25,10.00,-0.09,-0.15,0.95,0.06,1.83,0.31,38.50,-4.86,-164.28
145912,29.00,-8.93,5.30,-7.30,1013.25,10.00,-0.09,-0.15,0.97,-1.28,0.98,-0.55,38.79,-4.97,-165.39
145962,29.00,-8.69,5.28,-6.85,1013.25,10.00,-0.09,-0.15,0.95,-2.14,-0.43,-0.79,38.84,-4.65,-164.05
146013,29.00,-8.35,5.11,-7.85,1013.25,10.00,-0.09,-0.14,0.97,-2.56,-0.85,-0.85,38.95,-5.41,-165.26
146063,29.00,-8.04,5.71,-7.83,1013.25,10.00,-0.09,-0.13,0.93,-4.21,-3.17,-2.08,38.27,-5.26,-162.81
146114,29.00,-8.03,5.46,-8.36,1013.25,10.00,-0.09,-0.13,0.91,2.81,2.01,-0.24,38.73,-5.71,-164.28
146164,29.00,-8.62,5.32,-7.74,1013.25,10.00,-0.09,-0.15,0.99,3.17,2.81,1.40,38.61,-5.22,-164.39
146215,29.00,-8.60,5.76,-6.96,1013.25,10.00,-0.09,-0.14,0.93,1.22,2.81,2.32,38.82,-4.71,-163.43
146265,29.00,-8.80,5.26,-6.95,1013.25,10.00,-0.09,-0.15,0.98,5.98,4.82,2.14,39.31,-4.80,-165.11
146316,29.00,-8.74,4.96,-7.23,1013.25,10.00,-0.09,-0.15,1.00,-2.44,-0.61,2.44,38.75,-4.93,-163.53
146366,29.00,-8.35,5.65,-7.40,1013.25,10.00,-0.10,-0.14,0.97,-7.45,-2.62,1.04,38.84,-5.05,-164.51
146416,29.00,-7.92,5.39,-7.90,1013.25,10.00,-0.09,-0.13,0.91,-3.54,-0.06,0.79,38.75,-5.40,-162.76
146467,29.00,-7.91,5.17,-7.62,1013.25,10.00,-0.08,-0.13,0.92,3.60,1.71,3.78,38.98,-5.21,-164.34
146517,29.00,-8.38,5.23,-7.60,1013.25,10.00,-0.09,-0.15,1.00,4.76,2.99,5.55,38.45,-5.14,-163.77
146567,29.00,-8.56,5.88,-7.58,1013.25,10.00,-0.10,-0.15,0.97,-2.56,-0.12,4.70,38.82,-5.18,-163.94
146618,29.00,-9.05,6.88,-7.49,1013.25,10.00,-0.12,-0.15,0.94,-1.46,2.56,3.05,38.31,-5.04,-163.81
146668,29.00,-9.48,7.25,-7.05,1013.25,10.00,-0.12,-0.16,0.95,0.00,2.69,0.12,38.42,-4.74,-162.63
146718,29.00,-8.47,5.13,-7.95,1013.25,10.00,-0.08,-0.14,0.93,2.99,4.82,1.59,38.71,-5.44,-163.95
146818,29.00,-9.09,4.77,-7.95,1013.25,10.00,-0.08,-0.16,0.98,1.83,1.89,2.44,38.67,-5.41,-165.06
146919,29.00,-8.97,4.84,-7.10,1013.25,10.00,-0.08,-0.15,0.97,-1.34,1.65,-0.24,38.94,-4.82,-163.26
146969,29.00,-8.42,3.91,-6.45,1013.25,10.00,-0.06,-0.14,0.94,0.00,1.89,0.98,38.98,-4.38,-165.55
147019,29.00,-8.27,4.05,-6.61,1013.25,10.00,-0.07,-0.14,0.96,2.50,1.22,1.59,38.60,-4.48,-164.87
147070,29.00,-9.39,4.94,-6.40,1013.25,10.00,-0.08,-0.16,0.96,1.59,-0.12,2.01,38.92,-4.36,-164.83
147120,29.00,-9.41,5.05,-5.86,1013.25,10.00,-0.09,-0.16,0.96,0.18,1.95,0.49,38.73,-3.96,-165.84
147170,29.00,-9.91,4.92,-5.78,1013.25,10.00,-0.08,-0.16,0.94,-0.18,2.81,-0.98,38.77,-3.92,-163.84
147221,29.00,-8.49,3.79,-5.71,1013.25,10.00,-0.06,-0.14,0.98,4.27,5.37,0.00,38.26,-3.82,-165.76
147271,29.00,-9.73,3.93,-5.75,1013.25,10.00,-0.07,-0.17,0.96,2.50,2.87,0.18,39.00,-3.93,-164.94
147321,29.00,-8.98,4.47,-6.00,1013.25,10.00,-0.08,-0.15,0.96,2.01,2.69,0.73,39.04,-4.11,-166.36
147372,29.00,-10.16,4.52,-6.11,1013.25,10.00,-0.08,-0.17,0.97,-1.46,0.31,-0.55,38.95,-4.17,-165.56
147422,29.00,-9.05,4.19,-6.29,1013.25,10.00,-0.07,-0.15,0.97,-4.33,-0.61,-1.53,39.73,-4.38,-166.38
147473,29.00,-9.83,4.86,-7.34,1013.25,10.00,-0.08,-0.16,0.94,-3.72,-0.06,-1.46,38.42,-4.98,-165.88
147524,29.00,-8.70,3.75,-7.07,1013.25,10.00,-0.06,-0.15,0.99,0.24,1.83,-1.40,38.89,-4.81,-164.37
147574,29.00,-9.70,4.99,-7.63,1013.25,10.00,-0.07,-0.13,0.78,-0.06,-3.54,-1.59,38.43,-5.16,-165.58
147625,29.00,-9.12,5.00,-7.18,1013.25,10.00,-0.08,-0.14,0.88,2.93,1.10,0.49,38.96,-4.90,-164.55
147675,29.00,-9.36,4.41,-7.25,1013.25,10.00,-0.08,-0.16,0.98,4.64,3.97,0.85,38.76,-4.93,-165.71
147725,29.00,-9.94,4.41,-6.26,1013.25,10.00,-0.07,-0.16,0.93,3.30,1.95,0.85,39.12,-4.26,-163.28
147775,29.00,-10.00,4.47,-6.09,1013.25,10.00,-0.08,-0.17,0.95,0.00,-1.46,0.98,39.32,-4.19,-166.26
147826,29.00,-9.44,3.96,-6.83,1013.25,10.00,-0.07,-0.16,0.94,3.48,1.65,1.16,38.99,-4.70,-164.31
147876,29.00,-9.90,4.26,-6.04,1013.25,10.00,-0.07,-0.17,0.96,2.99,2.56,2.14,39.66,-4.17,-165.16
147926,29.00,-9.98,4.15,-5.97,1013.25,10.00,-0.07,-0.17,0.96,-0.43,0.55,2.69,39.54,-4.14,-165.50
147977,29.00,-9.95,5.19,-6.40,1013.25,10.00,-0.09,-0.16,0.93,0.79,2.69,2.08,39.10,-4.41,-165.25
148027,29.00,-10.00,4.83,-5.87,1013.25,10.00,-0.08,-0.17,0.94,1.65,2.93,2.44,39.54,-4.05,-165.64
148078,29.00,-9.94,3.56,-5.58,1013.25,10.00,-0.06,-0.17,0.95,3.78,7.02,1.77,39.40,-3.85,-165.36
148128,29.00,-10.20,2.87,-6.13,1013.25,10.00,-0.05,-0.18,0.98,3.05,2.87,1.71,39.31,-4.25,-165.60
148179,29.00,-10.92,4.14,-5.29,1013.25,10.00,-0.07,-0.19,0.97,-1.22,-0.37,1.83,39.32,-3.61,-163.76
148230,29.00,-11.01,4.22,-5.51,1013.25,10.00,-0.07,-0.18,0.92,-0.73,0.61,2.87,39.44,-3.82,-166.39
148280,29.00,-10.16,2.64,-5.41,1013.25,10.00,-0.04,-0.17,0.96,2.38,5.31,2.99,39.01,-3.70,-165.06
148330,29.00,-10.03,2.45,-6.07,1013.25,10.00,-0.04,-0.17,0.98,4.39,6.84,3.85,39.40,-4.22,-166.61
148381,29.00,-10.79,2.82,-4.91,1013.25,10.00,-0.05,-0.19,0.97,1.46,2.75,4.58,39.31,-3.34,-166.38
148431,29.00,-11.20,3.28,-5.78,1013.25,10.00,-0.06,-0.19,0.96,-1.53,1.16,4.33,39.06,-3.99,-165.36
148481,29.00,-10.96,3.51,-5.46,1013.25,10.00,-0.06,-0.19,0.98,-2.44,1.71,2.93,39.27,-3.75,-166.55
148532,29.00,-11.67,3.28,-5.56,1013.25,10.00,-0.05,-0.19,0.93,-1.59,3.42,3.17,39.04,-3.81,-165.15
148582,29.00,-11.05,3.84,-6.61,1013.25,10.00,-0.06,-0.18,0.94,1.83,8.73,2.44,38.95,-4.55,-166.98
148633,29.00,-9.90,2.23,-5.77,1013.25,10.00,-0.04,-0.17,0.95,2.38,8.36,-0.85,38.70,-3.88,-166.10
148683,29.00,-10.24,2.05,-5.33,1013.25,10.00,-0.03,-0.18,0.97,2.81,9.83,-2.99,39.99,-3.71,-166.14
148734,29.00,-10.52,2.10,-5.61,1013.25,10.00,-0.04,-0.19,1.00,-1.77,1.10,-8.91,39.48,-3.87,-167.93
148784,29.00,-13.16,3.82,-5.51,1013.25,10.00,-0.06,-0.22,0.92,-5.13,1.40,-18.31,39.90,-3.81,-166.16
148835,29.00,-9.42,1.18,-6.53,1013.25,10.00,-0.02,-0.16,0.97,-2.62,6.65,-8.85,39.82,-4.58,-167.46
148885,29.00,-9.65,1.86,-5.67,1013.25,10.00,-0.03,-0.16,0.95,-4.46,-3.11,1.34,39.89,-3.93,-165.00
148936,29.00,-9.39,1.03,-5.54,1013.25,10.00,-0.02,-0.15,0.93,-0.61,-0.92,4.64,40.36,-3.92,-166.09
148986,29.00,-9.47,1.80,-5.77,1013.25,10.00,-0.03,-0.16,0.96,4.58,4.46,4.64,40.55,-4.11,-165.62
149036,29.00,-10.64,2.37,-5.41,1013.25,10.00,-0.04,-0.19,0.98,2.26,-0.18,2.08,40.73,-3.85,-166.63
149087,29.00,-9.78,0.97,-6.19,1013.25,10.00,-0.02,-0.17,0.98,-4.21,-3.78,-2.50,40.19,-4.38,-165.93
149138,29.00,-10.79,1.11,-6.85,1013.25,10.00,-0.02,-0.19,0.99,-1.28,-0.55,-4.64,40.28,-4.86,-166.22
149188,29.00,-10.24,2.20,-6.85,1013.25,10.00,-0.04,-0.17,0.95,-2.87,-3.23,-1.04,40.26,-4.83,-165.33
149239,29.00,-9.50,2.29,-6.41,1013.25,10.00,-0.04,-0.16,0.93,-0.06,0.73,0.00,40.04,-4.48,-163.22
149290,29.00,-10.24,2.55,-6.79,1013.25,10.00,-0.04,-0.18,0.97,2.44,-1.83,0.18,39.65,-4.74,-164.61
149340,29.00,-10.58,2.95,-6.54,1013.25,10.00,-0.05,-0.18,0.95,-0.85,-3.17,0.06,39.39,-4.50,-164.01
149391,29.00,-10.36,3.01,-6.59,1013.25,10.00,-0.05,-0.18,0.97,-0.43,0.06,0.55,39.42,-4.55,-165.19
149441,29.00,-9.80,3.28,-7.01,1013.25,10.00,-0.06,-0.17,0.97,-2.01,1.16,0.06,39.86,-4.92,-164.79
149492,29.00,-10.68,3.60,-6.72,1013.25,10.00,-0.06,-0.18,0.94,-1.34,-0.98,-0.73,39.89,-4.69,-166.93
