Timestamp,Temperature,Roll,Pitch,Yaw,Pressure,Altitude,Ax,Ay,Az,Gx,Gy,Gz,Mx,My,Mz
0,24.96,-1.88,-0.48,0.91,101305.57,0.0,0.07,-0.09,9.45,0.04,-0.03,0.03,26.34,-3.56,45.25
1,24.6,-2.8,-0.92,-2.81,101343.46,1.01,-0.11,0.05,9.95,0.06,0.04,-0.13,26.16,-3.52,40.89
2,25.94,0.92,-4.05,3.71,101338.37,2.02,-0.21,0.31,9.84,0.14,-0.12,-0.02,36.1,-11.89,39.75
3,24.27,0.99,4.13,1.29,101328.75,3.03,0.14,0.04,9.75,0.03,0.24,0.08,27.94,-19.32,42.89
4,26.34,0.88,-3.93,-0.02,101296.79,4.04,-0.12,0.42,9.83,-0.15,-0.06,0.11,32.44,-14.66,41.18
5,25.13,-1.75,0.21,-0.05,101300.14,5.05,-0.01,-0.14,9.72,-0.06,0.04,-0.08,27.66,-10.35,43.31
6,24.83,2.44,-2.06,1.63,101343.36,6.06,0.38,0.02,9.68,0.03,-0.23,-0.09,29.38,-9.64,44.25
7,24.67,1.01,-2.61,-0.15,101337.18,7.07,-0.02,-0.08,9.62,0.05,0.01,-0.12,24.35,-9.38,44.79
8,24.65,-0.49,-3.1,0.5,101302.49,8.08,-0.33,-0.25,9.55,-0.1,0.08,-0.07,30.97,-18.68,38.47
9,26.26,-3.0,0.13,2.19,101337.26,9.09,0.06,0.03,9.84,-0.07,0.1,-0.18,21.72,-10.1,42.23
10,25.21,0.51,-0.05,0.66,101353.97,10.1,0.15,0.45,9.98,-0.09,0.09,0.05,34.34,0.05,32.88
11,26.45,-0.14,-0.56,-0.0,101310.97,11.11,0.26,0.19,9.71,0.14,-0.12,0.01,37.13,-8.92,36.31
12,24.99,1.34,-0.98,-2.46,101340.13,12.12,0.01,0.13,9.69,0.08,-0.1,0.21,23.04,-10.1,33.06
13,24.69,-2.57,-4.55,-1.76,101308.73,13.13,-0.12,-0.03,9.98,0.15,-0.05,0.02,31.92,-9.93,33.53
14,24.0,-1.22,1.69,1.57,101343.09,14.14,0.1,0.29,10.37,-0.0,0.02,0.26,28.44,-17.19,46.18
15,24.59,-0.42,1.39,-2.49,101340.99,15.15,0.15,0.02,9.74,0.06,0.0,0.11,23.96,-17.42,31.81
16,25.16,0.47,0.79,2.3,101300.45,16.16,0.06,-0.27,9.49,-0.1,0.08,0.12,27.57,-13.2,40.07
17,25.28,-2.91,-1.34,0.21,101274.04,17.17,-0.04,-0.15,9.93,0.22,-0.08,0.06,35.67,-12.45,39.58
18,25.0,3.02,-0.69,-0.19,101278.99,18.18,-0.07,0.34,9.6,-0.08,0.02,0.07,24.26,-7.57,42.4
19,24.24,-5.64,1.82,2.83,101325.27,19.19,0.23,-0.25,10.13,-0.06,0.06,-0.12,28.56,-6.68,32.35
20,25.06,1.04,3.52,-0.66,101309.67,20.2,0.09,-0.5,9.88,0.14,0.04,-0.09,27.89,-1.75,40.29
21,25.25,-0.38,-1.67,0.34,101303.64,21.21,-0.06,0.17,9.6,-0.0,-0.07,0.18,39.41,-11.87,40.25
22,25.63,1.22,1.58,-1.5,101292.47,22.22,-0.22,0.02,9.65,0.03,-0.03,-0.03,30.38,-8.33,41.28
23,25.19,1.4,-3.18,2.48,101299.11,23.23,0.07,0.02,9.79,-0.04,-0.1,-0.06,31.67,-10.92,34.15
24,25.33,1.67,0.26,3.18,101328.9,24.24,-0.17,0.07,9.82,0.06,0.0,0.14,28.11,-4.87,34.81
25,25.79,0.25,-4.64,1.4,101317.46,25.25,0.06,0.13,9.71,0.02,0.09,0.05,29.5,-8.05,33.46
26,24.82,-0.07,-0.61,-2.47,101327.88,26.26,0.01,0.15,9.81,0.01,0.07,0.08,33.99,-11.69,34.62
27,25.33,1.9,2.76,-0.72,101310.36,27.27,0.29,0.11,9.76,0.13,0.25,0.13,30.8,-13.01,38.54
28,24.75,-0.42,1.2,-0.99,101297.8,28.28,-0.01,-0.42,9.82,0.08,-0.11,0.03,24.93,-14.78,33.96
29,25.92,-0.18,3.57,-3.43,101329.89,29.29,-0.08,-0.24,9.9,-0.18,0.04,-0.01,21.51,-13.37,36.43
30,25.41,0.92,3.11,0.65,101292.98,30.3,0.3,-0.05,9.94,0.07,-0.04,0.15,34.24,-3.93,44.46
31,24.69,1.25,1.36,1.41,101303.47,31.31,-0.13,0.31,9.86,-0.26,-0.17,-0.07,37.73,-9.14,34.95
32,25.27,1.99,0.39,-1.91,101309.69,32.32,0.17,-0.22,9.72,-0.18,-0.04,0.01,19.74,-12.65,36.72
33,23.83,-1.76,-1.38,-1.51,101313.89,33.33,-0.22,0.15,9.45,-0.2,-0.05,-0.0,30.96,-8.59,38.99
34,24.42,0.35,-1.49,-2.33,101302.77,34.34,0.03,-0.41,9.84,-0.01,-0.09,0.05,32.98,-8.51,40.93
35,24.33,-2.07,-1.62,3.53,101273.63,35.35,0.27,-0.15,9.67,-0.06,-0.1,-0.1,35.16,-13.24,38.61
36,25.89,2.8,0.95,-2.22,101339.76,36.36,-0.26,-0.05,9.72,-0.04,-0.15,0.04,22.33,-12.21,37.71
37,24.83,0.98,-0.28,4.24,101290.36,37.37,-0.02,-0.19,9.77,-0.21,-0.01,0.02,24.93,-12.95,48.71
38,25.23,-0.03,1.32,-2.05,101314.09,38.38,-0.12,0.16,9.97,-0.02,-0.02,-0.08,25.39,-11.84,39.02
39,24.16,1.45,-3.63,-0.2,101286.82,39.39,-0.38,-0.22,9.86,-0.02,-0.14,0.1,27.78,-2.15,44.49
40,25.38,-2.91,2.04,-2.08,101282.92,40.4,0.44,-0.35,9.94,-0.03,-0.01,-0.2,36.39,-10.84,40.79
41,25.06,-1.47,-1.47,1.45,101327.38,41.41,0.16,0.23,9.38,0.03,-0.01,0.05,29.67,-11.71,34.37
42,25.82,-3.42,-2.69,-1.09,101270.71,42.42,-0.43,0.21,9.85,-0.04,0.17,-0.11,21.37,-7.7,38.76
43,26.12,-2.52,-1.87,1.36,101286.84,43.43,0.21,-0.15,9.81,-0.06,0.11,-0.03,31.96,-7.64,41.44
44,25.16,0.09,3.93,-2.73,101308.38,44.44,-0.12,-0.0,10.17,-0.06,-0.01,-0.06,38.19,-11.8,31.18
45,25.83,-1.73,0.51,-0.84,101280.13,45.45,0.14,-0.36,9.85,-0.04,0.08,-0.08,29.34,-4.35,45.06
46,24.2,-0.35,-1.24,-1.33,101310.53,46.46,0.0,-0.1,10.0,-0.09,0.03,-0.05,37.01,-12.83,39.18
47,24.95,-2.77,2.89,0.28,101336.6,47.47,0.02,-0.07,9.29,0.16,-0.14,-0.06,31.37,-7.06,35.09
48,23.95,-1.08,-1.77,1.44,101300.83,48.48,-0.15,0.06,10.03,0.12,-0.04,-0.1,26.9,-11.91,27.14
49,25.42,0.91,-0.41,-0.02,101240.08,49.49,0.1,-0.39,9.79,0.08,-0.21,0.09,30.02,-5.79,40.71
50,25.61,0.36,0.17,-1.21,101305.64,50.51,-0.15,-0.0,10.26,-0.07,-0.11,-0.14,23.32,-14.09,39.61
51,24.68,3.54,-0.0,3.64,101290.51,51.52,0.11,-0.21,9.99,0.0,0.08,0.09,24.63,-9.5,43.84
52,25.11,-0.29,-4.15,-1.61,101306.32,52.53,-0.17,0.05,9.45,-0.06,-0.13,-0.06,25.95,-15.58,44.15
53,24.76,-1.38,5.29,3.06,101276.39,53.54,-0.22,-0.17,10.02,-0.08,-0.02,0.02,36.73,-13.74,36.57
54,25.04,2.37,0.88,0.62,101304.74,54.55,0.08,0.0,9.74,-0.06,0.0,-0.02,30.78,-14.06,41.51
55,26.34,2.91,2.54,-1.84,101300.46,55.56,0.13,-0.09,9.7,-0.3,0.0,-0.01,32.17,-12.03,36.13
56,25.16,1.23,-1.85,2.29,101287.16,56.57,-0.28,-0.05,9.73,-0.06,0.04,0.07,25.82,-10.12,33.39
57,24.81,0.52,1.21,-0.52,101290.6,57.58,-0.36,-0.02,9.56,-0.21,0.12,-0.0,33.7,-4.47,32.2
58,24.3,2.98,-2.11,-1.93,101267.62,58.59,-0.17,-0.14,9.59,-0.1,0.09,-0.09,31.89,-0.33,36.51
59,25.79,-0.44,0.41,-0.23,101272.37,59.6,-0.17,0.23,9.75,0.06,0.11,-0.06,31.48,-8.84,34.44
60,25.93,0.0,1.99,-2.63,101318.07,60.61,-0.17,0.24,9.73,-0.03,0.08,0.05,28.98,-6.11,41.67
61,25.3,-1.06,-0.51,-1.44,101311.89,61.62,-0.08,0.12,9.69,0.23,-0.15,0.14,35.41,-12.4,45.1
62,25.12,-0.4,3.29,1.88,101317.93,62.63,0.07,0.21,10.05,-0.2,0.01,-0.06,28.07,-13.29,34.11
63,24.32,0.53,3.72,-1.38,101321.87,63.64,-0.2,-0.29,9.95,0.01,-0.05,0.01,29.83,-2.74,39.97
