Timestamp,Temperature,Roll,Pitch,Yaw,Pressure,Altitude,ax,ay,az,gx,gy,gz,mx,my,mz
448084,29.00,-1.01,1.31,-20.80,1013.25,10.00,-0.02,-0.02,0.99,0.92,1.83,0.85,74.69,-28.30,-40.77
448135,29.00,-1.13,1.53,-21.44,1013.25,10.00,-0.03,-0.02,0.96,0.73,1.65,0.85,73.83,-29.04,-38.77
448185,29.00,-1.21,1.77,-20.80,1013.25,10.00,-0.03,-0.02,0.96,0.85,1.40,0.79,74.46,-28.23,-38.95
448236,29.00,-1.03,1.40,-20.73,1013.25,10.00,-0.02,-0.02,0.97,0.85,1.53,0.85,74.52,-28.21,-41.14
448287,29.00,-1.01,1.46,-20.30,1013.25,10.00,-0.02,-0.02,0.97,0.85,1.46,0.79,75.24,-27.81,-40.76
448338,29.00,-1.16,1.60,-19.74,1013.25,10.00,-0.03,-0.02,0.97,1.04,1.59,0.67,75.38,-27.00,-40.44
448387,29.00,-1.07,1.56,-20.37,1013.25,10.00,-0.03,-0.02,0.97,0.92,1.46,0.67,75.38,-28.04,-41.60
448438,29.00,-1.01,1.57,-20.44,1013.25,10.00,-0.03,-0.02,0.97,0.79,1.53,0.92,74.90,-27.92,-41.38
448487,29.00,-1.14,1.47,-20.40,1013.25,10.00,-0.02,-0.02,0.97,1.04,1.34,0.85,74.95,-27.88,-41.11
448538,29.00,-1.11,1.55,-20.17,1013.25,10.00,-0.03,-0.02,0.97,0.73,1.59,0.85,75.01,-27.54,-40.78
448589,29.00,-0.97,1.61,-20.80,1013.25,10.00,-0.03,-0.02,0.97,1.04,1.40,0.79,74.32,-28.28,-40.56
448640,29.00,-1.09,1.58,-20.49,1013.25,10.00,-0.03,-0.02,0.97,0.98,0.98,0.67,74.44,-27.80,-40.64
448689,29.00,-1.13,1.46,-20.53,1013.25,10.00,-0.02,-0.02,0.97,0.79,1.46,0.79,74.55,-27.93,-39.62
448740,29.00,-1.06,1.56,-20.69,1013.25,10.00,-0.03,-0.02,0.97,0.73,1.40,0.92,74.76,-28.25,-41.03
448790,29.00,-1.09,1.53,-20.79,1013.25,10.00,-0.03,-0.02,0.97,1.16,1.53,0.73,74.43,-28.27,-38.56
448841,29.00,-1.11,1.51,-21.34,1013.25,10.00,-0.03,-0.02,0.97,0.98,1.46,0.85,73.86,-28.91,-39.00
448892,29.00,-1.05,1.61,-20.43,1013.25,10.00,-0.03,-0.02,0.97,0.92,1.46,0.85,75.22,-27.95,-40.75
448942,29.00,-1.10,1.54,-20.60,1013.25,10.00,-0.03,-0.02,0.97,0.92,1.22,0.67,74.82,-28.14,-40.48
448993,29.00,-1.12,1.51,-20.36,1013.25,10.00,-0.03,-0.02,0.97,0.73,1.53,0.85,75.24,-27.91,-40.76
449044,29.00,-1.09,1.57,-20.81,1013.25,10.00,-0.03,-0.02,0.97,0.73,1.53,0.79,74.49,-28.34,-39.76
449095,29.00,-1.12,1.57,-20.76,1013.25,10.00,-0.03,-0.02,0.97,1.04,1.65,0.98,74.35,-28.19,-38.99
449144,29.00,-1.14,1.55,-20.32,1013.25,10.00,-0.03,-0.02,0.97,0.79,1.46,0.92,75.18,-27.81,-42.61
449195,29.00,-1.07,1.56,-20.52,1013.25,10.00,-0.03,-0.02,0.97,0.73,1.46,0.92,74.54,-27.92,-40.99
449245,29.00,-1.11,1.56,-21.01,1013.25,10.00,-0.03,-0.02,0.97,0.92,1.65,0.85,74.41,-28.63,-39.11
449296,29.00,-1.12,1.56,-21.34,1013.25,10.00,-0.03,-0.02,0.97,0.92,1.53,0.85,74.55,-29.15,-39.10
449347,29.00,-1.10,1.52,-20.42,1013.25,10.00,-0.03,-0.02,0.97,0.79,1.46,0.85,75.09,-27.89,-41.13
449398,29.00,-1.05,1.56,-20.65,1013.25,10.00,-0.03,-0.02,0.94,0.98,1.59,0.67,74.38,-28.05,-40.56
449449,29.00,-1.11,1.59,-20.59,1013.25,10.00,-0.03,-0.02,0.97,0.92,1.40,0.79,74.55,-28.00,-41.10
449500,29.00,-1.11,1.48,-20.30,1013.25,10.00,-0.02,-0.02,0.97,0.85,1.65,0.79,75.10,-27.76,-41.25
449551,29.00,-1.03,1.45,-20.18,1013.25,10.00,-0.02,-0.02,0.97,0.92,1.71,0.98,75.06,-27.59,-41.81
449601,29.00,-1.07,1.67,-20.69,1013.25,10.00,-0.03,-0.02,0.97,0.85,1.65,0.85,74.82,-28.30,-40.08
449651,29.00,-1.11,1.49,-21.22,1013.25,10.00,-0.03,-0.02,0.97,0.73,1.40,0.79,74.11,-28.82,-39.86
449702,29.00,-1.09,1.51,-20.85,1013.25,10.00,-0.03,-0.02,0.97,0.92,1.40,0.85,74.83,-28.47,-39.92
449751,29.00,-1.03,1.60,-20.45,1013.25,10.00,-0.03,-0.02,0.97,0.98,1.04,0.73,75.52,-28.14,-39.49
449802,29.00,-1.11,1.48,-20.62,1013.25,10.00,-0.02,-0.02,0.97,0.98,1.53,0.92,74.99,-28.23,-40.89
449853,29.00,-1.14,1.48,-21.05,1013.25,10.00,-0.03,-0.02,0.97,0.92,1.46,0.85,74.49,-28.71,-40.15
449904,29.00,-1.08,1.57,-20.08,1013.25,10.00,-0.03,-0.02,0.97,0.79,1.46,0.73,75.20,-27.42,-41.89
449955,29.00,-1.11,1.51,-20.54,1013.25,10.00,-0.03,-0.02,0.97,0.73,1.46,0.79,74.57,-27.98,-40.69
450004,29.00,-1.16,1.52,-20.86,1013.25,10.00,-0.03,-0.02,0.97,0.92,0.79,0.49,74.34,-28.36,-37.38
450055,29.00,-1.11,1.61,-20.72,1013.25,10.00,-0.03,-0.02,0.97,1.04,1.34,0.73,74.78,-28.28,-40.47
450106,29.00,-1.06,1.58,-21.15,1013.25,10.00,-0.03,-0.02,0.97,0.92,1.40,0.85,73.69,-28.54,-39.32
450157,29.00,-1.09,1.51,-20.79,1013.25,10.00,-0.03,-0.02,0.97,0.73,1.53,0.92,75.15,-28.50,-41.94
450208,29.00,-1.09,1.59,-20.83,1013.25,10.00,-0.03,-0.02,0.97,1.04,1.59,0.73,74.15,-28.22,-41.39
450259,29.00,-1.09,1.54,-20.83,1013.25,10.00,-0.03,-0.02,0.97,0.85,1.40,0.67,74.63,-28.39,-40.22
450309,29.00,-1.13,1.52,-20.36,1013.25,10.00,-0.03,-0.02,0.97,0.85,1.53,0.85,75.22,-27.88,-41.69
450360,29.00,-1.08,1.59,-20.22,1013.25,10.00,-0.03,-0.02,0.97,0.73,1.53,0.98,75.20,-27.69,-41.54
450411,29.00,-1.16,1.61,-20.08,1013.25,10.00,-0.03,-0.02,0.97,0.73,1.53,1.04,75.54,-27.60,-41.85
450462,29.00,-1.05,1.70,-20.49,1013.25,10.00,-0.03,-0.02,0.96,0.98,1.59,0.92,75.40,-28.21,-41.91
450513,29.00,-0.98,1.47,-20.67,1013.25,10.00,-0.02,-0.02,0.97,0.85,1.53,0.67,74.60,-28.16,-41.47
450563,29.00,-1.10,1.59,-20.87,1013.25,10.00,-0.03,-0.02,0.97,1.22,1.10,0.73,74.50,-28.43,-41.42
450614,29.00,-1.17,1.60,-20.52,1013.25,10.00,-0.03,-0.02,0.97,0.79,1.46,0.73,74.19,-27.75,-40.80
450665,29.00,-1.09,1.39,-20.59,1013.25,10.00,-0.02,-0.02,0.97,0.98,1.34,0.98,74.52,-28.00,-40.86
450715,29.00,-1.14,1.63,-20.33,1013.25,10.00,-0.03,-0.02,0.97,0.92,1.59,0.85,75.12,-27.82,-39.37
450766,29.00,-0.88,1.61,-20.77,1013.25,10.00,-0.03,-0.01,0.98,0.98,1.53,0.85,74.17,-28.16,-39.47
450817,29.00,-0.63,1.74,-20.91,1013.25,10.00,-0.03,-0.01,0.96,0.92,1.95,0.73,73.99,-28.28,-38.93
450917,29.00,-1.11,1.53,-21.17,1013.25,10.00,-0.03,-0.02,0.97,0.79,1.28,0.73,73.61,-28.54,-39.01
451018,29.00,-1.13,1.40,-20.42,1013.25,10.00,-0.02,-0.02,0.97,0.79,1.77,0.85,74.73,-27.77,-40.36
451069,29.00,-1.24,1.71,-20.90,1013.25,10.00,-0.03,-0.02,0.96,0.61,1.34,0.73,73.83,-28.23,-39.69
451120,29.00,-1.04,1.71,-21.18,1013.25,10.00,-0.03,-0.02,0.96,0.73,1.65,0.85,73.99,-28.70,-40.00
451171,29.00,-1.04,1.25,-20.54,1013.25,10.00,-0.02,-0.02,0.98,0.98,1.71,0.98,74.68,-27.94,-41.09
451222,29.00,-1.34,1.41,-20.54,1013.25,10.00,-0.02,-0.02,0.97,0.98,1.53,0.85,74.90,-28.06,-39.48
451273,29.00,-1.00,1.60,-20.38,1013.25,10.00,-0.03,-0.02,0.96,0.85,1.22,0.73,74.05,-27.50,-41.42
451323,29.00,-0.94,1.39,-21.01,1013.25,10.00,-0.02,-0.02,0.97,0.85,1.34,0.67,74.10,-28.52,-39.83
451374,29.00,-1.08,1.30,-21.39,1013.25,10.00,-0.02,-0.02,0.98,0.85,1.28,0.73,73.46,-28.81,-39.81
451425,29.00,-1.12,1.45,-20.90,1013.25,10.00,-0.02,-0.02,0.97,0.79,1.40,0.79,74.76,-28.50,-39.73
451475,29.00,-1.03,1.59,-20.86,1013.25,10.00,-0.03,-0.02,0.97,0.98,1.71,0.92,74.83,-28.52,-39.06
451526,29.00,-1.09,1.61,-21.00,1013.25,10.00,-0.03,-0.02,0.96,1.10,1.65,0.98,74.01,-28.43,-38.65
451577,29.00,-1.09,1.52,-20.93,1013.25,10.00,-0.03,-0.02,0.97,0.79,1.34,0.73,74.99,-28.67,-39.37
451628,29.00,-1.12,1.51,-20.73,1013.25,10.00,-0.03,-0.02,0.97,1.04,1.59,0.85,75.23,-28.47,-41.02
451678,29.00,-1.10,1.52,-21.16,1013.25,10.00,-0.03,-0.02,0.97,1.28,1.40,0.67,73.82,-28.60,-39.03
451729,29.00,-1.12,1.56,-20.73,1013.25,10.00,-0.03,-0.02,0.97,0.92,1.65,0.79,74.77,-28.27,-39.44
451780,29.00,-1.06,1.52,-20.61,1013.25,10.00,-0.03,-0.02,0.97,0.67,1.71,0.85,74.57,-28.04,-41.35
451830,29.00,-1.14,1.43,-21.00,1013.25,10.00,-0.02,-0.02,0.97,0.85,1.40,0.92,74.34,-28.56,-40.37
451881,29.00,-1.21,1.48,-20.75,1013.25,10.00,-0.03,-0.02,0.97,0.92,1.65,0.85,75.00,-28.41,-40.56
451932,29.00,-1.03,1.48,-20.95,1013.25,10.00,-0.03,-0.02,0.97,1.04,1.34,0.73,74.61,-28.59,-38.04
451983,29.00,-1.02,1.60,-20.98,1013.25,10.00,-0.03,-0.02,0.96,1.04,1.77,0.92,74.24,-28.48,-38.13
452034,29.00,-1.18,1.61,-21.16,1013.25,10.00,-0.03,-0.02,0.96,0.98,1.59,0.73,73.97,-28.65,-39.95
452083,29.00,-1.08,1.51,-21.54,1013.25,10.00,-0.03,-0.02,0.97,1.16,1.46,0.79,73.97,-29.24,-39.21
452134,29.00,-1.08,1.47,-20.53,1013.25,10.00,-0.02,-0.02,0.97,1.16,1.53,0.85,75.07,-28.04,-41.92
452184,29.00,-1.13,1.61,-21.16,1013.25,10.00,-0.03,-0.02,0.96,0.67,1.71,0.85,73.83,-28.63,-38.17
452235,29.00,-1.13,1.57,-21.31,1013.25,10.00,-0.03,-0.02,0.97,0.67,1.59,0.92,74.38,-29.03,-39.43
452286,29.00,-1.04,1.50,-20.61,1013.25,10.00,-0.03,-0.02,0.97,0.85,1.28,0.79,75.37,-28.30,-40.58
452336,29.00,-1.09,1.51,-20.57,1013.25,10.00,-0.03,-0.02,0.97,0.73,1.65,0.61,74.82,-28.08,-40.34
452387,29.00,-1.09,1.54,-20.62,1013.25,10.00,-0.03,-0.02,0.97,0.92,1.77,0.85,75.17,-28.30,-40.93
452438,29.00,-1.08,1.65,-20.40,1013.25,10.00,-0.03,-0.02,0.97,0.98,1.59,0.92,75.32,-28.00,-42.24
452488,29.00,-1.09,1.55,-20.32,1013.25,10.00,-0.03,-0.02,0.97,0.92,1.59,0.92,75.67,-28.02,-41.22
452539,29.00,-1.07,1.52,-20.56,1013.25,10.00,-0.03,-0.02,0.97,0.73,1.53,0.85,75.26,-28.25,-41.24
452590,29.00,-1.07,1.51,-20.99,1013.25,10.00,-0.03,-0.02,0.97,0.92,1.53,1.10,74.69,-28.70,-39.77
452641,29.00,-1.07,1.53,-21.15,1013.25,10.00,-0.03,-0.02,0.97,0.92,1.40,0.92,73.84,-28.58,-41.55
452691,29.00,-1.12,1.49,-20.71,1013.25,10.00,-0.03,-0.02,0.97,0.98,1.46,0.67,75.38,-28.47,-41.26
452742,29.00,-1.04,1.53,-21.19,1013.25,10.00,-0.03,-0.02,0.97,0.79,1.46,0.79,74.22,-28.82,-39.86
452793,29.00,-1.02,1.56,-20.83,1013.25,10.00,-0.03,-0.02,0.97,0.85,1.59,0.98,74.30,-28.25,-39.27
452843,29.00,-1.09,1.51,-20.95,1013.25,10.00,-0.03,-0.02,0.97,0.85,1.28,0.79,75.12,-28.77,-39.34
452894,29.00,-1.09,1.55,-21.03,1013.25,10.00,-0.03,-0.02,0.97,0.85,1.71,0.79,74.50,-28.65,-39.23
452945,29.00,-1.07,1.58,-20.89,1013.25,10.00,-0.03,-0.02,0.97,0.79,1.59,0.98,74.82,-28.55,-41.10
452996,29.00,-1.10,1.54,-20.61,1013.25,10.00,-0.03,-0.02,0.97,0.92,1.40,0.85,74.99,-28.19,-41.03
453047,29.00,-1.12,1.60,-20.80,1013.25,10.00,-0.03,-0.02,0.97,0.98,1.40,0.79,75.01,-28.52,-40.86
453096,29.00,-1.07,1.54,-21.01,1013.25,10.00,-0.03,-0.02,0.97,1.10,0.98,0.67,75.20,-28.91,-39.43
453147,29.00,-1.01,1.54,-21.15,1013.25,10.00,-0.03,-0.02,0.97,0.92,1.71,0.98,74.02,-28.65,-39.44
453197,29.00,-1.13,1.61,-21.08,1013.25,10.00,-0.03,-0.02,0.97,1.04,1.28,0.73,74.60,-28.75,-39.39
453248,29.00,-1.08,1.52,-20.73,1013.25,10.00,-0.03,-0.02,0.97,1.04,1.65,0.98,74.87,-28.31,-39.73
453299,29.00,-1.08,1.59,-20.48,1013.25,10.00,-0.03,-0.02,0.97,0.79,1.59,0.92,75.32,-28.11,-41.39
453349,29.00,-1.07,1.53,-21.03,1013.25,10.00,-0.03,-0.02,0.97,0.98,1.59,0.73,74.32,-28.61,-39.05
453400,29.00,-1.09,1.48,-20.60,1013.25,10.00,-0.02,-0.02,0.97,0.98,1.40,0.85,74.74,-28.06,-41.67
453451,29.00,-1.06,1.60,-20.47,1013.25,10.00,-0.03,-0.02,0.97,1.04,1.65,0.85,75.11,-28.03,-41.81
453502,29.00,-1.06,1.51,-20.80,1013.25,10.00,-0.03,-0.02,0.97,0.98,1.28,0.85,74.89,-28.48,-41.16
453552,29.00,-1.09,1.52,-20.33,1013.25,10.00,-0.03,-0.02,0.97,0.92,1.59,1.04,75.78,-28.05,-41.92
453603,29.00,-1.11,1.56,-21.16,1013.25,10.00,-0.03,-0.02,0.97,0.98,1.04,0.67,74.21,-28.78,-38.78
453654,29.00,-1.10,1.52,-20.64,1013.25,10.00,-0.03,-0.02,0.97,0.85,1.34,0.85,74.80,-28.14,-39.69
453705,29.00,-1.07,1.53,-20.71,1013.25,10.00,-0.03,-0.02,0.97,0.85,1.46,0.73,74.43,-28.15,-39.59
453756,29.00,-1.09,1.55,-20.86,1013.25,10.00,-0.03,-0.02,0.97,0.92,1.46,0.85,74.87,-28.54,-38.66
453806,29.00,-1.14,1.58,-20.44,1013.25,10.00,-0.03,-0.02,0.97,0.85,1.40,0.79,74.65,-27.80,-41.32
453857,29.00,-1.14,1.55,-20.68,1013.25,10.00,-0.03,-0.02,0.97,0.79,1.71,0.73,74.56,-28.16,-40.28
453908,29.00,-1.06,1.46,-20.73,1013.25,10.00,-0.02,-0.02,0.97,0.98,1.53,0.73,74.71,-28.28,-39.51
453959,29.00,-1.14,1.52,-20.72,1013.25,10.00,-0.03,-0.02,0.97,0.79,1.59,0.79,74.72,-28.26,-39.51
454010,29.00,-1.10,1.51,-20.37,1013.25,10.00,-0.03,-0.02,0.97,0.79,1.59,0.79,75.37,-27.97,-41.86
454061,29.00,-1.08,1.55,-20.16,1013.25,10.00,-0.03,-0.02,0.97,0.85,1.65,0.92,74.96,-27.51,-42.05
454110,29.00,-1.12,1.53,-20.31,1013.25,10.00,-0.03,-0.02,0.97,0.85,1.59,0.92,75.44,-27.93,-42.46
454161,29.00,-1.08,1.54,-20.20,1013.25,10.00,-0.03,-0.02,0.97,0.92,1.65,0.92,74.88,-27.54,-41.03
454211,29.00,-1.11,1.52,-20.83,1013.25,10.00,-0.03,-0.02,0.97,0.79,1.65,0.67,74.41,-28.36,-39.72
454262,29.00,-1.09,1.55,-20.94,1013.25,10.00,-0.03,-0.02,0.97,0.85,1.71,0.85,74.65,-28.58,-39.45
454312,29.00,-1.16,1.52,-21.41,1013.25,10.00,-0.03,-0.02,0.97,1.10,0.85,0.61,73.77,-28.97,-40.09
454363,29.00,-1.11,1.53,-21.05,1013.25,10.00,-0.03,-0.02,0.97,1.10,1.59,0.85,74.87,-28.78,-39.87
454414,29.00,-1.06,1.49,-21.37,1013.25,10.00,-0.03,-0.02,0.97,0.67,1.71,0.85,74.84,-29.31,-39.51
454464,29.00,-1.21,1.58,-20.48,1013.25,10.00,-0.03,-0.02,0.97,0.98,1.59,0.98,74.98,-27.93,-39.92
454515,29.00,-1.11,1.51,-21.14,1013.25,10.00,-0.03,-0.02,0.97,0.79,1.40,0.98,74.61,-28.91,-40.37
454566,29.00,-1.11,1.46,-21.38,1013.25,10.00,-0.02,-0.02,0.97,0.98,1.40,0.92,73.45,-28.78,-38.23
454617,29.00,-1.14,1.57,-20.95,1013.25,10.00,-0.03,-0.02,0.97,0.85,1.65,0.85,74.55,-28.52,-42.18
454667,29.00,-1.08,1.52,-20.90,1013.25,10.00,-0.03,-0.02,0.97,0.85,1.59,0.67,74.44,-28.42,-40.05
454718,29.00,-1.02,1.48,-20.57,1013.25,10.00,-0.02,-0.02,0.97,0.67,1.34,0.79,75.02,-28.14,-40.93
454769,29.00,-1.12,1.55,-21.54,1013.25,10.00,-0.03,-0.02,0.97,0.79,1.59,0.85,73.30,-29.02,-38.94
454820,29.00,-1.14,1.62,-21.32,1013.25,10.00,-0.03,-0.02,0.96,0.92,1.71,1.04,73.77,-28.77,-39.90
454869,29.00,-1.09,1.54,-20.95,1013.25,10.00,-0.03,-0.02,0.97,0.67,1.83,0.85,74.95,-28.67,-39.45
454920,29.00,-1.10,1.53,-21.34,1013.25,10.00,-0.03,-0.02,0.97,1.10,0.98,0.67,74.45,-29.13,-39.43
454969,29.00,-1.10,1.50,-21.33,1013.25,10.00,-0.03,-0.02,0.97,0.79,1.59,0.79,74.77,-29.20,-40.53
455020,29.00,-1.08,1.51,-20.35,1013.25,10.00,-0.03,-0.02,0.97,0.98,1.71,0.85,75.43,-27.91,-41.25
455071,29.00,-1.11,1.51,-20.18,1013.25,10.00,-0.03,-0.02,0.97,0.61,1.59,0.92,75.38,-27.70,-40.66
455121,29.00,-1.09,1.45,-20.64,1013.25,10.00,-0.02,-0.02,0.97,1.22,1.34,0.85,75.06,-28.32,-38.10
455172,29.00,-1.10,1.52,-20.98,1013.25,10.00,-0.03,-0.02,0.97,0.92,1.65,0.85,73.95,-28.39,-38.35
455223,29.00,-1.11,1.56,-21.33,1013.25,10.00,-0.03,-0.02,0.97,0.79,1.59,0.92,74.22,-29.02,-39.90
455273,29.00,-1.10,1.52,-21.33,1013.25,10.00,-0.03,-0.02,0.97,0.92,1.65,0.79,74.77,-29.20,-39.59
455324,29.00,-1.15,1.50,-20.88,1013.25,10.00,-0.03,-0.02,0.97,0.85,1.53,0.92,74.95,-28.56,-39.70
455375,29.00,-1.05,1.59,-20.71,1013.25,10.00,-0.03,-0.02,0.97,0.98,1.40,0.79,74.76,-28.25,-39.83
455426,29.00,-1.11,1.57,-20.86,1013.25,10.00,-0.03,-0.02,0.97,0.92,1.34,0.79,75.45,-28.77,-39.29
455477,29.00,-1.08,1.54,-20.85,1013.25,10.00,-0.03,-0.02,0.97,0.98,1.16,0.67,75.27,-28.66,-40.76
455526,29.00,-1.12,1.55,-20.92,1013.25,10.00,-0.03,-0.02,0.97,0.79,1.59,0.92,74.10,-28.33,-41.39
455577,29.00,-1.09,1.55,-20.28,1013.25,10.00,-0.03,-0.02,0.97,0.85,1.71,0.85,75.13,-27.71,-41.97
455677,29.00,-1.05,1.54,-21.07,1013.25,10.00,-0.03,-0.02,0.97,0.79,1.53,0.85,74.33,-28.70,-38.83
455779,29.00,-1.15,1.54,-21.13,1013.25,10.00,-0.03,-0.02,0.97,1.04,1.53,0.79,74.94,-28.98,-38.12
455880,29.00,-1.16,1.53,-20.88,1013.25,10.00,-0.03,-0.02,0.97,0.98,1.46,0.92,74.66,-28.47,-41.14
455981,29.00,-1.10,1.55,-21.02,1013.25,10.00,-0.03,-0.02,0.97,0.73,1.59,0.92,74.63,-28.70,-40.50
456032,29.00,-1.12,1.54,-21.09,1013.25,10.00,-0.03,-0.02,0.97,0.92,1.59,0.79,74.56,-28.77,-38.64
456083,29.00,-1.11,1.52,-20.52,1013.25,10.00,-0.03,-0.02,0.97,0.92,1.53,0.85,75.43,-28.19,-40.87
456133,29.00,-1.09,1.53,-20.32,1013.25,10.00,-0.03,-0.02,0.97,0.98,1.71,0.85,75.56,-27.97,-41.69
456184,29.00,-1.09,1.52,-20.38,1013.25,10.00,-0.03,-0.02,0.97,0.85,1.53,0.85,75.21,-27.95,-41.33
456235,29.00,-1.10,1.53,-20.36,1013.25,10.00,-0.03,-0.02,0.97,0.79,1.46,0.98,74.73,-27.73,-40.67
456286,29.00,-1.05,1.54,-19.94,1013.25,10.00,-0.03,-0.02,0.97,0.92,1.59,0.92,75.57,-27.39,-41.85
456336,29.00,-1.13,1.57,-20.51,1013.25,10.00,-0.03,-0.02,0.97,0.67,1.46,0.85,74.98,-28.09,-40.14
456387,29.00,-1.10,1.45,-20.32,1013.25,10.00,-0.02,-0.02,0.97,0.79,1.71,0.73,75.94,-28.11,-41.41
456438,29.00,-1.10,1.58,-21.10,1013.25,10.00,-0.03,-0.02,0.97,0.92,1.71,0.98,74.49,-28.81,-39.75
456488,29.00,-1.13,1.52,-21.19,1013.25,10.00,-0.03,-0.02,0.97,0.79,1.71,0.92,74.76,-28.99,-39.38
456539,29.00,-1.04,1.47,-21.24,1013.25,10.00,-0.02,-0.02,0.97,0.79,1.34,0.67,74.40,-28.92,-39.51
456590,29.00,-1.04,1.53,-21.24,1013.25,10.00,-0.03,-0.02,0.97,0.92,1.53,0.85,73.99,-28.76,-39.36
456640,29.00,-1.09,1.51,-20.83,1013.25,10.00,-0.03,-0.02,0.97,0.85,1.53,0.92,74.39,-28.27,-40.11
456691,29.00,-1.05,1.50,-21.21,1013.25,10.00,-0.03,-0.02,0.97,0.79,1.59,1.04,73.94,-28.72,-38.44
456742,29.00,-1.04,1.54,-21.32,1013.25,10.00,-0.03,-0.02,0.97,1.04,1.40,0.79,74.07,-28.92,-38.43
456793,29.00,-1.09,1.50,-21.12,1013.25,10.00,-0.03,-0.02,0.97,0.85,1.65,0.85,74.22,-28.66,-39.94
456844,29.00,-1.13,1.56,-20.93,1013.25,10.00,-0.03,-0.02,0.97,0.79,1.59,0.67,74.35,-28.43,-40.82
456893,29.00,-1.10,1.55,-21.43,1013.25,10.00,-0.03,-0.02,0.97,0.92,1.34,0.73,73.71,-28.97,-39.20
456944,29.00,-1.07,1.54,-21.14,1013.25,10.00,-0.03,-0.02,0.97,0.92,1.53,0.79,74.62,-28.83,-39.38
456994,29.00,-1.07,1.49,-20.95,1013.25,10.00,-0.03,-0.02,0.97,0.85,1.53,0.67,75.04,-28.71,-40.22
457045,29.00,-1.12,1.56,-21.34,1013.25,10.00,-0.03,-0.02,0.97,0.98,1.59,0.98,74.15,-29.00,-40.41
457096,29.00,-1.06,1.52,-20.69,1013.25,10.00,-0.03,-0.02,0.97,0.79,1.65,0.98,74.40,-28.05,-41.24
457147,29.00,-1.06,1.53,-21.05,1013.25,10.00,-0.03,-0.02,0.97,1.04,1.16,0.92,74.43,-28.67,-40.01
457198,29.00,-1.22,1.57,-21.59,1013.25,10.00,-0.03,-0.02,0.97,0.85,1.83,0.85,73.99,-29.32,-40.26
457248,29.00,-1.14,1.50,-21.51,1013.25,10.00,-0.03,-0.02,0.97,0.98,1.46,0.85,74.15,-29.22,-40.41
457299,29.00,-1.04,1.52,-20.99,1013.25,10.00,-0.03,-0.02,0.97,0.79,1.65,0.98,74.34,-28.49,-40.33
457349,29.00,-1.15,1.51,-21.05,1013.25,10.00,-0.03,-0.02,0.97,1.10,1.46,0.79,74.52,-28.69,-42.07
457400,29.00,-1.13,1.50,-21.22,1013.25,10.00,-0.03,-0.02,0.97,0.92,1.04,0.67,74.05,-28.77,-39.53
457451,29.00,-1.06,1.49,-20.57,1013.25,10.00,-0.03,-0.02,0.97,0.79,1.71,0.73,74.99,-28.10,-40.36
457501,29.00,-1.11,1.57,-20.72,1013.25,10.00,-0.03,-0.02,0.97,0.92,1.46,0.67,74.82,-28.32,-38.75
457552,29.00,-1.09,1.57,-21.15,1013.25,10.00,-0.03,-0.02,0.97,0.79,1.65,0.98,73.97,-28.66,-38.81
457603,29.00,-1.07,1.51,-20.55,1013.25,10.00,-0.03,-0.02,0.97,0.73,1.46,0.73,75.55,-28.28,-41.53
457654,29.00,-1.11,1.53,-21.31,1013.25,10.00,-0.03,-0.02,0.97,0.92,1.16,0.61,73.75,-28.83,-39.81
457704,29.00,-1.10,1.55,-20.36,1013.25,10.00,-0.03,-0.02,0.97,0.98,1.53,0.85,74.71,-27.65,-40.87
457755,29.00,-1.18,1.54,-20.56,1013.25,10.00,-0.03,-0.02,0.97,1.16,1.46,0.92,75.24,-28.23,-39.14
457806,29.00,-1.04,1.54,-20.96,1013.25,10.00,-0.03,-0.02,0.97,0.85,1.40,0.79,74.87,-28.71,-38.48
457857,29.00,-1.06,1.53,-20.83,1013.25,10.00,-0.03,-0.02,0.97,0.92,1.34,0.79,74.87,-28.48,-40.54
457908,29.00,-1.21,1.48,-21.29,1013.25,10.00,-0.03,-0.02,0.97,0.85,1.34,0.73,74.34,-29.00,-39.93
457959,29.00,-1.03,1.54,-20.66,1013.25,10.00,-0.03,-0.02,0.97,0.92,1.34,0.79,74.89,-28.20,-40.41
458010,29.00,-1.05,1.55,-21.37,1013.25,10.00,-0.03,-0.02,0.97,0.79,1.53,0.98,74.16,-29.08,-39.01
458060,29.00,-1.11,1.54,-20.53,1013.25,10.00,-0.03,-0.02,0.97,0.85,1.53,0.92,75.15,-28.08,-40.99
458111,29.00,-1.10,1.48,-20.20,1013.25,10.00,-0.03,-0.02,0.97,0.79,1.71,0.79,75.37,-27.71,-42.57
458162,29.00,-1.04,1.52,-20.37,1013.25,10.00,-0.03,-0.02,0.97,0.92,1.83,0.73,75.12,-27.91,-41.04
458213,29.00,-1.15,1.54,-20.25,1013.25,10.00,-0.03,-0.02,0.97,0.92,1.04,0.55,75.60,-27.88,-41.93
458263,29.00,-1.11,1.50,-20.06,1013.25,10.00,-0.03,-0.02,0.97,0.85,1.59,0.73,76.14,-27.78,-41.28
458314,29.00,-1.06,1.50,-20.69,1013.25,10.00,-0.03,-0.02,0.97,1.16,0.92,0.61,75.34,-28.50,-39.66
458365,29.00,-1.09,1.53,-20.99,1013.25,10.00,-0.03,-0.02,0.97,0.73,1.53,0.79,74.32,-28.54,-39.05
458415,29.00,-1.18,1.53,-20.58,1013.25,10.00,-0.03,-0.02,0.97,1.04,1.28,0.92,75.10,-28.16,-40.43
458466,29.00,-1.12,1.50,-20.66,1013.25,10.00,-0.03,-0.02,0.97,0.92,1.22,0.79,74.95,-28.27,-40.10
458517,29.00,-1.16,1.58,-20.51,1013.25,10.00,-0.03,-0.02,0.97,0.73,1.40,0.92,75.39,-28.20,-40.75
458567,29.00,-1.22,1.45,-20.76,1013.25,10.00,-0.02,-0.02,0.97,0.73,1.59,0.92,74.96,-28.44,-39.88
458618,29.00,-1.07,1.47,-20.28,1013.25,10.00,-0.02,-0.02,0.97,0.73,1.53,0.85,75.06,-27.70,-39.21
458669,29.00,-1.07,1.50,-20.75,1013.25,10.00,-0.03,-0.02,0.97,0.85,1.40,0.92,74.05,-28.09,-39.67
458720,29.00,-1.10,1.62,-21.18,1013.25,10.00,-0.03,-0.02,0.97,0.85,1.40,0.73,73.82,-28.64,-39.49
458771,29.00,-1.16,1.55,-20.78,1013.25,10.00,-0.03,-0.02,0.97,0.73,1.53,0.85,74.39,-28.20,-41.53
458822,29.00,-1.14,1.45,-20.95,1013.25,10.00,-0.02,-0.02,0.97,0.92,1.34,0.79,73.54,-28.17,-40.43
458873,29.00,-1.13,1.39,-20.76,1013.25,10.00,-0.02,-0.02,0.97,0.79,1.65,0.92,75.39,-28.56,-39.26
458923,29.00,-1.17,1.56,-21.16,1013.25,10.00,-0.03,-0.02,0.97,0.85,1.59,0.92,74.16,-28.74,-39.15
458974,29.00,-0.90,1.83,-21.26,1013.25,10.00,-0.03,-0.02,0.96,0.79,1.28,0.92,74.10,-28.85,-38.62
459025,29.00,-1.09,1.56,-21.54,1013.25,10.00,-0.03,-0.02,0.96,0.73,1.53,0.98,73.34,-28.98,-39.11
459076,29.00,-1.06,1.35,-21.57,1013.25,10.00,-0.02,-0.02,0.97,0.79,1.59,0.85,73.61,-29.10,-39.88
459125,29.00,-1.00,1.41,-20.72,1013.25,10.00,-0.02,-0.02,0.98,0.73,1.53,0.98,75.44,-28.48,-40.59
459176,29.00,-1.09,1.47,-21.16,1013.25,10.00,-0.03,-0.02,0.97,1.10,1.46,0.73,74.27,-28.78,-39.71
459226,29.00,-1.09,1.52,-20.95,1013.25,10.00,-0.03,-0.02,0.97,0.98,1.28,0.85,74.04,-28.33,-39.70
459277,29.00,-1.05,1.53,-20.49,1013.25,10.00,-0.03,-0.02,0.97,0.92,1.77,0.79,75.04,-28.00,-41.21
459328,29.00,-1.10,1.47,-20.36,1013.25,10.00,-0.02,-0.02,0.97,0.92,1.59,1.10,74.83,-27.76,-39.76
459378,29.00,-1.07,1.56,-20.40,1013.25,10.00,-0.03,-0.02,0.97,0.98,1.65,0.92,75.29,-28.00,-39.87
459429,29.00,-1.10,1.54,-20.76,1013.25,10.00,-0.03,-0.02,0.97,0.98,1.53,1.04,74.67,-28.34,-40.30
459480,29.00,-1.10,1.55,-20.62,1013.25,10.00,-0.03,-0.02,0.97,0.92,1.59,1.04,74.11,-27.88,-41.44
459531,29.00,-1.10,1.52,-21.28,1013.25,10.00,-0.03,-0.02,0.97,1.16,1.40,0.98,74.29,-28.99,-39.45
459580,29.00,-1.09,1.56,-20.35,1013.25,10.00,-0.03,-0.02,0.97,0.73,1.40,0.79,74.93,-27.72,-39.28
459631,29.00,-1.07,1.54,-20.66,1013.25,10.00,-0.03,-0.02,0.97,0.98,1.53,0.92,73.72,-27.82,-38.34
459681,29.00,-1.15,1.59,-20.55,1013.25,10.00,-0.03,-0.02,0.97,0.79,1.65,0.92,74.91,-28.08,-38.51
459732,29.00,-1.13,1.60,-20.37,1013.25,10.00,-0.03,-0.02,0.97,0.98,1.71,1.04,75.92,-28.17,-40.44
459783,29.00,-1.07,1.59,-21.04,1013.25,10.00,-0.03,-0.02,0.97,0.79,1.28,0.73,74.22,-28.60,-40.01
459834,29.00,-1.08,1.50,-21.10,1013.25,10.00,-0.03,-0.02,1.00,0.98,0.98,0.79,75.01,-28.96,-38.16
459885,29.00,-1.08,1.48,-20.81,1013.25,10.00,-0.03,-0.02,0.97,0.85,1.46,0.92,75.26,-28.58,-40.88
459936,29.00,-1.11,1.54,-21.30,1013.25,10.00,-0.03,-0.02,0.97,0.92,1.40,0.67,74.55,-29.11,-40.70
459987,29.00,-1.09,1.50,-20.65,1013.25,10.00,-0.03,-0.02,0.97,0.79,1.71,0.92,75.61,-28.44,-39.95
460036,29.00,-1.09,1.54,-20.55,1013.25,10.00,-0.03,-0.02,0.97,0.73,1.34,0.79,75.32,-28.23,-41.78
460087,29.00,-1.08,1.52,-20.20,1013.25,10.00,-0.03,-0.02,0.97,0.79,1.65,0.98,75.96,-27.93,-40.55
460137,29.00,-1.09,1.50,-20.18,1013.25,10.00,-0.03,-0.02,0.97,0.92,1.59,0.85,75.87,-27.88,-41.66
460188,29.00,-1.05,1.53,-20.48,1013.25,10.00,-0.03,-0.02,0.97,0.92,1.53,0.73,75.37,-28.17,-41.39
460239,29.00,-1.08,1.55,-20.28,1013.25,10.00,-0.03,-0.02,0.97,0.67,1.65,0.85,75.60,-27.92,-40.93
460290,29.00,-1.07,1.57,-20.61,1013.25,10.00,-0.03,-0.02,0.97,0.73,1.53,0.85,75.12,-28.28,-41.14
460339,29.00,-1.10,1.56,-20.98,1013.25,10.00,-0.03,-0.02,0.97,0.85,1.16,0.67,74.23,-28.50,-38.56
460390,29.00,-1.13,1.52,-20.87,1013.25,10.00,-0.03,-0.02,0.97,1.04,1.65,0.73,74.55,-28.42,-38.68
460441,29.00,-1.09,1.57,-20.53,1013.25,10.00,-0.03,-0.02,0.97,0.73,1.40,0.79,74.69,-27.95,-39.15
460490,29.00,-1.10,1.54,-21.45,1013.25,10.00,-0.03,-0.02,0.97,0.79,1.46,0.85,73.90,-29.11,-38.34
460541,29.00,-1.09,1.49,-20.57,1013.25,10.00,-0.03,-0.02,0.97,0.92,1.34,0.73,74.41,-27.86,-41.00
460640,29.00,-1.13,1.52,-20.52,1013.25,10.00,-0.03,-0.02,0.97,0.85,1.40,0.85,76.00,-28.44,-40.92
460741,29.00,-1.05,1.55,-20.46,1013.25,10.00,-0.03,-0.02,0.97,0.79,1.65,0.73,75.45,-28.15,-39.04
460792,29.00,-1.09,1.61,-21.45,1013.25,10.00,-0.03,-0.02,0.97,0.61,1.71,0.92,74.00,-29.15,-38.32
460841,29.00,-1.15,1.56,-21.25,1013.25,10.00,-0.03,-0.02,0.97,1.10,1.34,0.85,74.63,-29.00,-38.05
460892,29.00,-1.05,1.55,-21.43,1013.25,10.00,-0.03,-0.02,0.97,0.79,1.59,0.79,74.44,-29.24,-39.70
460943,29.00,-1.11,1.49,-20.95,1013.25,10.00,-0.03,-0.02,0.97,0.85,1.04,0.55,74.99,-28.67,-40.61
460994,29.00,-1.11,1.55,-20.99,1013.25,10.00,-0.03,-0.02,0.97,0.85,1.65,0.85,74.65,-28.65,-40.05
461045,29.00,-1.08,1.54,-21.29,1013.25,10.00,-0.03,-0.02,0.97,0.85,1.22,0.85,73.96,-28.85,-39.38
461096,29.00,-1.07,1.53,-20.64,1013.25,10.00,-0.03,-0.02,0.97,0.92,1.46,0.85,74.57,-28.04,-40.12
461147,29.00,-1.13,1.58,-20.81,1013.25,10.00,-0.03,-0.02,0.97,0.73,1.53,0.73,74.72,-28.42,-40.84
461198,29.00,-1.09,1.57,-20.28,1013.25,10.00,-0.03,-0.02,0.97,0.85,1.22,0.61,75.57,-27.89,-42.20
461249,29.00,-1.05,1.58,-21.04,1013.25,10.00,-0.03,-0.02,0.97,0.98,1.53,0.73,73.77,-28.43,-40.37
461300,29.00,-1.07,1.50,-21.10,1013.25,10.00,-0.03,-0.02,0.97,0.85,1.40,0.92,74.28,-28.67,-39.40
461351,29.00,-1.10,1.59,-20.69,1013.25,10.00,-0.03,-0.02,0.97,0.92,1.71,0.98,74.11,-27.97,-39.76
461402,29.00,-1.10,1.51,-21.12,1013.25,10.00,-0.03,-0.02,0.97,0.85,1.59,0.92,74.17,-28.69,-38.42
461453,29.00,-1.10,1.53,-20.84,1013.25,10.00,-0.03,-0.02,0.97,1.04,0.98,0.67,73.88,-28.10,-38.44
461502,29.00,-1.10,1.53,-20.99,1013.25,10.00,-0.03,-0.02,0.97,0.98,1.59,0.85,74.32,-28.53,-39.32
461553,29.00,-1.09,1.53,-20.84,1013.25,10.00,-0.03,-0.02,0.97,1.10,1.34,0.85,74.69,-28.43,-40.69
461604,29.00,-1.08,1.51,-21.21,1013.25,10.00,-0.03,-0.02,0.97,0.79,1.53,0.73,74.88,-29.09,-40.15
461654,29.00,-1.11,1.51,-21.26,1013.25,10.00,-0.03,-0.02,0.97,0.85,1.34,0.79,74.39,-28.96,-39.55
461705,29.00,-1.10,1.55,-20.88,1013.25,10.00,-0.03,-0.02,0.97,0.98,1.16,0.79,75.37,-28.72,-39.45
461756,29.00,-1.08,1.56,-21.06,1013.25,10.00,-0.03,-0.02,0.97,0.85,1.34,0.92,74.56,-28.74,-38.13
461807,29.00,-1.11,1.53,-20.84,1013.25,10.00,-0.03,-0.02,0.97,0.85,1.71,0.79,74.65,-28.41,-40.44
461858,29.00,-1.13,1.53,-20.99,1013.25,10.00,-0.03,-0.02,0.97,0.79,1.40,0.85,73.63,-28.26,-39.82
461908,29.00,-1.05,1.55,-20.70,1013.25,10.00,-0.03,-0.02,0.97,0.92,1.34,0.79,74.52,-28.14,-39.79
461959,29.00,-1.09,1.60,-20.41,1013.25,10.00,-0.03,-0.02,0.97,0.92,1.59,0.79,74.73,-27.80,-39.45
462010,29.00,-1.10,1.51,-21.48,1013.25,10.00,-0.03,-0.02,0.97,0.85,1.53,0.98,74.16,-29.27,-38.51
462060,29.00,-1.12,1.55,-20.51,1013.25,10.00,-0.03,-0.02,0.97,0.92,1.53,0.92,75.85,-28.30,-41.19
462111,29.00,-1.08,1.54,-20.55,1013.25,10.00,-0.03,-0.02,0.97,0.98,1.65,0.92,75.66,-28.37,-40.62
462161,29.00,-1.06,1.56,-20.87,1013.25,10.00,-0.03,-0.02,0.97,0.79,1.65,0.98,75.40,-28.77,-40.77
462212,29.00,-1.10,1.52,-20.26,1013.25,10.00,-0.03,-0.02,0.97,0.85,1.59,0.85,75.55,-27.84,-40.91
462262,29.00,-1.12,1.53,-20.29,1013.25,10.00,-0.03,-0.02,0.97,1.04,1.53,0.73,75.15,-27.78,-40.48
462313,29.00,-1.06,1.51,-20.65,1013.25,10.00,-0.03,-0.02,0.97,1.04,1.22,0.73,74.94,-28.27,-39.95
462362,29.00,-1.11,1.59,-20.68,1013.25,10.00,-0.03,-0.02,0.97,0.85,1.34,0.73,74.45,-28.10,-39.90
462413,29.00,-1.08,1.50,-20.72,1013.25,10.00,-0.03,-0.02,0.97,1.04,1.34,0.79,74.84,-28.32,-40.22
462464,29.00,-1.08,1.55,-20.09,1013.25,10.00,-0.03,-0.02,0.97,0.79,1.53,0.79,75.54,-27.59,-41.04
462515,29.00,-1.07,1.56,-20.68,1013.25,10.00,-0.03,-0.02,0.97,1.10,1.46,0.67,74.67,-28.23,-39.65
462565,29.00,-1.09,1.56,-20.72,1013.25,10.00,-0.03,-0.02,0.97,0.85,1.46,0.79,74.91,-28.34,-40.22
462616,29.00,-1.14,1.49,-21.24,1013.25,10.00,-0.03,-0.02,0.97,0.73,1.71,0.92,74.45,-28.98,-40.32
462667,29.00,-1.13,1.52,-21.03,1013.25,10.00,-0.03,-0.02,0.97,0.92,1.34,0.67,74.38,-28.59,-41.15
462718,29.00,-1.08,1.52,-20.56,1013.25,10.00,-0.03,-0.02,0.97,0.98,1.53,0.73,74.43,-27.88,-40.50
462768,29.00,-1.09,1.58,-20.98,1013.25,10.00,-0.03,-0.02,0.97,0.98,1.53,0.73,74.78,-28.71,-39.90
462819,29.00,-1.06,1.49,-21.21,1013.25,10.00,-0.03,-0.02,0.97,0.92,1.46,0.92,74.13,-28.78,-39.12
462870,29.00,-1.11,1.56,-21.01,1013.25,10.00,-0.03,-0.02,0.97,0.79,1.46,0.73,75.06,-28.82,-39.15
462921,29.00,-1.08,1.52,-21.26,1013.25,10.00,-0.03,-0.02,0.97,0.67,1.71,0.67,73.86,-28.76,-38.83
462971,29.00,-1.07,1.59,-20.44,1013.25,10.00,-0.03,-0.02,0.97,0.92,1.53,0.67,75.70,-28.15,-41.41
463022,29.00,-1.10,1.58,-20.88,1013.25,10.00,-0.03,-0.02,0.97,0.79,1.46,0.98,74.08,-28.30,-39.29
463073,29.00,-1.10,1.52,-20.64,1013.25,10.00,-0.03,-0.02,0.97,0.92,1.53,0.92,75.11,-28.27,-38.32
463124,29.00,-1.10,1.57,-20.76,1013.25,10.00,-0.03,-0.02,0.97,0.73,1.28,0.92,74.87,-28.39,-39.29
463175,29.00,-1.10,1.54,-20.89,1013.25,10.00,-0.03,-0.02,0.97,0.55,1.59,0.73,74.45,-28.43,-40.00
463225,29.00,-1.07,1.49,-21.00,1013.25,10.00,-0.03,-0.02,0.97,0.98,1.34,0.73,73.83,-28.36,-40.66
463276,29.00,-1.04,1.55,-20.63,1013.25,10.00,-0.03,-0.02,0.97,0.73,1.40,0.85,75.22,-28.30,-40.55
463327,29.00,-1.09,1.57,-20.78,1013.25,10.00,-0.03,-0.02,0.97,0.79,1.53,0.73,75.46,-28.65,-40.70
463378,29.00,-1.09,1.50,-20.99,1013.25,10.00,-0.03,-0.02,0.97,0.73,1.65,0.85,74.40,-28.56,-40.01
463428,29.00,-1.15,1.60,-20.98,1013.25,10.00,-0.03,-0.02,0.97,0.73,1.53,0.85,74.58,-28.60,-39.03
463479,29.00,-1.06,1.55,-20.79,1013.25,10.00,-0.03,-0.02,0.97,0.98,1.59,0.85,74.98,-28.45,-40.83
463530,29.00,-1.12,1.56,-21.14,1013.25,10.00,-0.03,-0.02,0.97,0.79,1.34,0.92,74.82,-28.96,-40.26
463581,29.00,-1.13,1.50,-20.67,1013.25,10.00,-0.03,-0.02,0.97,0.92,1.28,0.79,74.85,-28.21,-41.94
463632,29.00,-1.14,1.53,-21.30,1013.25,10.00,-0.03,-0.02,0.97,0.73,1.65,0.73,74.61,-29.14,-38.07
463682,29.00,-1.06,1.59,-21.21,1013.25,10.00,-0.03,-0.02,0.97,1.10,1.28,0.73,75.05,-29.11,-39.22
463733,29.00,-1.10,1.54,-21.02,1013.25,10.00,-0.03,-0.02,0.97,0.73,1.59,0.67,74.29,-28.54,-40.09
463784,29.00,-1.12,1.53,-20.92,1013.25,10.00,-0.03,-0.02,0.97,1.04,1.28,0.67,74.91,-28.64,-38.27
463835,29.00,-1.08,1.48,-20.69,1013.25,10.00,-0.02,-0.02,0.97,0.85,1.53,0.67,75.15,-28.37,-41.02
463885,29.00,-1.19,1.52,-21.10,1013.25,10.00,-0.03,-0.02,0.97,0.85,1.65,0.85,73.74,-28.49,-39.98
463936,29.00,-1.07,1.55,-20.88,1013.25,10.00,-0.03,-0.02,0.97,0.92,1.59,0.98,74.85,-28.54,-40.11
463987,29.00,-1.05,1.53,-20.77,1013.25,10.00,-0.03,-0.02,0.97,1.04,1.65,0.98,75.09,-28.48,-39.79
464036,29.00,-1.11,1.53,-20.32,1013.25,10.00,-0.03,-0.02,0.97,0.85,1.53,0.92,75.65,-27.98,-41.71
464087,29.00,-1.07,1.61,-20.17,1013.25,10.00,-0.03,-0.02,0.97,0.79,1.65,0.79,75.74,-27.82,-40.66
464136,29.00,-1.09,1.54,-20.25,1013.25,10.00,-0.03,-0.02,0.97,0.92,1.53,0.92,75.26,-27.77,-41.11
464187,29.00,-1.07,1.55,-20.25,1013.25,10.00,-0.03,-0.02,0.97,0.79,1.65,0.73,75.60,-27.89,-41.28
464237,29.00,-1.16,1.52,-20.30,1013.25,10.00,-0.03,-0.02,0.97,0.85,1.71,0.92,75.70,-28.02,-41.09
464288,29.00,-1.06,1.52,-20.27,1013.25,10.00,-0.03,-0.02,0.97,0.85,1.34,0.92,75.21,-27.77,-40.20
464339,29.00,-1.10,1.54,-20.19,1013.25,10.00,-0.03,-0.02,0.97,0.92,1.46,0.67,75.48,-27.75,-39.36
464390,29.00,-1.09,1.55,-21.04,1013.25,10.00,-0.03,-0.02,0.97,1.04,1.40,0.79,74.61,-28.77,-39.40
464441,29.00,-1.14,1.54,-21.00,1013.25,10.00,-0.03,-0.02,0.97,0.92,1.53,0.73,74.58,-28.63,-40.23
464492,29.00,-1.12,1.50,-20.97,1013.25,10.00,-0.03,-0.02,0.97,0.98,1.46,0.98,74.72,-28.64,-40.72
464542,29.00,-1.13,1.57,-20.85,1013.25,10.00,-0.03,-0.02,0.97,0.73,1.22,0.67,74.37,-28.32,-38.26
464593,29.00,-1.14,1.53,-20.54,1013.25,10.00,-0.03,-0.02,0.97,0.85,1.59,1.04,75.27,-28.17,-40.09
464644,29.00,-1.10,1.53,-20.75,1013.25,10.00,-0.03,-0.02,0.97,0.85,1.46,0.79,74.52,-28.26,-40.52
464695,29.00,-1.10,1.49,-21.10,1013.25,10.00,-0.03,-0.02,0.97,0.92,0.92,0.67,74.60,-28.81,-39.88
464745,29.00,-1.11,1.54,-20.16,1013.25,10.00,-0.03,-0.02,0.97,0.98,1.53,0.79,75.49,-27.64,-43.79
464796,29.00,-1.11,1.51,-20.37,1013.25,10.00,-0.03,-0.02,0.97,0.61,1.34,0.92,75.11,-27.91,-41.41
464847,29.00,-1.11,1.51,-20.12,1013.25,10.00,-0.03,-0.02,0.97,0.92,1.71,0.85,75.72,-27.72,-41.48
464898,29.00,-1.09,1.49,-20.54,1013.25,10.00,-0.03,-0.02,0.97,0.73,1.46,0.73,75.37,-28.27,-40.38
464948,29.00,-1.08,1.48,-21.23,1013.25,10.00,-0.02,-0.02,0.97,1.10,1.59,0.67,74.40,-28.96,-39.78
464999,29.00,-1.07,1.54,-20.82,1013.25,10.00,-0.03,-0.02,0.97,0.92,1.46,0.79,75.11,-28.53,-39.40
465050,29.00,-1.09,1.53,-21.11,1013.25,10.00,-0.03,-0.02,0.97,0.85,1.71,0.92,74.83,-28.92,-38.61
465101,29.00,-1.07,1.57,-20.12,1013.25,10.00,-0.03,-0.02,0.97,0.85,1.59,0.85,76.16,-27.83,-40.47
465150,29.00,-1.16,1.54,-20.64,1013.25,10.00,-0.03,-0.02,0.97,0.98,1.28,0.67,74.73,-28.19,-39.39
465201,29.00,-1.13,1.52,-21.01,1013.25,10.00,-0.03,-0.02,0.97,1.22,1.10,0.85,74.48,-28.64,-38.43
465251,29.00,-1.08,1.56,-20.05,1013.25,10.00,-0.03,-0.02,0.97,0.98,0.85,0.55,75.92,-27.62,-40.45
465302,29.00,-1.10,1.53,-20.18,1013.25,10.00,-0.03,-0.02,0.97,0.73,1.40,0.73,75.13,-27.62,-40.08
465353,29.00,-1.13,1.55,-20.61,1013.25,10.00,-0.03,-0.02,0.97,0.85,1.59,0.92,74.35,-28.00,-39.84
465404,29.00,-1.10,1.54,-20.77,1013.25,10.00,-0.03,-0.02,0.97,0.98,1.53,0.85,74.46,-28.26,-37.63
465455,29.00,-1.09,1.56,-20.84,1013.25,10.00,-0.03,-0.02,0.97,0.92,1.40,0.85,75.13,-28.61,-38.93
465505,29.00,-1.14,1.52,-20.58,1013.25,10.00,-0.03,-0.02,0.97,0.92,1.46,0.98,74.94,-28.12,-39.28
465556,29.00,-1.14,1.53,-20.79,1013.25,10.00,-0.03,-0.02,0.97,0.92,1.65,0.85,74.46,-28.28,-38.39
465656,29.00,-1.12,1.53,-20.30,1013.25,10.00,-0.03,-0.02,0.97,1.16,1.34,0.92,75.57,-27.93,-39.15
465758,29.00,-1.10,1.54,-21.36,1013.25,10.00,-0.03,-0.02,0.97,0.85,1.40,0.85,74.85,-29.37,-39.32
465859,29.00,-1.09,1.55,-20.94,1013.25,10.00,-0.03,-0.02,0.97,0.92,1.53,0.73,74.76,-28.58,-37.65
465910,29.00,-1.07,1.54,-21.44,1013.25,10.00,-0.03,-0.02,0.97,0.92,1.53,0.79,73.79,-29.02,-38.70
465960,29.00,-1.09,1.50,-21.12,1013.25,10.00,-0.03,-0.02,0.97,0.98,1.46,0.85,74.57,-28.78,-39.56
466011,29.00,-1.06,1.49,-20.49,1013.25,10.00,-0.03,-0.02,0.97,0.79,1.59,0.73,75.76,-28.26,-40.95
466062,29.00,-1.10,1.53,-20.28,1013.25,10.00,-0.03,-0.02,0.97,0.79,1.53,0.85,75.62,-27.93,-40.75
466113,29.00,-1.09,1.52,-20.34,1013.25,10.00,-0.03,-0.02,0.97,0.85,1.46,0.79,75.34,-27.93,-41.05
466162,29.00,-1.05,1.54,-20.18,1013.25,10.00,-0.03,-0.02,0.97,0.92,1.59,0.85,75.50,-27.73,-41.24
466213,29.00,-1.07,1.55,-20.65,1013.25,10.00,-0.03,-0.02,0.97,1.16,0.67,0.61,74.41,-28.08,-40.89
466262,29.00,-1.11,1.52,-20.79,1013.25,10.00,-0.03,-0.02,0.97,1.10,1.22,0.85,75.11,-28.53,-38.44
466313,29.00,-1.12,1.64,-21.02,1013.25,10.00,-0.03,-0.02,0.97,0.85,1.53,0.79,74.29,-28.58,-39.86
466364,29.00,-1.07,1.48,-21.34,1013.25,10.00,-0.02,-0.02,0.97,0.79,1.46,0.79,74.35,-29.08,-38.67
466414,29.00,-1.10,1.54,-21.26,1013.25,10.00,-0.03,-0.02,0.97,0.85,1.34,0.67,74.01,-28.80,-38.43
466465,29.00,-1.07,1.54,-21.03,1013.25,10.00,-0.03,-0.02,0.97,1.04,1.40,0.67,74.22,-28.52,-39.04
466516,29.00,-1.05,1.55,-21.13,1013.25,10.00,-0.03,-0.02,0.97,0.85,1.53,0.85,74.29,-28.72,-39.49
466566,29.00,-1.11,1.56,-21.29,1013.25,10.00,-0.03,-0.02,0.97,0.92,1.53,0.79,74.29,-28.97,-37.46
466617,29.00,-1.12,1.63,-21.06,1013.25,10.00,-0.03,-0.02,0.97,0.79,1.83,0.67,73.73,-28.38,-38.53
466668,29.00,-1.10,1.55,-20.93,1013.25,10.00,-0.03,-0.02,0.97,0.98,1.65,0.85,74.67,-28.55,-39.81
466718,29.00,-1.07,1.61,-20.69,1013.25,10.00,-0.03,-0.02,0.97,0.92,1.53,0.73,75.09,-28.34,-39.60
466769,29.00,-1.10,1.48,-20.95,1013.25,10.00,-0.02,-0.02,0.97,0.98,1.65,0.92,74.35,-28.49,-40.36
466820,29.00,-1.12,1.48,-21.33,1013.25,10.00,-0.02,-0.02,0.97,0.92,1.71,0.92,74.05,-28.96,-39.98
466870,29.00,-1.04,1.62,-20.96,1013.25,10.00,-0.03,-0.02,0.97,0.79,1.71,0.85,75.46,-28.88,-39.83
466921,29.00,-1.07,1.51,-21.24,1013.25,10.00,-0.03,-0.02,0.97,0.98,1.71,0.85,74.98,-29.16,-39.66
466972,29.00,-1.21,1.49,-20.87,1013.25,10.00,-0.03,-0.02,0.97,0.92,1.59,0.85,75.04,-28.58,-38.23
467022,29.00,-1.11,1.48,-21.40,1013.25,10.00,-0.02,-0.02,0.97,0.92,1.65,0.92,75.24,-29.53,-40.00
467073,29.00,-1.08,1.52,-21.20,1013.25,10.00,-0.03,-0.02,0.97,0.98,1.22,0.79,74.73,-28.97,-41.63
467124,29.00,-1.04,1.55,-20.30,1013.25,10.00,-0.03,-0.02,0.97,0.92,1.28,0.67,75.60,-27.89,-41.76
467174,29.00,-1.11,1.53,-21.28,1013.25,10.00,-0.03,-0.02,0.97,0.85,1.53,0.92,74.37,-29.04,-38.42
467225,29.00,-1.10,1.49,-21.44,1013.25,10.00,-0.03,-0.02,0.97,0.92,1.46,0.92,74.46,-29.26,-40.20
467276,29.00,-1.05,1.54,-20.66,1013.25,10.00,-0.03,-0.02,0.97,1.10,1.04,0.79,75.59,-28.44,-40.56
467327,29.00,-1.09,1.55,-20.73,1013.25,10.00,-0.03,-0.02,0.97,0.85,1.53,0.79,75.09,-28.43,-40.81
467378,29.00,-1.08,1.56,-20.55,1013.25,10.00,-0.03,-0.02,0.97,1.04,1.22,0.61,75.95,-28.45,-38.96
467428,29.00,-1.08,1.52,-21.60,1013.25,10.00,-0.03,-0.02,0.97,0.92,1.59,0.73,73.91,-29.36,-40.72
467479,29.00,-1.14,1.57,-20.62,1013.25,10.00,-0.03,-0.02,0.97,0.85,1.71,0.92,74.73,-28.04,-42.11
467530,29.00,-1.08,1.54,-21.24,1013.25,10.00,-0.03,-0.02,0.97,0.73,1.46,0.92,74.41,-28.98,-41.28
467581,29.00,-1.10,1.54,-20.91,1013.25,10.00,-0.03,-0.02,0.97,1.16,1.10,0.73,75.26,-28.74,-38.07
467632,29.00,-1.06,1.53,-20.92,1013.25,10.00,-0.03,-0.02,0.97,1.10,1.10,0.67,74.94,-28.65,-40.54
467682,29.00,-1.06,1.54,-21.14,1013.25,10.00,-0.03,-0.02,0.97,1.10,1.22,0.79,74.38,-28.78,-38.46
467733,29.00,-1.11,1.57,-21.10,1013.25,10.00,-0.03,-0.02,0.97,0.92,1.65,0.85,74.69,-28.82,-39.64
467783,29.00,-1.03,1.52,-21.36,1013.25,10.00,-0.03,-0.02,0.97,1.16,1.28,0.61,73.72,-28.86,-40.25
467834,29.00,-1.10,1.52,-21.66,1013.25,10.00,-0.03,-0.02,0.97,0.73,1.40,0.85,73.78,-29.33,-38.23
467885,29.00,-1.12,1.51,-21.25,1013.25,10.00,-0.03,-0.02,0.97,0.79,1.71,0.79,74.38,-28.89,-38.16
467936,29.00,-1.10,1.58,-20.86,1013.25,10.00,-0.03,-0.02,0.97,0.98,1.53,0.85,75.55,-28.76,-40.28
467985,29.00,-1.10,1.59,-20.46,1013.25,10.00,-0.03,-0.02,0.97,0.67,1.40,0.92,75.66,-28.20,-39.43
468035,29.00,-1.10,1.48,-20.57,1013.25,10.00,-0.02,-0.02,0.97,0.85,1.59,0.79,75.96,-28.52,-41.26
468085,29.00,-1.03,1.46,-20.54,1013.25,10.00,-0.02,-0.02,0.97,0.79,1.53,0.79,75.18,-28.17,-40.97
468136,29.00,-1.10,1.48,-20.52,1013.25,10.00,-0.03,-0.02,0.97,0.73,1.71,0.79,75.57,-28.28,-40.21
468185,29.00,-1.08,1.54,-20.88,1013.25,10.00,-0.03,-0.02,0.97,0.92,1.46,0.92,74.57,-28.48,-39.53
468236,29.00,-1.12,1.54,-21.31,1013.25,10.00,-0.03,-0.02,0.97,0.92,1.59,0.85,74.08,-28.94,-39.99
468285,29.00,-1.07,1.62,-21.22,1013.25,10.00,-0.03,-0.02,0.97,0.85,1.46,0.85,74.23,-28.82,-41.22
468336,29.00,-1.08,1.59,-20.72,1013.25,10.00,-0.03,-0.02,0.97,1.04,1.34,0.85,75.16,-28.39,-40.11
468386,29.00,-1.10,1.51,-21.14,1013.25,10.00,-0.03,-0.02,0.97,0.98,0.98,0.67,74.94,-29.02,-38.21
468437,29.00,-1.08,1.57,-21.62,1013.25,10.00,-0.03,-0.02,0.97,0.73,1.34,0.79,73.80,-29.30,-39.29
468488,29.00,-1.06,1.55,-21.22,1013.25,10.00,-0.03,-0.02,0.97,0.79,1.46,0.92,74.43,-28.87,-39.99
468539,29.00,-1.09,1.54,-20.72,1013.25,10.00,-0.03,-0.02,0.97,0.73,1.59,0.73,75.51,-28.53,-40.60
468589,29.00,-1.07,1.57,-21.12,1013.25,10.00,-0.03,-0.02,0.97,0.92,1.10,0.61,74.67,-28.88,-39.95
468640,29.00,-1.10,1.54,-21.02,1013.25,10.00,-0.03,-0.02,0.97,0.85,1.59,1.04,74.11,-28.48,-39.75
468690,29.00,-1.05,1.53,-20.99,1013.25,10.00,-0.03,-0.02,0.97,0.98,1.65,0.98,75.38,-28.92,-39.66
468741,29.00,-1.03,1.50,-20.52,1013.25,10.00,-0.03,-0.02,0.97,0.85,1.53,0.73,74.74,-27.94,-39.51
468792,29.00,-1.12,1.61,-20.33,1013.25,10.00,-0.03,-0.02,0.97,0.98,1.65,0.79,75.83,-28.08,-38.66
468843,29.00,-1.08,1.51,-20.55,1013.25,10.00,-0.03,-0.02,0.97,0.85,1.28,0.79,75.04,-28.15,-37.74
468894,29.00,-1.08,1.41,-20.14,1013.25,10.00,-0.02,-0.02,0.97,0.85,1.34,0.73,75.79,-27.77,-39.22
468943,29.00,-1.13,1.60,-20.69,1013.25,10.00,-0.03,-0.02,0.97,0.79,1.59,0.79,74.61,-28.22,-40.67
468994,29.00,-1.11,1.52,-21.25,1013.25,10.00,-0.03,-0.02,0.97,0.85,1.28,0.61,74.34,-28.96,-39.27
469045,29.00,-1.10,1.50,-20.58,1013.25,10.00,-0.03,-0.02,0.97,0.85,1.65,0.92,75.24,-28.21,-41.26
469095,29.00,-1.12,1.55,-20.82,1013.25,10.00,-0.03,-0.02,0.97,0.79,1.71,0.85,75.55,-28.75,-39.49
469146,29.00,-1.19,1.50,-20.07,1013.25,10.00,-0.03,-0.02,0.97,0.79,1.59,0.79,75.56,-27.55,-41.17
469197,29.00,-1.09,1.54,-20.88,1013.25,10.00,-0.03,-0.02,0.97,1.04,1.59,0.61,75.39,-28.82,-38.17
469247,29.00,-1.19,1.63,-21.11,1013.25,10.00,-0.03,-0.02,0.97,0.98,1.59,0.73,74.49,-28.77,-39.70
