<TEAM_ID>,<MISSION_TIME>,<PACKET_COUNT>,<3TEMP>,<4PRESSURE>,<5FREQ>,<6RSSI>,<7ROLL>,<8PITCH>,<9YAW>,<10GNSS_ALT>,<11GNSS_LAT>,<12GNSS_LONG>,<13GNSS_SAT>,<14VOLTAGE>,<15CURRENT>,<16STATE>,<17CHECKSUM>
#,ASI-ROCKETRY-050,0,0,29.00,1013.25,994.0,-65.74,-1.63,-1.05,-3.26,903.15,12.906797,77.595902,12,0.1273,-32,1,2880732854,$
#,ASI-ROCKETRY-050,2,0,29.00,1013.25,754.0,-67.38,-1.66,-1.10,-2.91,903.15,12.906797,77.595902,12,0.0774,-32,1,970099764,$
#,ASI-ROCKETRY-050,2,0,29.00,1013.25,754.0,-67.38,-1.59,-1.03,-3.37,903.15,12.906797,77.595902,12,0.5722,-32,1,3914968457,$
#,ASI-ROCKETRY-050,2,0,29.00,1013.25,749.0,-64.89,-1.51,-1.08,-2.89,903.15,12.906797,77.595902,12,1.0992,-32,1,1141380559,$
#,ASI-ROCKETRY-050,2,0,29.00,1013.25,749.0,-64.89,-1.62,-1.12,-2.49,903.15,12.906797,77.595902,12,0.0000,-32,1,3895476550,$
#,ASI-ROCKETRY-050,2,0,29.00,1013.25,759.0,-64.53,-1.69,-1.08,-3.26,903.15,12.906797,77.595902,12,0.0129,-32,1,3282511320,$
#,ASI-ROCKETRY-050,2,0,29.00,1013.25,759.0,-64.53,-1.59,-1.06,-3.34,903.15,12.906797,77.595902,12,0.9864,-32,1,4234116093,$
#,ASI-ROCKETRY-050,2,0,29.00,1013.25,764.0,-75.76,-1.61,-1.08,-2.90,903.15,12.906797,77.595902,12,0.0129,-32,1,3087203451,$
#,ASI-ROCKETRY-050,2,0,29.00,1013.25,764.0,-75.76,-1.60,-1.07,-2.96,903.15,12.906797,77.595902,12,1.1701,-32,1,4278973050,$
#,ASI-ROCKETRY-050,2,0,29.00,1013.25,774.0,-73.78,-1.61,-1.07,-3.33,903.15,12.906797,77.595902,12,0.0677,-32,1,729536458,$
#,ASI-ROCKETRY-050,2,0,29.00,1013.25,774.0,-73.78,-1.61,-1.08,-2.61,903.15,12.906797,77.595902,12,1.3748,-32,1,2583306410,$
#,ASI-ROCKETRY-050,2,0,29.00,1013.25,769.0,-67.42,-1.63,-1.07,-3.14,903.15,12.906797,77.595902,12,0.0000,-32,1,4196980243,$
#,ASI-ROCKETRY-050,2,0,29.00,1013.25,779.0,-67.21,-1.58,-1.05,-3.79,903.15,12.906797,77.595902,12,1.5843,-32,1,1502077652,$
#,ASI-ROCKETRY-050,2,0,29.00,1013.25,779.0,-67.21,-1.57,-1.04,-3.08,903.15,12.906797,77.595902,12,0.1386,-32,1,2186394524,$
#,ASI-ROCKETRY-050,2,0,29.00,1013.25,784.0,-77.37,-1.64,-1.02,-3.28,903.15,12.906797,77.595902,12,0.3191,-32,1,1753137976,$
#,ASI-ROCKETRY-050,2,0,29.00,1013.25,784.0,-77.37,-1.59,-1.04,-3.37,903.15,12.906797,77.595902,12,1.2813,-32,1,191688870,$
#,ASI-ROCKETRY-050,2,0,29.00,1013.25,794.0,-69.27,-1.66,-1.04,-3.21,903.15,12.906797,77.595902,12,0.1531,-32,1,1248536783,$
#,ASI-ROCKETRY-050,2,0,29.00,1013.25,794.0,-69.27,-1.67,-1.04,-2.66,903.15,12.906797,77.595902,12,0.6673,-32,1,3272608463,$
#,ASI-ROCKETRY-050,2,0,29.00,1013.25,789.0,-72.54,-1.66,-1.02,-3.27,903.15,12.906797,77.595902,12,0.1096,-32,1,1837465139,$
#,ASI-ROCKETRY-050,2,0,29.00,1013.25,789.0,-72.54,-1.55,-1.02,-3.04,903.15,12.906797,77.595902,12,0.1644,-32,1,4284506091,$
#,ASI-ROCKETRY-050,3,0,29.00,1013.25,799.0,-64.12,-1.58,-1.02,-2.86,903.15,12.906797,77.595902,12,0.8574,-32,1,452145254,$
#,ASI-ROCKETRY-050,3,0,29.00,1013.25,799.0,-64.12,-1.63,-1.06,-3.27,903.15,12.906797,77.595902,12,1.5279,-32,1,743145123,$
#,ASI-ROCKETRY-050,3,0,29.00,1013.25,804.0,-66.45,-1.59,-1.02,-2.81,903.15,12.906797,77.595902,12,0.1547,-32,1,4057370424,$
#,ASI-ROCKETRY-050,3,0,29.00,1013.25,804.0,-66.45,-1.62,-1.02,-2.15,903.15,12.906797,77.595902,12,1.5763,-32,1,255601867,$
#,ASI-ROCKETRY-050,3,0,29.00,1013.25,814.0,-62.62,-1.62,-1.04,-2.81,903.15,12.906797,77.595902,12,0.1563,-32,1,3756409402,$
#,ASI-ROCKETRY-050,3,0,29.00,1013.25,809.0,-63.09,-1.66,-1.06,-3.46,903.15,12.906797,77.595902,12,1.5166,-32,1,1662975174,$
#,ASI-ROCKETRY-050,3,0,29.00,1013.25,809.0,-63.09,-1.58,-1.06,-2.86,903.15,12.906797,77.595902,12,0.0612,-32,1,2583972601,$
#,ASI-ROCKETRY-050,3,0,29.00,1013.25,819.0,-67.05,-1.64,-1.04,-3.01,903.15,12.906797,77.595902,12,0.1386,-32,1,3527652156,$
#,ASI-ROCKETRY-050,3,0,29.00,1013.25,819.0,-67.05,-1.65,-1.02,-3.26,903.15,12.906797,77.595902,12,1.0895,-32,1,543663159,$
#,ASI-ROCKETRY-050,3,0,29.00,1013.25,824.0,-79.7,-1.60,-1.04,-2.90,903.15,12.906797,77.595902,12,0.8639,-32,1,180895270,$
#,ASI-ROCKETRY-050,3,0,29.00,1013.25,824.0,-79.7,-1.62,-1.04,-3.19,903.15,12.906797,77.595902,12,0.1579,-32,1,2780276620,$
#,ASI-ROCKETRY-050,3,0,29.00,1013.25,834.0,-77.34,-1.62,-1.00,-3.22,903.15,12.906797,77.595902,12,0.3352,-32,1,2180471780,$
#,ASI-ROCKETRY-050,3,0,29.00,1013.25,834.0,-77.34,-1.58,-1.08,-2.38,903.15,12.906797,77.595902,12,0.8365,-32,1,576920182,$
#,ASI-ROCKETRY-050,3,0,29.00,1013.25,829.0,-58.73,-1.62,-1.02,-2.77,903.15,12.906797,77.595902,12,0.0758,-32,1,1885401142,$
#,ASI-ROCKETRY-050,3,0,29.00,1013.25,829.0,-58.73,-1.65,-1.09,-3.97,903.15,12.906797,77.595902,12,0.6560,-32,1,428264418,$
#,ASI-ROCKETRY-050,3,0,29.00,1013.25,839.0,-67.98,-1.58,-1.04,-3.25,903.15,12.906797,77.595902,12,0.0467,-32,1,3780137206,$
#,ASI-ROCKETRY-050,3,0,29.00,1013.25,844.0,-78.31,-1.65,-1.05,-3.65,903.15,12.906797,77.595902,12,1.3345,-32,1,2566245134,$
#,ASI-ROCKETRY-050,3,0,29.00,1013.25,844.0,-78.31,-1.65,-1.05,-3.65,903.15,12.906797,77.595902,12,0.0000,-32,1,127410682,$
#,ASI-ROCKETRY-050,4,0,29.00,1013.25,854.0,-88.45,-1.63,-1.01,-3.46,903.15,12.906797,77.595902,12,0.1354,-32,1,3838095900,$
#,ASI-ROCKETRY-050,4,0,29.00,1013.25,854.0,-88.45,-1.63,-1.01,-3.46,903.15,12.906797,77.595902,12,0.3433,-32,1,2274900193,$
#,ASI-ROCKETRY-050,4,0,29.00,1013.25,849.0,-63.22,-1.59,-1.04,-3.51,903.15,12.906797,77.595902,12,0.9364,-32,1,2166354368,$
#,ASI-ROCKETRY-050,4,0,29.00,1013.25,849.0,-63.22,-1.55,-1.13,-3.38,903.15,12.906797,77.595902,12,0.9832,-32,1,2369992568,$
#,ASI-ROCKETRY-050,4,0,29.00,1013.25,859.0,-56.24,-1.62,-1.07,-3.50,903.15,12.906797,77.595902,12,0.0306,-32,1,709095507,$
#,ASI-ROCKETRY-050,4,0,29.00,1013.25,859.0,-56.24,-1.64,-0.97,-3.24,903.15,12.906797,77.595902,12,0.2901,-32,1,340068461,$
#,ASI-ROCKETRY-050,4,0,29.00,1013.25,864.0,-64.14,-1.61,-1.04,-3.13,903.15,12.906797,77.595902,12,0.0129,-32,1,3885436101,$
#,ASI-ROCKETRY-050,4,0,29.00,1013.25,864.0,-64.14,-1.61,-1.06,-3.25,903.15,12.906797,77.595902,12,0.1531,-32,1,3134497396,$
#,ASI-ROCKETRY-050,4,0,29.00,1013.25,874.0,-68.6,-1.64,-1.07,-3.38,903.15,12.906797,77.595902,12,0.0935,-32,1,989645124,$
#,ASI-ROCKETRY-050,4,0,29.00,1013.25,869.0,-65.35,-1.66,-1.04,-3.24,903.15,12.906797,77.595902,12,0.0016,-32,1,3305367027,$
#,ASI-ROCKETRY-050,4,0,29.00,1013.25,869.0,-65.35,-1.64,-0.99,-2.87,903.15,12.906797,77.595902,12,0.5689,-32,1,1170944283,$
#,ASI-ROCKETRY-050,4,0,29.00,1013.25,879.0,-64.99,-1.66,-1.05,-3.55,903.15,12.906797,77.595902,12,1.5473,-32,1,1641476780,$
#,ASI-ROCKETRY-050,4,0,29.00,1013.25,879.0,-64.99,-1.62,-1.00,-2.64,903.15,12.906797,77.595902,12,0.9445,-32,1,4273478316,$
#,ASI-ROCKETRY-050,4,0,29.00,1013.25,884.0,-63.07,-1.62,-1.03,-2.82,903.15,12.906797,77.595902,12,0.1579,-32,1,2868744691,$
#,ASI-ROCKETRY-050,4,0,29.00,1013.25,884.0,-63.07,-1.62,-1.04,-2.79,903.15,12.906797,77.595902,12,0.0048,-32,1,965475254,$
#,ASI-ROCKETRY-050,4,0,29.00,1013.25,894.0,-60.24,-1.60,-1.06,-2.83,903.15,12.906797,77.595902,12,0.3272,-32,1,1953841745,$
#,ASI-ROCKETRY-050,4,0,29.00,1013.25,894.0,-60.24,-1.57,-1.02,-2.92,903.15,12.906797,77.595902,12,0.0016,-32,1,241798368,$
#,ASI-ROCKETRY-050,4,0,29.00,1013.25,889.0,-67.41,-1.62,-1.02,-3.23,903.15,12.906797,77.595902,12,0.1741,-32,1,3905633662,$
#,ASI-ROCKETRY-050,5,0,29.00,1013.25,899.0,-66.23,-1.57,-1.05,-3.30,903.15,12.906797,77.595902,12,0.0596,-32,1,2749139649,$
#,ASI-ROCKETRY-050,5,0,29.00,1013.25,899.0,-66.23,-1.62,-1.04,-3.48,903.15,12.906797,77.595902,12,1.5456,-32,1,247148295,$
#,ASI-ROCKETRY-050,5,0,29.00,1013.25,904.0,-64.71,-1.60,-1.03,-2.80,903.15,12.906797,77.595902,12,1.5408,-32,1,4114508630,$
#,ASI-ROCKETRY-050,5,0,29.00,1013.25,904.0,-64.71,-1.58,-0.98,-3.40,903.15,12.906797,77.595902,12,0.0000,-32,1,1268440160,$
#,ASI-ROCKETRY-050,5,0,29.00,1013.25,914.0,-59.8,-1.60,-0.99,-3.43,903.15,12.906797,77.595902,12,0.1644,-32,1,1680085805,$
#,ASI-ROCKETRY-050,5,0,29.00,1013.25,914.0,-59.8,-1.62,-1.05,-3.25,903.15,12.906797,77.595902,12,0.7092,-32,1,2397308613,$
#,ASI-ROCKETRY-050,5,0,29.00,1013.25,909.0,-61.9,-1.57,-1.04,-3.55,903.15,12.906797,77.595902,12,1.0927,-32,1,2611778057,$
#,ASI-ROCKETRY-050,5,0,29.00,1013.25,909.0,-61.9,-1.58,-1.04,-2.83,903.15,12.906797,77.595902,12,0.0081,-32,1,734784611,$
#,ASI-ROCKETRY-050,5,0,29.00,1013.25,919.0,-60.78,-1.62,-1.05,-3.28,903.15,12.906797,77.595902,12,1.2233,-32,1,3137949643,$
#,ASI-ROCKETRY-050,5,0,29.00,1013.25,919.0,-60.78,-1.63,-1.09,-3.53,903.15,12.906797,77.595902,12,0.0484,-32,1,2108322948,$
#,ASI-ROCKETRY-050,5,0,29.00,1013.25,924.0,-61.92,-1.58,-1.06,-3.11,903.15,12.906797,77.595902,12,1.3377,-32,1,417622409,$
#,ASI-ROCKETRY-050,5,0,29.00,1013.25,934.0,-72.55,-1.56,-1.06,-3.31,903.15,12.906797,77.595902,12,0.1322,-32,1,3630114731,$
#,ASI-ROCKETRY-050,5,0,29.00,1013.25,934.0,-72.55,-1.63,-1.09,-3.51,903.15,12.906797,77.595902,12,0.7607,-32,1,1656256047,$
#,ASI-ROCKETRY-050,5,0,29.00,1013.25,929.0,-71.53,-1.60,-1.05,-3.12,903.15,12.906797,77.595902,12,1.5263,-32,1,996694098,$
#,ASI-ROCKETRY-050,5,0,29.00,1013.25,929.0,-71.53,-1.63,-1.02,-2.96,903.15,12.906797,77.595902,12,0.0000,-32,1,1314925187,$
#,ASI-ROCKETRY-050,5,0,29.00,1013.25,939.0,-60.36,-1.64,-1.08,-3.20,903.15,12.906797,77.595902,12,0.1579,-32,1,3887060540,$
#,ASI-ROCKETRY-050,5,0,29.00,1013.25,939.0,-60.36,-1.61,-1.03,-3.04,903.15,12.906797,77.595902,12,1.4941,-32,1,868742657,$
#,ASI-ROCKETRY-050,5,0,29.00,1013.25,944.0,-63.05,-1.62,-1.10,-2.54,903.15,12.906797,77.595902,12,0.2434,-32,1,2870736861,$
#,ASI-ROCKETRY-050,5,0,29.00,1013.25,944.0,-63.05,-1.65,-1.09,-3.07,903.15,12.906797,77.595902,12,0.1434,-32,1,4080715755,$
#,ASI-ROCKETRY-050,6,0,29.00,1013.25,954.0,-67.82,-1.62,-1.03,-2.91,903.15,12.906797,77.595902,12,1.5859,-32,1,1951768118,$
#,ASI-ROCKETRY-050,6,0,29.00,1013.25,954.0,-67.82,-1.64,-1.06,-2.91,903.15,12.906797,77.595902,12,0.1563,-32,1,2310263261,$
#,ASI-ROCKETRY-050,6,0,29.00,1013.25,949.0,-67.84,-1.62,-1.10,-3.40,903.15,12.906797,77.595902,12,1.5859,-32,1,961937169,$
#,ASI-ROCKETRY-050,6,0,29.00,1013.25,949.0,-67.84,-1.58,-1.03,-3.40,903.15,12.906797,77.595902,12,0.1547,-32,1,2778767339,$
#,ASI-ROCKETRY-050,6,0,29.00,1013.25,959.0,-63.32,-1.60,-1.04,-3.56,903.15,12.906797,77.595902,12,1.2668,-32,1,868257725,$
#,ASI-ROCKETRY-050,6,0,29.00,1013.25,964.0,-70.66,-1.62,-1.07,-3.26,903.15,12.906797,77.595902,12,0.1354,-32,1,3583782203,$
#,ASI-ROCKETRY-050,6,0,29.00,1013.25,964.0,-70.66,-1.61,-1.04,-3.54,903.15,12.906797,77.595902,12,0.1547,-32,1,2718561083,$
#,ASI-ROCKETRY-050,6,0,29.00,1013.25,974.0,-61.96,-1.62,-1.03,-3.43,903.15,12.906797,77.595902,12,1.5666,-32,1,1937062263,$
#,ASI-ROCKETRY-050,6,0,29.00,1013.25,974.0,-61.96,-1.62,-1.03,-3.43,903.15,12.906797,77.595902,12,0.0935,-32,1,2823316852,$
#,ASI-ROCKETRY-050,6,0,29.00,1013.25,969.0,-65.71,-1.62,-1.05,-3.20,903.15,12.906797,77.595902,12,0.1531,-32,1,1029631517,$
#,ASI-ROCKETRY-050,6,0,29.00,1013.25,969.0,-65.71,-1.62,-1.05,-3.20,903.15,12.906797,77.595902,12,0.0113,-32,1,1523237499,$
#,ASI-ROCKETRY-050,6,0,29.00,1013.25,979.0,-68.22,-1.58,-1.03,-3.73,903.15,12.906797,77.595902,12,1.5843,-32,1,4192502475,$
#,ASI-ROCKETRY-050,6,0,29.00,1013.25,979.0,-68.22,-1.67,-1.07,-3.41,903.15,12.906797,77.595902,12,0.1515,-32,1,849691312,$
#,ASI-ROCKETRY-050,6,0,29.00,1013.25,984.0,-65.33,-1.63,-1.04,-3.45,903.15,12.906797,77.595902,12,1.5827,-32,1,4210474719,$
#,ASI-ROCKETRY-050,6,0,29.00,1013.25,984.0,-65.33,-1.63,-1.04,-3.02,903.15,12.906797,77.595902,12,0.1499,-32,1,3066741768,$
#,ASI-ROCKETRY-050,6,0,29.00,1013.25,994.0,-64.97,-1.60,-1.06,-3.31,903.15,12.906797,77.595902,12,1.5875,-32,1,1995872076,$
#,ASI-ROCKETRY-050,6,0,29.00,1013.25,989.0,-60.63,-1.61,-1.00,-3.95,903.15,12.906797,77.595902,12,1.5150,-32,1,3345560125,$
#,ASI-ROCKETRY-050,6,0,29.00,1013.25,989.0,-60.63,-1.62,-1.12,-3.31,903.15,12.906797,77.595902,12,0.1338,-32,1,2581112305,$
#,ASI-ROCKETRY-050,7,0,29.00,1013.25,999.0,-61.55,-1.63,-1.04,-3.61,903.15,12.906797,77.595902,12,0.0387,-32,1,4183621889,$
#,ASI-ROCKETRY-050,7,0,29.00,1013.25,999.0,-61.55,-1.61,-1.03,-3.46,903.15,12.906797,77.595902,12,0.6737,-32,1,2938086672,$
#,ASI-ROCKETRY-050,7,0,29.00,1013.25,1004.0,-75.78,-1.56,-1.00,-3.36,903.15,12.906797,77.595902,12,1.5311,-32,1,1943609661,$
#,ASI-ROCKETRY-050,7,0,29.00,1013.25,1004.0,-75.78,-1.66,-1.00,-2.74,903.15,12.906797,77.595902,12,0.1257,-32,1,3865789525,$
#,ASI-ROCKETRY-050,7,0,29.00,1013.25,1014.0,-63.74,-1.63,-1.10,-3.05,903.15,12.906797,77.595902,12,1.1282,-32,1,3696557100,$
#,ASI-ROCKETRY-050,7,0,29.00,1013.25,1014.0,-63.74,-1.55,-1.05,-3.71,903.15,12.906797,77.595902,12,0.0951,-32,1,2750605113,$
#,ASI-ROCKETRY-050,7,0,29.00,1013.25,1009.0,-70.46,-1.62,-1.05,-3.33,903.15,12.906797,77.595902,12,0.8687,-32,1,3250563491,$
#,ASI-ROCKETRY-050,7,0,29.00,1013.25,1019.0,-69.46,-1.59,-1.00,-4.24,903.15,12.906797,77.595902,12,0.1273,-32,1,1552667778,$
#,ASI-ROCKETRY-050,7,0,29.00,1013.25,1019.0,-69.46,-1.60,-1.00,-4.49,903.15,12.906797,77.595902,12,0.0451,-32,1,3120941616,$
#,ASI-ROCKETRY-050,7,0,29.00,1013.25,1024.0,-68.99,-1.64,-1.01,-3.75,903.15,12.906797,77.595902,12,1.5440,-32,1,1755036453,$
#,ASI-ROCKETRY-050,7,0,29.00,1013.25,1024.0,-68.99,-1.58,-1.06,-4.11,903.15,12.906797,77.595902,12,0.0000,-32,1,1206890301,$
#,ASI-ROCKETRY-050,7,0,29.00,1013.25,1034.0,-75.78,-1.61,-1.07,-3.28,903.15,12.906797,77.595902,12,0.1096,-32,1,1627592358,$
#,ASI-ROCKETRY-050,7,0,29.00,1013.25,1034.0,-75.78,-1.59,-1.03,-3.14,903.15,12.906797,77.595902,12,0.3272,-32,1,262014819,$
#,ASI-ROCKETRY-050,7,0,29.00,1013.25,1029.0,-64.77,-1.63,-1.05,-2.71,903.15,12.906797,77.595902,12,1.5698,-32,1,2970341303,$
#,ASI-ROCKETRY-050,7,0,29.00,1013.25,1029.0,-64.77,-1.57,-1.04,-3.88,903.15,12.906797,77.595902,12,0.0000,-32,1,1092630220,$
#,ASI-ROCKETRY-050,7,0,29.00,1013.25,1039.0,-62.05,-1.59,-1.05,-3.22,903.15,12.906797,77.595902,12,0.0886,-32,1,4098523837,$
#,ASI-ROCKETRY-050,7,0,29.00,1013.25,1039.0,-62.05,-1.56,-1.07,-3.16,903.15,12.906797,77.595902,12,0.0709,-32,1,4133841171,$
#,ASI-ROCKETRY-050,7,0,29.00,1013.25,1044.0,-62.31,-1.65,-1.04,-3.77,903.15,12.906797,77.595902,12,1.0138,-32,1,3762436264,$
#,ASI-ROCKETRY-050,8,0,29.00,1013.25,1054.0,-68.12,-1.58,-1.03,-3.50,903.15,12.906797,77.595902,12,1.4683,-32,1,3837118035,$
#,ASI-ROCKETRY-050,8,0,29.00,1013.25,1054.0,-68.12,-1.60,-1.00,-3.18,903.15,12.906797,77.595902,12,0.0145,-32,1,3714829598,$
#,ASI-ROCKETRY-050,8,0,29.00,1013.25,1049.0,-71.82,-1.65,-0.97,-3.21,903.15,12.906797,77.595902,12,0.1434,-32,1,969926238,$
#,ASI-ROCKETRY-050,8,0,29.00,1013.25,1049.0,-71.82,-1.62,-1.05,-3.40,903.15,12.906797,77.595902,12,0.0081,-32,1,22127708,$
#,ASI-ROCKETRY-050,8,0,29.00,1013.25,1059.0,-59.27,-1.60,-1.11,-3.61,903.15,12.906797,77.595902,12,1.4715,-32,1,2372773069,$
#,ASI-ROCKETRY-050,8,0,29.00,1013.25,1059.0,-59.27,-1.65,-1.04,-3.65,903.15,12.906797,77.595902,12,1.2426,-32,1,4137733975,$
#,ASI-ROCKETRY-050,8,0,29.00,1013.25,1064.0,-75.27,-1.63,-1.00,-3.06,903.15,12.906797,77.595902,12,0.0822,-32,1,570039962,$
#,ASI-ROCKETRY-050,8,0,29.00,1013.25,1064.0,-75.27,-1.61,-1.05,-3.45,903.15,12.906797,77.595902,12,1.4457,-32,1,1384290088,$
#,ASI-ROCKETRY-050,8,0,29.00,1013.25,1074.0,-68.94,-1.56,-1.04,-3.28,903.15,12.906797,77.595902,12,0.0790,-32,1,746861510,$
#,ASI-ROCKETRY-050,8,0,29.00,1013.25,1069.0,-70.82,-1.65,-1.04,-3.27,903.15,12.906797,77.595902,12,0.8768,-32,1,2364283871,$
#,ASI-ROCKETRY-050,8,0,29.00,1013.25,1069.0,-70.82,-1.62,-1.07,-3.29,903.15,12.906797,77.595902,12,0.1386,-32,1,430508828,$
#,ASI-ROCKETRY-050,8,0,29.00,1013.25,1079.0,-78.13,-1.58,-1.02,-3.41,903.15,12.906797,77.595902,12,0.0564,-32,1,2298912297,$
#,ASI-ROCKETRY-050,8,0,29.00,1013.25,1079.0,-78.13,-1.64,-1.06,-3.25,903.15,12.906797,77.595902,12,1.5827,-32,1,2835692767,$
#,ASI-ROCKETRY-050,8,0,29.00,1013.25,1084.0,-61.89,-1.60,-1.07,-2.97,903.15,12.906797,77.595902,12,0.0967,-32,1,3997386467,$
#,ASI-ROCKETRY-050,8,0,29.00,1013.25,1084.0,-61.89,-1.62,-1.05,-3.22,903.15,12.906797,77.595902,12,0.0129,-32,1,2701885164,$
#,ASI-ROCKETRY-050,8,0,29.00,1013.25,1094.0,-65.32,-1.61,-1.12,-3.75,903.15,12.906797,77.595902,12,1.5875,-32,1,3341566140,$
#,ASI-ROCKETRY-050,8,0,29.00,1013.25,1094.0,-65.32,-1.63,-1.11,-3.67,903.15,12.906797,77.595902,12,0.0193,-32,1,4220978608,$
#,ASI-ROCKETRY-050,8,0,29.00,1013.25,1089.0,-69.55,-1.60,-1.03,-3.16,903.15,12.906797,77.595902,12,0.1579,-32,1,3263195486,$
#,ASI-ROCKETRY-050,9,0,29.00,1013.25,1089.0,-69.55,-1.66,-1.08,-4.00,903.15,12.906797,77.595902,12,1.5231,-32,1,3919223546,$
#,ASI-ROCKETRY-050,9,0,29.00,1013.25,1099.0,-71.26,-1.65,-1.04,-3.10,903.15,12.906797,77.595902,12,1.1492,-32,1,2788135072,$
#,ASI-ROCKETRY-050,9,0,29.00,1013.25,1099.0,-71.26,-1.65,-1.04,-3.10,903.15,12.906797,77.595902,12,1.5247,-32,1,367227686,$
#,ASI-ROCKETRY-050,9,0,29.00,1013.25,1104.0,-62.47,-1.58,-1.04,-3.16,903.15,12.906797,77.595902,12,0.1628,-32,1,1877645117,$
#,ASI-ROCKETRY-050,9,0,29.00,1013.25,1114.0,-66.04,-1.58,-1.04,-3.16,903.15,12.906797,77.595902,12,0.5286,-32,1,2730662129,$
#,ASI-ROCKETRY-050,9,0,29.00,1013.25,1114.0,-66.04,-1.61,-1.00,-3.79,903.15,12.906797,77.595902,12,0.0774,-32,1,3324515054,$
#,ASI-ROCKETRY-050,9,0,29.00,1013.25,1109.0,-64.45,-1.62,-1.06,-3.53,903.15,12.906797,77.595902,12,0.0806,-32,1,1984149001,$
#,ASI-ROCKETRY-050,9,0,29.00,1013.25,1109.0,-64.45,-1.62,-1.07,-4.11,903.15,12.906797,77.595902,12,1.5892,-32,1,377223846,$
#,ASI-ROCKETRY-050,9,0,29.00,1013.25,1119.0,-64.06,-1.60,-1.08,-3.73,903.15,12.906797,77.595902,12,0.0032,-32,1,1915493448,$
#,ASI-ROCKETRY-050,9,0,29.00,1013.25,1119.0,-64.06,-1.67,-1.04,-3.49,903.15,12.906797,77.595902,12,0.0677,-32,1,3791471539,$
#,ASI-ROCKETRY-050,9,0,29.00,1013.25,1124.0,-73.44,-1.57,-1.07,-3.58,903.15,12.906797,77.595902,12,1.5424,-32,1,631338938,$
#,ASI-ROCKETRY-050,9,0,29.00,1013.25,1124.0,-73.44,-1.59,-1.04,-3.40,903.15,12.906797,77.595902,12,0.0274,-32,1,3162878074,$
#,ASI-ROCKETRY-050,9,0,29.00,1013.25,1134.0,-76.52,-1.65,-1.06,-2.72,903.15,12.906797,77.595902,12,0.1386,-32,1,2057518090,$
#,ASI-ROCKETRY-050,9,0,29.00,1013.25,1134.0,-76.52,-1.65,-1.04,-3.39,903.15,12.906797,77.595902,12,0.1370,-32,1,1840907102,$
#,ASI-ROCKETRY-050,9,0,29.00,1013.25,1129.0,-61.53,-1.59,-1.01,-3.05,903.15,12.906797,77.595902,12,0.0000,-32,1,3771022154,$
#,ASI-ROCKETRY-050,9,0,29.00,1013.25,1129.0,-61.53,-1.65,-1.00,-3.62,903.15,12.906797,77.595902,12,0.1193,-32,1,2829561660,$
#,ASI-ROCKETRY-050,9,0,29.00,1013.25,1139.0,-65.08,-1.61,-1.07,-3.46,903.15,12.906797,77.595902,12,0.0000,-32,1,2928577307,$
#,ASI-ROCKETRY-050,9,0,29.00,1013.25,1144.0,-70.44,-1.66,-1.06,-4.08,903.15,12.906797,77.595902,12,0.0870,-32,1,1060697132,$
#,ASI-ROCKETRY-050,9,0,29.00,1013.25,1144.0,-70.44,-1.59,-1.04,-3.54,903.15,12.906797,77.595902,12,0.1177,-32,1,1484922953,$
#,ASI-ROCKETRY-050,10,0,29.00,1013.25,1154.0,-71.74,-1.62,-1.08,-4.13,903.15,12.906797,77.595902,12,0.0548,-32,1,2988628101,$
#,ASI-ROCKETRY-050,10,0,29.00,1013.25,1154.0,-71.74,-1.63,-1.06,-3.25,903.15,12.906797,77.595902,12,1.5424,-32,1,2520801472,$
#,ASI-ROCKETRY-050,10,0,29.00,1013.25,1149.0,-62.4,-1.63,-1.03,-3.30,903.15,12.906797,77.595902,12,0.1434,-32,1,1199483550,$
#,ASI-ROCKETRY-050,10,0,29.00,1013.25,1149.0,-62.4,-1.60,-1.07,-3.50,903.15,12.906797,77.595902,12,0.0064,-32,1,2580429468,$
#,ASI-ROCKETRY-050,10,0,29.00,1013.25,1159.0,-62.52,-1.58,-1.03,-4.02,903.15,12.906797,77.595902,12,1.4763,-32,1,1204478968,$
#,ASI-ROCKETRY-050,10,0,29.00,1013.25,1159.0,-62.52,-1.60,-1.04,-4.16,903.15,12.906797,77.595902,12,0.0387,-32,1,2377713733,$
#,ASI-ROCKETRY-050,10,0,29.00,1013.25,1164.0,-78.98,-1.62,-1.04,-3.28,903.15,12.906797,77.595902,12,0.1080,-32,1,1510425230,$
#,ASI-ROCKETRY-050,10,0,29.00,1013.25,1164.0,-78.98,-1.55,-1.07,-3.38,903.15,12.906797,77.595902,12,0.0854,-32,1,3975656445,$
#,ASI-ROCKETRY-050,10,0,29.00,1013.25,1174.0,-80.13,-1.60,-1.07,-4.22,903.15,12.906797,77.595902,12,1.4715,-32,1,1450870851,$
#,ASI-ROCKETRY-050,10,0,29.00,1013.25,1174.0,-80.13,-1.62,-1.05,-4.00,903.15,12.906797,77.595902,12,0.0854,-32,1,428120793,$
#,ASI-ROCKETRY-050,10,0,29.00,1013.25,1169.0,-72.99,-1.63,-1.11,-3.67,903.15,12.906797,77.595902,12,1.4828,-32,1,2082465448,$
#,ASI-ROCKETRY-050,10,0,29.00,1013.25,1179.0,-77.28,-1.59,-1.00,-3.72,903.15,12.906797,77.595902,12,0.0000,-32,1,1513256671,$
#,ASI-ROCKETRY-050,10,0,29.00,1013.25,1179.0,-77.28,-1.60,-1.04,-3.65,903.15,12.906797,77.595902,12,1.5940,-32,1,3750518515,$
#,ASI-ROCKETRY-050,10,0,29.00,1013.25,1184.0,-65.28,-1.64,-1.03,-3.93,903.15,12.906797,77.595902,12,0.0161,-32,1,3781761753,$
#,ASI-ROCKETRY-050,10,0,29.00,1013.25,1184.0,-65.28,-1.64,-1.03,-2.90,903.15,12.906797,77.595902,12,0.1402,-32,1,2763678833,$
#,ASI-ROCKETRY-050,10,0,29.00,1013.25,1194.0,-64.78,-1.61,-1.10,-3.84,903.15,12.906797,77.595902,12,1.5634,-32,1,2250315087,$
#,ASI-ROCKETRY-050,10,0,29.00,1013.25,1194.0,-64.78,-1.57,-1.04,-2.88,903.15,12.906797,77.595902,12,1.1475,-32,1,452999051,$
#,ASI-ROCKETRY-050,10,0,29.00,1013.25,1189.0,-58.2,-1.63,-1.09,-2.76,903.15,12.906797,77.595902,12,0.1418,-32,1,454762059,$
#,ASI-ROCKETRY-050,11,0,29.00,1013.25,1189.0,-58.2,-1.65,-1.03,-3.95,903.15,12.906797,77.595902,12,0.0903,-32,1,466666957,$
#,ASI-ROCKETRY-050,11,0,29.00,1013.25,1199.0,-64.13,-1.59,-1.03,-2.78,903.15,12.906797,77.595902,12,1.5859,-32,1,3226277587,$
#,ASI-ROCKETRY-050,11,0,29.00,1013.25,1204.0,-66.78,-1.62,-1.11,-4.21,903.15,12.906797,77.595902,12,0.1499,-32,1,2024921006,$
#,ASI-ROCKETRY-050,11,0,29.00,1013.25,1204.0,-66.78,-1.65,-1.02,-3.54,903.15,12.906797,77.595902,12,1.5843,-32,1,1709120546,$
#,ASI-ROCKETRY-050,11,0,29.00,1013.25,1214.0,-67.83,-1.62,-1.02,-3.76,903.15,12.906797,77.595902,12,0.1596,-32,1,1213204924,$
#,ASI-ROCKETRY-050,11,0,29.00,1013.25,1214.0,-67.83,-1.64,-1.02,-4.02,903.15,12.906797,77.595902,12,0.8397,-32,1,2649242158,$
#,ASI-ROCKETRY-050,11,0,29.00,1013.25,1209.0,-77.76,-1.61,-1.08,-3.26,903.15,12.906797,77.595902,12,1.5295,-32,1,3354087639,$
#,ASI-ROCKETRY-050,11,0,29.00,1013.25,1209.0,-77.76,-1.63,-1.03,-3.80,903.15,12.906797,77.595902,12,0.0919,-32,1,3332013856,$
#,ASI-ROCKETRY-050,11,0,29.00,1013.25,1219.0,-71.74,-1.60,-1.04,-3.39,903.15,12.906797,77.595902,12,0.0999,-32,1,928167003,$
#,ASI-ROCKETRY-050,11,0,29.00,1013.25,1219.0,-71.74,-1.63,-1.04,-2.88,903.15,12.906797,77.595902,12,1.4651,-32,1,1478943995,$
#,ASI-ROCKETRY-050,11,0,29.00,1013.25,1224.0,-74.73,-1.60,-1.07,-3.53,903.15,12.906797,77.595902,12,1.2958,-32,1,3209977666,$
#,ASI-ROCKETRY-050,11,0,29.00,1013.25,1224.0,-74.73,-1.60,-1.06,-3.72,903.15,12.906797,77.595902,12,0.0516,-32,1,536949481,$
#,ASI-ROCKETRY-050,11,0,29.00,1013.25,1234.0,-72.18,-1.65,-1.08,-3.81,903.15,12.906797,77.595902,12,0.6689,-32,1,4022073522,$
#,ASI-ROCKETRY-050,11,0,29.00,1013.25,1234.0,-72.18,-1.60,-1.03,-2.86,903.15,12.906797,77.595902,12,0.0371,-32,1,991009261,$
#,ASI-ROCKETRY-050,11,0,29.00,1013.25,1229.0,-70.39,-1.56,-1.04,-3.05,903.15,12.906797,77.595902,12,0.5061,-32,1,1838720899,$
#,ASI-ROCKETRY-050,11,0,29.00,1013.25,1239.0,-57.32,-1.63,-1.03,-4.14,903.15,12.906797,77.595902,12,0.1257,-32,1,994697100,$
#,ASI-ROCKETRY-050,11,0,29.00,1013.25,1239.0,-57.32,-1.63,-1.03,-4.14,903.15,12.906797,77.595902,12,0.1273,-32,1,2367945954,$
#,ASI-ROCKETRY-050,11,0,29.00,1013.25,1244.0,-62.67,-1.60,-1.02,-4.47,903.15,12.906797,77.595902,12,1.5892,-32,1,3296910045,$
#,ASI-ROCKETRY-050,12,0,29.00,1013.25,1244.0,-62.67,-1.65,-1.03,-3.51,903.15,12.906797,77.595902,12,0.0000,-32,1,3483392703,$
#,ASI-ROCKETRY-050,12,0,29.00,1013.25,1254.0,-60.74,-1.62,-1.01,-3.54,903.15,12.906797,77.595902,12,0.1596,-32,1,844788135,$
#,ASI-ROCKETRY-050,12,0,29.00,1013.25,1254.0,-60.74,-1.59,-1.04,-3.03,903.15,12.906797,77.595902,12,0.0806,-32,1,3214107887,$
#,ASI-ROCKETRY-050,12,0,29.00,1013.25,1249.0,-82.61,-1.63,-1.00,-3.73,903.15,12.906797,77.595902,12,1.1621,-32,1,3539594309,$
#,ASI-ROCKETRY-050,12,0,29.00,1013.25,1249.0,-82.61,-1.61,-1.08,-4.06,903.15,12.906797,77.595902,12,0.0983,-32,1,627756658,$
#,ASI-ROCKETRY-050,12,0,29.00,1013.25,1259.0,-70.11,-1.61,-0.99,-3.94,903.15,12.906797,77.595902,12,0.1338,-32,1,3786687678,$
#,ASI-ROCKETRY-050,12,0,29.00,1013.25,1259.0,-70.11,-1.66,-1.09,-3.49,903.15,12.906797,77.595902,12,0.0000,-32,1,3721867080,$
#,ASI-ROCKETRY-050,12,0,29.00,1013.25,1264.0,-61.35,-1.62,-1.07,-4.01,903.15,12.906797,77.595902,12,0.1080,-32,1,4162443421,$
#,ASI-ROCKETRY-050,12,0,29.00,1013.25,1274.0,-59.35,-1.61,-0.99,-3.69,903.15,12.906797,77.595902,12,0.0000,-32,1,2100491976,$
#,ASI-ROCKETRY-050,12,0,29.00,1013.25,1274.0,-59.35,-1.62,-1.04,-2.90,903.15,12.906797,77.595902,12,0.4416,-32,1,4179302915,$
#,ASI-ROCKETRY-050,12,0,29.00,1013.25,1269.0,-70.5,-1.60,-1.08,-3.70,903.15,12.906797,77.595902,12,1.5311,-32,1,670244266,$
#,ASI-ROCKETRY-050,12,0,29.00,1013.25,1269.0,-70.5,-1.57,-1.03,-2.99,903.15,12.906797,77.595902,12,0.0854,-32,1,1892779023,$
#,ASI-ROCKETRY-050,12,0,29.00,1013.25,1279.0,-63.52,-1.62,-1.04,-3.60,903.15,12.906797,77.595902,12,0.1467,-32,1,700980928,$
#,ASI-ROCKETRY-050,12,0,29.00,1013.25,1279.0,-63.52,-1.63,-1.08,-3.30,903.15,12.906797,77.595902,12,0.0081,-32,1,931996827,$
#,ASI-ROCKETRY-050,12,0,29.00,1013.25,1284.0,-66.01,-1.63,-1.10,-2.92,903.15,12.906797,77.595902,12,1.5763,-32,1,3899462247,$
#,ASI-ROCKETRY-050,12,0,29.00,1013.25,1284.0,-66.01,-1.61,-1.01,-2.88,903.15,12.906797,77.595902,12,0.9638,-32,1,1018929230,$
#,ASI-ROCKETRY-050,12,0,29.00,1013.25,1294.0,-69.27,-1.61,-1.06,-2.97,903.15,12.906797,77.595902,12,0.0145,-32,1,4278219514,$
#,ASI-ROCKETRY-050,12,0,29.00,1013.25,1289.0,-73.92,-1.61,-1.09,-4.33,903.15,12.906797,77.595902,12,1.2056,-32,1,1182840337,$
#,ASI-ROCKETRY-050,12,0,29.00,1013.25,1289.0,-73.92,-1.64,-1.02,-2.93,903.15,12.906797,77.595902,12,0.0274,-32,1,3356328999,$
#,ASI-ROCKETRY-050,13,0,29.00,1013.25,1299.0,-85.58,-1.57,-1.06,-3.95,903.15,12.906797,77.595902,12,0.1322,-32,1,2229135199,$
#,ASI-ROCKETRY-050,13,0,29.00,1013.25,1299.0,-85.58,-1.58,-1.07,-3.16,903.15,12.906797,77.595902,12,0.1499,-32,1,3845990231,$
#,ASI-ROCKETRY-050,13,0,29.00,1013.25,1304.0,-74.3,-1.62,-1.06,-3.87,903.15,12.906797,77.595902,12,0.1144,-32,1,904422276,$
#,ASI-ROCKETRY-050,13,0,29.00,1013.25,1304.0,-74.3,-1.63,-0.99,-4.41,903.15,12.906797,77.595902,12,1.5182,-32,1,3421551109,$
#,ASI-ROCKETRY-050,13,0,29.00,1013.25,1314.0,-73.0,-1.54,-1.00,-3.89,903.15,12.906797,77.595902,12,0.1451,-32,1,2649042757,$
#,ASI-ROCKETRY-050,13,0,29.00,1013.25,1314.0,-73.0,-1.61,-0.99,-4.17,903.15,12.906797,77.595902,12,0.0403,-32,1,3472058733,$
#,ASI-ROCKETRY-050,13,0,29.00,1013.25,1309.0,-63.19,-1.61,-1.01,-3.81,903.15,12.906797,77.595902,12,1.5747,-32,1,1707233275,$
#,ASI-ROCKETRY-050,13,0,29.00,1013.25,1309.0,-63.19,-1.53,-1.03,-3.65,903.15,12.906797,77.595902,12,1.5150,-32,1,365109701,$
#,ASI-ROCKETRY-050,13,0,29.00,1013.25,1319.0,-63.33,-1.60,-1.07,-3.65,903.15,12.906797,77.595902,12,0.1177,-32,1,2059111227,$
#,ASI-ROCKETRY-050,13,0,29.00,1013.25,1324.0,-64.66,-1.60,-1.06,-3.99,903.15,12.906797,77.595902,12,1.5199,-32,1,2142312500,$
#,ASI-ROCKETRY-050,13,0,29.00,1013.25,1324.0,-64.66,-1.62,-1.02,-3.65,903.15,12.906797,77.595902,12,0.1386,-32,1,1574979169,$
#,ASI-ROCKETRY-050,13,0,29.00,1013.25,1334.0,-65.43,-1.62,-1.07,-4.17,903.15,12.906797,77.595902,12,1.5924,-32,1,1687647644,$
#,ASI-ROCKETRY-050,13,0,29.00,1013.25,1334.0,-65.43,-1.59,-1.05,-3.36,903.15,12.906797,77.595902,12,0.0000,-32,1,1078122125,$
#,ASI-ROCKETRY-050,13,0,29.00,1013.25,1329.0,-61.9,-1.56,-1.13,-3.31,903.15,12.906797,77.595902,12,0.1644,-32,1,2514400808,$
#,ASI-ROCKETRY-050,13,0,29.00,1013.25,1329.0,-61.9,-1.63,-1.04,-4.55,903.15,12.906797,77.595902,12,0.0999,-32,1,4012561647,$
#,ASI-ROCKETRY-050,13,0,29.00,1013.25,1339.0,-60.8,-1.60,-1.00,-3.61,903.15,12.906797,77.595902,12,1.5827,-32,1,1644348312,$
#,ASI-ROCKETRY-050,13,0,29.00,1013.25,1339.0,-60.8,-1.62,-1.05,-3.52,903.15,12.906797,77.595902,12,0.6431,-32,1,3626080047,$
#,ASI-ROCKETRY-050,13,0,29.00,1013.25,1344.0,-71.5,-1.59,-1.07,-3.62,903.15,12.906797,77.595902,12,0.1725,-32,1,2718303044,$
#,ASI-ROCKETRY-050,14,0,29.00,1013.25,1344.0,-71.5,-1.57,-1.02,-3.51,903.15,12.906797,77.595902,12,1.5811,-32,1,2687479802,$
#,ASI-ROCKETRY-050,14,0,29.00,1013.25,1354.0,-74.33,-1.63,-1.06,-3.59,903.15,12.906797,77.595902,12,0.1708,-32,1,4057599329,$
#,ASI-ROCKETRY-050,14,0,29.00,1013.25,1349.0,-68.03,-1.63,-1.07,-4.28,903.15,12.906797,77.595902,12,1.5859,-32,1,579021367,$
#,ASI-ROCKETRY-050,14,0,29.00,1013.25,1349.0,-68.03,-1.64,-1.04,-3.52,903.15,12.906797,77.595902,12,0.0419,-32,1,4257632524,$
#,ASI-ROCKETRY-050,14,0,29.00,1013.25,1359.0,-63.71,-1.64,-1.04,-3.52,903.15,12.906797,77.595902,12,0.1467,-32,1,3219242187,$
#,ASI-ROCKETRY-050,14,0,29.00,1013.25,1359.0,-63.71,-1.57,-1.04,-4.40,903.15,12.906797,77.595902,12,1.5843,-32,1,1080667267,$
#,ASI-ROCKETRY-050,14,0,29.00,1013.25,1364.0,-63.33,-1.57,-1.04,-4.40,903.15,12.906797,77.595902,12,0.1499,-32,1,1874272703,$
#,ASI-ROCKETRY-050,14,0,29.00,1013.25,1364.0,-63.33,-1.62,-1.05,-3.68,903.15,12.906797,77.595902,12,0.1612,-32,1,2246037586,$
#,ASI-ROCKETRY-050,14,0,29.00,1013.25,1374.0,-67.78,-1.65,-1.03,-3.48,903.15,12.906797,77.595902,12,0.1370,-32,1,336753027,$
#,ASI-ROCKETRY-050,14,0,29.00,1013.25,1374.0,-67.78,-1.59,-1.06,-3.50,903.15,12.906797,77.595902,12,1.5666,-32,1,7525342,$
#,ASI-ROCKETRY-050,14,0,29.00,1013.25,1369.0,-68.31,-1.60,-1.02,-3.76,903.15,12.906797,77.595902,12,0.1547,-32,1,817439565,$
#,ASI-ROCKETRY-050,14,0,29.00,1013.25,1379.0,-62.36,-1.60,-1.05,-3.41,903.15,12.906797,77.595902,12,1.5585,-32,1,3185214125,$
#,ASI-ROCKETRY-050,14,0,29.00,1013.25,1379.0,-62.36,-1.59,-0.99,-3.37,903.15,12.906797,77.595902,12,0.1579,-32,1,494657167,$
#,ASI-ROCKETRY-050,14,0,29.00,1013.25,1384.0,-76.37,-1.60,-1.05,-3.02,903.15,12.906797,77.595902,12,1.5311,-32,1,3324203960,$
#,ASI-ROCKETRY-050,14,0,29.00,1013.25,1384.0,-76.37,-1.62,-1.02,-3.08,903.15,12.906797,77.595902,12,1.1749,-32,1,638857635,$
#,ASI-ROCKETRY-050,14,0,29.00,1013.25,1394.0,-70.55,-1.59,-1.08,-3.55,903.15,12.906797,77.595902,12,0.1563,-32,1,1655353047,$
#,ASI-ROCKETRY-050,14,0,29.00,1013.25,1394.0,-70.55,-1.62,-1.05,-3.55,903.15,12.906797,77.595902,12,0.1257,-32,1,2620101243,$
#,ASI-ROCKETRY-050,14,0,29.00,1013.25,1389.0,-68.25,-1.64,-1.06,-4.00,903.15,12.906797,77.595902,12,1.4119,-32,1,561011482,$
#,ASI-ROCKETRY-050,15,0,29.00,1013.25,1389.0,-68.25,-1.61,-1.00,-3.30,903.15,12.906797,77.595902,12,1.5714,-32,1,4080355231,$
#,ASI-ROCKETRY-050,15,0,29.00,1013.25,1399.0,-61.42,-1.62,-1.07,-3.56,903.15,12.906797,77.595902,12,0.0596,-32,1,360164731,$
#,ASI-ROCKETRY-050,15,0,29.00,1013.25,1404.0,-85.74,-1.64,-1.03,-3.09,903.15,12.906797,77.595902,12,0.6221,-32,1,258032232,$
#,ASI-ROCKETRY-050,15,0,29.00,1013.25,1404.0,-85.74,-1.62,-1.02,-3.60,903.15,12.906797,77.595902,12,0.0258,-32,1,2346913791,$
#,ASI-ROCKETRY-050,15,0,29.00,1013.25,1414.0,-62.12,-1.59,-0.98,-3.36,903.15,12.906797,77.595902,12,1.1443,-32,1,2326509771,$
#,ASI-ROCKETRY-050,15,0,29.00,1013.25,1414.0,-62.12,-1.65,-1.03,-3.44,903.15,12.906797,77.595902,12,0.5174,-32,1,3693157445,$
#,ASI-ROCKETRY-050,15,0,29.00,1013.25,1409.0,-61.21,-1.60,-1.04,-4.18,903.15,12.906797,77.595902,12,0.1531,-32,1,3753392681,$
#,ASI-ROCKETRY-050,15,0,29.00,1013.25,1409.0,-61.21,-1.61,-1.03,-3.38,903.15,12.906797,77.595902,12,0.0467,-32,1,1653754923,$
#,ASI-ROCKETRY-050,15,0,29.00,1013.25,1419.0,-60.89,-1.61,-1.00,-3.87,903.15,12.906797,77.595902,12,1.5505,-32,1,2792697948,$
#,ASI-ROCKETRY-050,15,0,29.00,1013.25,1419.0,-60.89,-1.61,-1.07,-3.84,903.15,12.906797,77.595902,12,0.9622,-32,1,3454963832,$
#,ASI-ROCKETRY-050,15,0,29.00,1013.25,1424.0,-63.33,-1.56,-1.01,-3.25,903.15,12.906797,77.595902,12,0.1563,-32,1,3057513678,$
#,ASI-ROCKETRY-050,15,0,29.00,1013.25,1424.0,-63.33,-1.64,-1.03,-3.32,903.15,12.906797,77.595902,12,0.0032,-32,1,1232550572,$
#,ASI-ROCKETRY-050,15,0,29.00,1013.25,1434.0,-63.3,-1.61,-1.04,-3.60,903.15,12.906797,77.595902,12,0.6785,-32,1,735847922,$
#,ASI-ROCKETRY-050,15,0,29.00,1013.25,1429.0,-73.18,-1.56,-1.03,-3.69,903.15,12.906797,77.595902,12,0.0113,-32,1,646148754,$
#,ASI-ROCKETRY-050,15,0,29.00,1013.25,1429.0,-73.18,-1.54,-1.06,-3.61,903.15,12.906797,77.595902,12,0.8042,-32,1,2227484156,$
#,ASI-ROCKETRY-050,15,0,29.00,1013.25,1439.0,-74.85,-1.61,-1.07,-3.19,903.15,12.906797,77.595902,12,0.0097,-32,1,1606107888,$
#,ASI-ROCKETRY-050,15,0,29.00,1013.25,1439.0,-74.85,-1.66,-1.06,-4.22,903.15,12.906797,77.595902,12,0.1789,-32,1,2462750728,$
#,ASI-ROCKETRY-050,15,0,29.00,1013.25,1444.0,-64.3,-1.72,-1.11,-3.78,903.15,12.906797,77.595902,12,0.1354,-32,1,4246873013,$
#,ASI-ROCKETRY-050,16,0,29.00,1013.25,1444.0,-64.3,-1.61,-1.05,-3.76,903.15,12.906797,77.595902,12,1.5859,-32,1,3905464006,$
#,ASI-ROCKETRY-050,16,0,29.00,1013.25,1454.0,-86.25,-1.59,-1.06,-3.54,903.15,12.906797,77.595902,12,0.7172,-32,1,3522427557,$
#,ASI-ROCKETRY-050,16,0,29.00,1013.25,1454.0,-86.25,-1.61,-1.00,-3.70,903.15,12.906797,77.595902,12,0.1644,-32,1,171823635,$
#,ASI-ROCKETRY-050,16,0,29.00,1013.25,1449.0,-75.06,-1.59,-1.06,-3.58,903.15,12.906797,77.595902,12,0.4755,-32,1,3754365560,$
#,ASI-ROCKETRY-050,16,0,29.00,1013.25,1449.0,-75.06,-1.62,-1.04,-3.58,903.15,12.906797,77.595902,12,1.2571,-32,1,3776695414,$
#,ASI-ROCKETRY-050,16,0,29.00,1013.25,1459.0,-61.14,-1.63,-1.00,-3.76,903.15,12.906797,77.595902,12,0.1547,-32,1,2560910970,$
#,ASI-ROCKETRY-050,16,0,29.00,1013.25,1459.0,-61.14,-1.61,-0.98,-2.99,903.15,12.906797,77.595902,12,0.1096,-32,1,729860968,$
#,ASI-ROCKETRY-050,16,0,29.00,1013.25,1464.0,-58.48,-1.60,-1.01,-2.91,903.15,12.906797,77.595902,12,1.5247,-32,1,270535682,$
#,ASI-ROCKETRY-050,16,0,29.00,1013.25,1464.0,-58.48,-1.60,-1.01,-3.83,903.15,12.906797,77.595902,12,0.1370,-32,1,1082302164,$
#,ASI-ROCKETRY-050,16,0,29.00,1013.25,1474.0,-57.85,-1.60,-1.00,-3.48,903.15,12.906797,77.595902,12,1.5875,-32,1,153372381,$
#,ASI-ROCKETRY-050,16,0,29.00,1013.25,1469.0,-71.26,-1.54,-1.10,-3.16,903.15,12.906797,77.595902,12,0.1563,-32,1,3294912515,$
#,ASI-ROCKETRY-050,16,0,29.00,1013.25,1469.0,-71.26,-1.61,-1.08,-3.48,903.15,12.906797,77.595902,12,1.5763,-32,1,1022324872,$
#,ASI-ROCKETRY-050,16,0,29.00,1013.25,1479.0,-69.49,-1.63,-1.08,-2.95,903.15,12.906797,77.595902,12,0.1676,-32,1,645790894,$
#,ASI-ROCKETRY-050,16,0,29.00,1013.25,1479.0,-69.49,-1.63,-1.08,-3.73,903.15,12.906797,77.595902,12,0.7914,-32,1,1406364978,$
#,ASI-ROCKETRY-050,16,0,29.00,1013.25,1484.0,-59.75,-1.58,-1.01,-3.22,903.15,12.906797,77.595902,12,1.5344,-32,1,659323410,$
#,ASI-ROCKETRY-050,16,0,29.00,1013.25,1484.0,-59.75,-1.62,-1.03,-3.98,903.15,12.906797,77.595902,12,0.1080,-32,1,4283235104,$
#,ASI-ROCKETRY-050,16,0,29.00,1013.25,1494.0,-72.43,-1.63,-1.07,-3.40,903.15,12.906797,77.595902,12,0.0129,-32,1,4251466862,$
#,ASI-ROCKETRY-050,16,0,29.00,1013.25,1494.0,-72.43,-1.65,-1.08,-3.43,903.15,12.906797,77.595902,12,0.5383,-32,1,3822724901,$
#,ASI-ROCKETRY-050,16,0,29.00,1013.25,1489.0,-64.15,-1.65,-1.08,-3.43,903.15,12.906797,77.595902,12,1.5344,-32,1,301504342,$
#,ASI-ROCKETRY-050,17,0,29.00,1013.25,1489.0,-64.15,-1.58,-1.02,-4.25,903.15,12.906797,77.595902,12,0.0999,-32,1,3535916269,$
#,ASI-ROCKETRY-050,17,0,29.00,1013.25,1499.0,-61.45,-1.58,-1.02,-4.25,903.15,12.906797,77.595902,12,0.1628,-32,1,2423519268,$
#,ASI-ROCKETRY-050,17,0,29.00,1013.25,1504.0,-63.05,-1.62,-1.04,-3.64,903.15,12.906797,77.595902,12,0.7011,-32,1,2687520418,$
#,ASI-ROCKETRY-050,17,0,29.00,1013.25,1504.0,-63.05,-1.62,-1.04,-3.64,903.15,12.906797,77.595902,12,0.1644,-32,1,3303827116,$
#,ASI-ROCKETRY-050,17,0,29.00,1013.25,1514.0,-65.91,-1.61,-1.05,-3.47,903.15,12.906797,77.595902,12,0.0000,-32,1,2135515576,$
#,ASI-ROCKETRY-050,17,0,29.00,1013.25,1514.0,-65.91,-1.65,-1.02,-3.29,903.15,12.906797,77.595902,12,0.0032,-32,1,858705996,$
#,ASI-ROCKETRY-050,17,0,29.00,1013.25,1509.0,-84.82,-1.60,-1.05,-3.07,903.15,12.906797,77.595902,12,0.5560,-32,1,3126122648,$
#,ASI-ROCKETRY-050,17,0,29.00,1013.25,1509.0,-84.82,-1.63,-1.11,-3.93,903.15,12.906797,77.595902,12,1.1911,-32,1,3835361210,$
#,ASI-ROCKETRY-050,17,0,29.00,1013.25,1519.0,-65.77,-1.62,-1.03,-3.03,903.15,12.906797,77.595902,12,0.0951,-32,1,1338170450,$
#,ASI-ROCKETRY-050,17,0,29.00,1013.25,1519.0,-65.77,-1.61,-1.03,-3.37,903.15,12.906797,77.595902,12,0.0258,-32,1,3923487800,$
#,ASI-ROCKETRY-050,17,0,29.00,1013.25,1524.0,-69.03,-1.60,-1.01,-3.32,903.15,12.906797,77.595902,12,1.4634,-32,1,1313367237,$
#,ASI-ROCKETRY-050,17,0,29.00,1013.25,1524.0,-69.03,-1.63,-1.01,-3.76,903.15,12.906797,77.595902,12,0.2788,-32,1,949372046,$
#,ASI-ROCKETRY-050,17,0,29.00,1013.25,1534.0,-65.17,-1.60,-1.04,-3.85,903.15,12.906797,77.595902,12,0.0081,-32,1,1440170471,$
#,ASI-ROCKETRY-050,17,0,29.00,1013.25,1529.0,-63.3,-1.60,-1.03,-3.49,903.15,12.906797,77.595902,12,0.7349,-32,1,1820644231,$
#,ASI-ROCKETRY-050,17,0,29.00,1013.25,1529.0,-63.3,-1.64,-1.04,-3.82,903.15,12.906797,77.595902,12,0.0129,-32,1,830836821,$
#,ASI-ROCKETRY-050,17,0,29.00,1013.25,1539.0,-64.94,-1.62,-1.00,-3.93,903.15,12.906797,77.595902,12,0.9461,-32,1,4064785249,$
#,ASI-ROCKETRY-050,17,0,29.00,1013.25,1539.0,-64.94,-1.59,-1.00,-3.03,903.15,12.906797,77.595902,12,0.1273,-32,1,2502377006,$
#,ASI-ROCKETRY-050,17,0,29.00,1013.25,1544.0,-56.46,-1.61,-1.07,-3.33,903.15,12.906797,77.595902,12,1.2442,-32,1,1744147753,$
#,ASI-ROCKETRY-050,18,0,29.00,1013.25,1544.0,-56.46,-1.59,-1.05,-3.22,903.15,12.906797,77.595902,12,1.4344,-32,1,37191707,$
#,ASI-ROCKETRY-050,18,0,29.00,1013.25,1554.0,-67.49,-1.61,-1.05,-3.55,903.15,12.906797,77.595902,12,0.0564,-32,1,2654719331,$
#,ASI-ROCKETRY-050,18,0,29.00,1013.25,1554.0,-67.49,-1.61,-1.06,-2.98,903.15,12.906797,77.595902,12,0.0258,-32,1,2059078885,$
#,ASI-ROCKETRY-050,18,0,29.00,1013.25,1549.0,-74.98,-1.62,-1.03,-3.25,903.15,12.906797,77.595902,12,0.9509,-32,1,3634037444,$
#,ASI-ROCKETRY-050,18,0,29.00,1013.25,1549.0,-74.98,-1.58,-1.04,-3.36,903.15,12.906797,77.595902,12,1.5021,-32,1,1807305845,$
#,ASI-ROCKETRY-050,18,0,29.00,1013.25,1559.0,-64.74,-1.58,-1.03,-4.23,903.15,12.906797,77.595902,12,0.1338,-32,1,1702436356,$
#,ASI-ROCKETRY-050,18,0,29.00,1013.25,1564.0,-70.88,-1.58,-1.06,-4.48,903.15,12.906797,77.595902,12,1.5295,-32,1,2316178741,$
#,ASI-ROCKETRY-050,18,0,29.00,1013.25,1564.0,-70.88,-1.63,-1.04,-3.84,903.15,12.906797,77.595902,12,0.1467,-32,1,230523414,$
#,ASI-ROCKETRY-050,18,0,29.00,1013.25,1574.0,-66.85,-1.63,-1.07,-3.68,903.15,12.906797,77.595902,12,0.3143,-32,1,57014117,$
#,ASI-ROCKETRY-050,18,0,29.00,1013.25,1574.0,-66.85,-1.60,-1.07,-3.38,903.15,12.906797,77.595902,12,0.1579,-32,1,375494975,$
#,ASI-ROCKETRY-050,18,0,29.00,1013.25,1569.0,-86.03,-1.62,-1.04,-4.26,903.15,12.906797,77.595902,12,0.8574,-32,1,2647071488,$
#,ASI-ROCKETRY-050,18,0,29.00,1013.25,1569.0,-86.03,-1.67,-1.00,-5.08,903.15,12.906797,77.595902,12,1.5215,-32,1,1654098696,$
#,ASI-ROCKETRY-050,18,0,29.00,1013.25,1579.0,-86.66,-1.62,-1.01,-4.78,903.15,12.906797,77.595902,12,0.1386,-32,1,112896511,$
#,ASI-ROCKETRY-050,18,0,29.00,1013.25,1579.0,-86.66,-1.59,-1.01,-4.03,903.15,12.906797,77.595902,12,0.0645,-32,1,235408544,$
#,ASI-ROCKETRY-050,18,0,29.00,1013.25,1584.0,-83.97,-1.54,-1.03,-3.07,903.15,12.906797,77.595902,12,0.7672,-32,1,2836057003,$
#,ASI-ROCKETRY-050,18,0,29.00,1013.25,1584.0,-83.97,-1.59,-1.09,-3.69,903.15,12.906797,77.595902,12,1.0105,-32,1,3706864202,$
#,ASI-ROCKETRY-050,18,0,29.00,1013.25,1594.0,-71.01,-1.61,-1.07,-3.72,903.15,12.906797,77.595902,12,0.1612,-32,1,3372635556,$
#,ASI-ROCKETRY-050,18,0,29.00,1013.25,1589.0,-69.57,-1.63,-1.02,-2.94,903.15,12.906797,77.595902,12,1.5875,-32,1,932415339,$
#,ASI-ROCKETRY-050,19,0,29.00,1013.25,1589.0,-69.57,-1.64,-1.06,-3.59,903.15,12.906797,77.595902,12,0.1612,-32,1,3449642876,$
#,ASI-ROCKETRY-050,19,0,29.00,1013.25,1599.0,-72.33,-1.60,-1.04,-3.78,903.15,12.906797,77.595902,12,1.5859,-32,1,4002502755,$
#,ASI-ROCKETRY-050,19,0,29.00,1013.25,1599.0,-72.33,-1.60,-1.01,-3.31,903.15,12.906797,77.595902,12,0.0000,-32,1,1325929681,$
#,ASI-ROCKETRY-050,19,0,29.00,1013.25,1604.0,-74.05,-1.66,-1.05,-4.06,903.15,12.906797,77.595902,12,0.1692,-32,1,2125498156,$
#,ASI-ROCKETRY-050,19,0,29.00,1013.25,1604.0,-74.05,-1.65,-1.06,-3.71,903.15,12.906797,77.595902,12,1.3829,-32,1,3356809817,$
#,ASI-ROCKETRY-050,19,0,29.00,1013.25,1614.0,-61.71,-1.64,-0.98,-4.13,903.15,12.906797,77.595902,12,1.3700,-32,1,3769944480,$
#,ASI-ROCKETRY-050,19,0,29.00,1013.25,1614.0,-61.71,-1.64,-1.05,-3.51,903.15,12.906797,77.595902,12,0.0000,-32,1,3601780927,$
#,ASI-ROCKETRY-050,19,0,29.00,1013.25,1609.0,-61.0,-1.60,-1.07,-4.19,903.15,12.906797,77.595902,12,0.1418,-32,1,3379171783,$
#,ASI-ROCKETRY-050,19,0,29.00,1013.25,1619.0,-61.12,-1.57,-1.01,-3.92,903.15,12.906797,77.595902,12,1.2088,-32,1,7773064,$
#,ASI-ROCKETRY-050,19,0,29.00,1013.25,1619.0,-61.12,-1.58,-1.05,-2.91,903.15,12.906797,77.595902,12,0.1048,-32,1,4049515250,$
#,ASI-ROCKETRY-050,19,0,29.00,1013.25,1624.0,-66.05,-1.58,-1.01,-4.02,903.15,12.906797,77.595902,12,0.0403,-32,1,1330214809,$
#,ASI-ROCKETRY-050,19,0,29.00,1013.25,1624.0,-66.05,-1.60,-1.03,-4.72,903.15,12.906797,77.595902,12,0.1451,-32,1,3048213307,$
#,ASI-ROCKETRY-050,19,0,29.00,1013.25,1634.0,-66.9,-1.60,-1.03,-4.72,903.15,12.906797,77.595902,12,0.0709,-32,1,1788682230,$
#,ASI-ROCKETRY-050,19,0,29.00,1013.25,1634.0,-66.9,-1.58,-1.08,-4.50,903.15,12.906797,77.595902,12,0.7172,-32,1,1397692595,$
#,ASI-ROCKETRY-050,19,0,29.00,1013.25,1629.0,-58.36,-1.61,-1.10,-4.12,903.15,12.906797,77.595902,12,1.5859,-32,1,740566106,$
#,ASI-ROCKETRY-050,19,0,29.00,1013.25,1629.0,-58.36,-1.53,-1.07,-3.68,903.15,12.906797,77.595902,12,0.0000,-32,1,48824211,$
#,ASI-ROCKETRY-050,19,0,29.00,1013.25,1639.0,-62.01,-1.64,-1.06,-4.14,903.15,12.906797,77.595902,12,0.1789,-32,1,1040835463,$
#,ASI-ROCKETRY-050,19,0,29.00,1013.25,1644.0,-63.97,-1.61,-1.02,-3.84,903.15,12.906797,77.595902,12,0.3836,-32,1,2279682259,$
#,ASI-ROCKETRY-050,20,0,29.00,1013.25,1644.0,-63.97,-1.58,-1.04,-4.58,903.15,12.906797,77.595902,12,0.0000,-32,1,2507893855,$
#,ASI-ROCKETRY-050,20,0,29.00,1013.25,1654.0,-63.45,-1.58,-1.04,-3.97,903.15,12.906797,77.595902,12,0.1628,-32,1,653826395,$
#,ASI-ROCKETRY-050,20,0,29.00,1013.25,1654.0,-63.45,-1.56,-1.01,-3.51,903.15,12.906797,77.595902,12,0.0000,-32,1,2424777553,$
#,ASI-ROCKETRY-050,20,0,29.00,1013.25,1649.0,-64.99,-1.59,-1.09,-3.70,903.15,12.906797,77.595902,12,0.1015,-32,1,3422919839,$
#,ASI-ROCKETRY-050,20,0,29.00,1013.25,1649.0,-64.99,-1.62,-1.03,-4.00,903.15,12.906797,77.595902,12,0.0564,-32,1,380199071,$
#,ASI-ROCKETRY-050,20,0,29.00,1013.25,1659.0,-66.22,-1.60,-1.06,-3.48,903.15,12.906797,77.595902,12,0.0048,-32,1,1806984849,$
#,ASI-ROCKETRY-050,20,0,29.00,1013.25,1659.0,-66.22,-1.57,-1.04,-4.21,903.15,12.906797,77.595902,12,1.3555,-32,1,1281080229,$
#,ASI-ROCKETRY-050,20,0,29.00,1013.25,1664.0,-77.4,-1.64,-1.06,-3.47,903.15,12.906797,77.595902,12,0.5673,-32,1,1049681112,$
#,ASI-ROCKETRY-050,20,0,29.00,1013.25,1664.0,-77.4,-1.61,-1.05,-4.34,903.15,12.906797,77.595902,12,0.1741,-32,1,1653974344,$
#,ASI-ROCKETRY-050,20,0,29.00,1013.25,1674.0,-63.73,-1.64,-1.04,-3.01,903.15,12.906797,77.595902,12,0.0161,-32,1,939706565,$
#,ASI-ROCKETRY-050,20,0,29.00,1013.25,1674.0,-63.73,-1.67,-0.98,-3.77,903.15,12.906797,77.595902,12,1.5247,-32,1,2414102073,$
#,ASI-ROCKETRY-050,20,0,29.00,1013.25,1669.0,-66.83,-1.59,-1.03,-3.87,903.15,12.906797,77.595902,12,0.0048,-32,1,1070392473,$
#,ASI-ROCKETRY-050,20,0,29.00,1013.25,1679.0,-62.67,-1.61,-1.09,-3.53,903.15,12.906797,77.595902,12,0.0064,-32,1,128385247,$
#,ASI-ROCKETRY-050,20,0,29.00,1013.25,1679.0,-62.67,-1.64,-1.04,-4.08,903.15,12.906797,77.595902,12,0.8687,-32,1,1510669135,$
#,ASI-ROCKETRY-050,20,0,29.00,1013.25,1684.0,-68.33,-1.64,-1.05,-4.26,903.15,12.906797,77.595902,12,0.0145,-32,1,379247666,$
#,ASI-ROCKETRY-050,20,0,29.00,1013.25,1684.0,-68.33,-1.62,-1.04,-3.72,903.15,12.906797,77.595902,12,0.0500,-32,1,2041088301,$
#,ASI-ROCKETRY-050,20,0,29.00,1013.25,1694.0,-59.22,-1.66,-1.09,-3.39,903.15,12.906797,77.595902,12,0.1096,-32,1,3490591250,$
#,ASI-ROCKETRY-050,20,0,29.00,1013.25,1694.0,-59.22,-1.65,-1.04,-3.44,903.15,12.906797,77.595902,12,0.0226,-32,1,3181330080,$
#,ASI-ROCKETRY-050,20,0,29.00,1013.25,1689.0,-74.81,-1.61,-1.06,-3.06,903.15,12.906797,77.595902,12,1.5650,-32,1,3258843976,$
#,ASI-ROCKETRY-050,21,0,29.00,1013.25,1689.0,-74.81,-1.58,-1.07,-3.95,903.15,12.906797,77.595902,12,0.0000,-32,1,162071491,$
#,ASI-ROCKETRY-050,21,0,29.00,1013.25,1699.0,-61.33,-1.66,-1.03,-4.00,903.15,12.906797,77.595902,12,0.1305,-32,1,670025941,$
#,ASI-ROCKETRY-050,21,0,29.00,1013.25,1704.0,-63.06,-1.56,-1.05,-3.47,903.15,12.906797,77.595902,12,0.0596,-32,1,2151446480,$
#,ASI-ROCKETRY-050,21,0,29.00,1013.25,1704.0,-63.06,-1.58,-1.00,-4.07,903.15,12.906797,77.595902,12,1.4086,-32,1,3928670497,$
#,ASI-ROCKETRY-050,21,0,29.00,1013.25,1714.0,-63.94,-1.63,-1.03,-4.34,903.15,12.906797,77.595902,12,0.1096,-32,1,260252498,$
#,ASI-ROCKETRY-050,21,0,29.00,1013.25,1714.0,-63.94,-1.61,-1.03,-3.74,903.15,12.906797,77.595902,12,1.5182,-32,1,2947302830,$
#,ASI-ROCKETRY-050,21,0,29.00,1013.25,1709.0,-70.25,-1.65,-1.07,-3.53,903.15,12.906797,77.595902,12,0.0000,-32,1,2978696430,$
#,ASI-ROCKETRY-050,21,0,29.00,1013.25,1709.0,-70.25,-1.65,-1.02,-4.00,903.15,12.906797,77.595902,12,1.5473,-32,1,2828730584,$
#,ASI-ROCKETRY-050,21,0,29.00,1013.25,1719.0,-67.92,-1.56,-1.04,-3.76,903.15,12.906797,77.595902,12,0.1451,-32,1,3580793494,$
#,ASI-ROCKETRY-050,21,0,29.00,1013.25,1719.0,-67.92,-1.60,-1.03,-3.77,903.15,12.906797,77.595902,12,0.0193,-32,1,3570917352,$
#,ASI-ROCKETRY-050,21,0,29.00,1013.25,1724.0,-58.75,-1.63,-1.10,-4.28,903.15,12.906797,77.595902,12,1.5569,-32,1,4153182658,$
#,ASI-ROCKETRY-050,21,0,29.00,1013.25,1724.0,-58.75,-1.58,-1.07,-3.52,903.15,12.906797,77.595902,12,0.9848,-32,1,2815817375,$
#,ASI-ROCKETRY-050,21,0,29.00,1013.25,1734.0,-75.83,-1.55,-0.99,-4.03,903.15,12.906797,77.595902,12,0.1692,-32,1,3781079330,$
#,ASI-ROCKETRY-050,21,0,29.00,1013.25,1734.0,-75.83,-1.62,-1.02,-3.86,903.15,12.906797,77.595902,12,0.2563,-32,1,2432674321,$
#,ASI-ROCKETRY-050,21,0,29.00,1013.25,1729.0,-63.75,-1.63,-1.02,-4.57,903.15,12.906797,77.595902,12,1.5601,-32,1,2634172669,$
#,ASI-ROCKETRY-050,21,0,29.00,1013.25,1739.0,-69.73,-1.59,-1.02,-3.51,903.15,12.906797,77.595902,12,0.1708,-32,1,3764167417,$
#,ASI-ROCKETRY-050,21,0,29.00,1013.25,1739.0,-69.73,-1.61,-1.02,-3.76,903.15,12.906797,77.595902,12,1.5779,-32,1,1366449058,$
#,ASI-ROCKETRY-050,21,0,29.00,1013.25,1744.0,-58.89,-1.61,-1.03,-3.63,903.15,12.906797,77.595902,12,0.1692,-32,1,605013917,$
#,ASI-ROCKETRY-050,22,0,29.00,1013.25,1744.0,-58.89,-1.60,-1.05,-4.11,903.15,12.906797,77.595902,12,1.5956,-32,1,78211325,$
#,ASI-ROCKETRY-050,22,0,29.00,1013.25,1754.0,-76.09,-1.60,-1.05,-4.11,903.15,12.906797,77.595902,12,0.0886,-32,1,1214307245,$
#,ASI-ROCKETRY-050,22,0,29.00,1013.25,1754.0,-76.09,-1.62,-1.05,-4.14,903.15,12.906797,77.595902,12,0.1483,-32,1,2852950628,$
#,ASI-ROCKETRY-050,22,0,29.00,1013.25,1749.0,-60.01,-1.62,-1.05,-4.14,903.15,12.906797,77.595902,12,0.0210,-32,1,2562837683,$
#,ASI-ROCKETRY-050,22,0,29.00,1013.25,1749.0,-60.01,-1.63,-1.04,-3.86,903.15,12.906797,77.595902,12,1.5714,-32,1,3960414135,$
#,ASI-ROCKETRY-050,22,0,29.00,1013.25,1759.0,-64.73,-1.63,-1.03,-3.48,903.15,12.906797,77.595902,12,0.9686,-32,1,1320911920,$
#,ASI-ROCKETRY-050,22,0,29.00,1013.25,1764.0,-78.48,-1.60,-1.01,-4.11,903.15,12.906797,77.595902,12,0.1644,-32,1,3156729276,$
#,ASI-ROCKETRY-050,22,0,29.00,1013.25,1764.0,-78.48,-1.66,-1.01,-4.98,903.15,12.906797,77.595902,12,1.5859,-32,1,3126218499,$
#,ASI-ROCKETRY-050,22,0,29.00,1013.25,1774.0,-66.12,-1.59,-1.06,-4.02,903.15,12.906797,77.595902,12,0.1547,-32,1,3671305848,$
#,ASI-ROCKETRY-050,22,0,29.00,1013.25,1774.0,-66.12,-1.63,-1.04,-3.88,903.15,12.906797,77.595902,12,1.5650,-32,1,1391159529,$
#,ASI-ROCKETRY-050,22,0,29.00,1013.25,1769.0,-65.92,-1.60,-1.08,-3.72,903.15,12.906797,77.595902,12,0.1708,-32,1,1813699979,$
#,ASI-ROCKETRY-050,22,0,29.00,1013.25,1769.0,-65.92,-1.60,-1.05,-3.94,903.15,12.906797,77.595902,12,0.8719,-32,1,1721396818,$
#,ASI-ROCKETRY-050,22,0,29.00,1013.25,1779.0,-76.31,-1.59,-0.98,-4.18,903.15,12.906797,77.595902,12,1.5263,-32,1,1790692367,$
#,ASI-ROCKETRY-050,22,0,29.00,1013.25,1779.0,-76.31,-1.64,-0.99,-4.16,903.15,12.906797,77.595902,12,0.0016,-32,1,1029422191,$
#,ASI-ROCKETRY-050,22,0,29.00,1013.25,1784.0,-59.32,-1.62,-1.01,-3.58,903.15,12.906797,77.595902,12,0.1805,-32,1,3044401794,$
#,ASI-ROCKETRY-050,22,0,29.00,1013.25,1784.0,-59.32,-1.62,-1.12,-3.36,903.15,12.906797,77.595902,12,0.5158,-32,1,2906713585,$
#,ASI-ROCKETRY-050,22,0,29.00,1013.25,1794.0,-62.53,-1.58,-1.08,-4.08,903.15,12.906797,77.595902,12,1.1008,-32,1,2377489188,$
#,ASI-ROCKETRY-050,22,0,29.00,1013.25,1789.0,-68.58,-1.61,-1.04,-4.57,903.15,12.906797,77.595902,12,0.0806,-32,1,737395660,$
#,ASI-ROCKETRY-050,23,0,29.00,1013.25,1789.0,-68.58,-1.60,-1.01,-3.72,903.15,12.906797,77.595902,12,0.7914,-32,1,2856525848,$
#,ASI-ROCKETRY-050,23,0,29.00,1013.25,1799.0,-69.46,-1.62,-1.05,-3.84,903.15,12.906797,77.595902,12,0.0758,-32,1,1975315730,$
#,ASI-ROCKETRY-050,23,0,29.00,1013.25,1799.0,-69.46,-1.65,-1.02,-3.19,903.15,12.906797,77.595902,12,1.3990,-32,1,1694156260,$
#,ASI-ROCKETRY-050,23,0,29.00,1013.25,1804.0,-65.48,-1.60,-1.07,-3.61,903.15,12.906797,77.595902,12,0.1418,-32,1,3927291856,$
#,ASI-ROCKETRY-050,23,0,29.00,1013.25,1804.0,-65.48,-1.63,-1.03,-3.11,903.15,12.906797,77.595902,12,0.1483,-32,1,1890939929,$
#,ASI-ROCKETRY-050,23,0,29.00,1013.25,1814.0,-69.54,-1.61,-1.04,-3.95,903.15,12.906797,77.595902,12,0.1015,-32,1,3177036849,$
#,ASI-ROCKETRY-050,23,0,29.00,1013.25,1814.0,-69.54,-1.59,-1.05,-3.17,903.15,12.906797,77.595902,12,1.5215,-32,1,137734180,$
#,ASI-ROCKETRY-050,23,0,29.00,1013.25,1809.0,-70.23,-1.63,-1.00,-4.16,903.15,12.906797,77.595902,12,0.0048,-32,1,2661682666,$
#,ASI-ROCKETRY-050,23,0,29.00,1013.25,1809.0,-70.23,-1.60,-0.97,-3.53,903.15,12.906797,77.595902,12,0.1612,-32,1,366853940,$
#,ASI-ROCKETRY-050,23,0,29.00,1013.25,1819.0,-66.43,-1.56,-1.04,-3.25,903.15,12.906797,77.595902,12,0.4416,-32,1,35498520,$
#,ASI-ROCKETRY-050,23,0,29.00,1013.25,1824.0,-62.83,-1.61,-1.08,-4.39,903.15,12.906797,77.595902,12,0.2772,-32,1,3959310362,$
#,ASI-ROCKETRY-050,23,0,29.00,1013.25,1824.0,-62.83,-1.62,-1.02,-3.82,903.15,12.906797,77.595902,12,0.0113,-32,1,3782257909,$
#,ASI-ROCKETRY-050,23,0,29.00,1013.25,1834.0,-62.8,-1.60,-1.01,-3.76,903.15,12.906797,77.595902,12,0.2031,-32,1,333432862,$
#,ASI-ROCKETRY-050,23,0,29.00,1013.25,1834.0,-62.8,-1.63,-1.08,-3.44,903.15,12.906797,77.595902,12,0.1080,-32,1,810458408,$
#,ASI-ROCKETRY-050,23,0,29.00,1013.25,1829.0,-58.08,-1.65,-1.06,-3.73,903.15,12.906797,77.595902,12,1.4908,-32,1,659087741,$
#,ASI-ROCKETRY-050,23,0,29.00,1013.25,1829.0,-58.08,-1.65,-1.03,-4.01,903.15,12.906797,77.595902,12,1.1766,-32,1,735798367,$
#,ASI-ROCKETRY-050,23,0,29.00,1013.25,1839.0,-88.24,-1.64,-1.05,-3.34,903.15,12.906797,77.595902,12,0.1144,-32,1,1085013481,$
#,ASI-ROCKETRY-050,23,0,29.00,1013.25,1839.0,-88.24,-1.62,-1.03,-3.88,903.15,12.906797,77.595902,12,0.1128,-32,1,2749605287,$
#,ASI-ROCKETRY-050,24,0,29.00,1013.25,1844.0,-63.17,-1.60,-1.00,-3.53,903.15,12.906797,77.595902,12,1.4344,-32,1,3776398220,$
#,ASI-ROCKETRY-050,24,0,29.00,1013.25,1844.0,-63.17,-1.62,-0.99,-3.12,903.15,12.906797,77.595902,12,1.2781,-32,1,1803612128,$
#,ASI-ROCKETRY-050,24,0,29.00,1013.25,1854.0,-63.77,-1.61,-1.05,-4.71,903.15,12.906797,77.595902,12,0.0532,-32,1,375895659,$
#,ASI-ROCKETRY-050,24,0,29.00,1013.25,1849.0,-72.79,-1.59,-1.01,-4.04,903.15,12.906797,77.595902,12,1.3716,-32,1,2929488695,$
#,ASI-ROCKETRY-050,24,0,29.00,1013.25,1849.0,-72.79,-1.63,-1.03,-4.04,903.15,12.906797,77.595902,12,0.0886,-32,1,865512120,$
#,ASI-ROCKETRY-050,24,0,29.00,1013.25,1859.0,-72.03,-1.61,-1.01,-4.44,903.15,12.906797,77.595902,12,1.4473,-32,1,111847019,$
#,ASI-ROCKETRY-050,24,0,29.00,1013.25,1859.0,-72.03,-1.57,-1.01,-3.75,903.15,12.906797,77.595902,12,0.0000,-32,1,1180263973,$
#,ASI-ROCKETRY-050,24,0,29.00,1013.25,1864.0,-60.62,-1.62,-1.04,-4.18,903.15,12.906797,77.595902,12,1.5843,-32,1,1801583378,$
#,ASI-ROCKETRY-050,24,0,29.00,1013.25,1864.0,-60.62,-1.61,-1.09,-4.11,903.15,12.906797,77.595902,12,0.0677,-32,1,562095081,$
#,ASI-ROCKETRY-050,24,0,29.00,1013.25,1874.0,-61.54,-1.68,-1.11,-4.58,903.15,12.906797,77.595902,12,0.0129,-32,1,47119007,$
#,ASI-ROCKETRY-050,24,0,29.00,1013.25,1874.0,-61.54,-1.60,-1.05,-4.20,903.15,12.906797,77.595902,12,1.5279,-32,1,64904974,$
#,ASI-ROCKETRY-050,24,0,29.00,1013.25,1869.0,-69.19,-1.62,-1.04,-3.79,903.15,12.906797,77.595902,12,0.0000,-32,1,1850903592,$
#,ASI-ROCKETRY-050,24,0,29.00,1013.25,1869.0,-69.19,-1.62,-1.04,-3.79,903.15,12.906797,77.595902,12,0.1676,-32,1,2610930367,$
#,ASI-ROCKETRY-050,24,0,29.00,1013.25,1879.0,-66.77,-1.62,-1.05,-3.57,903.15,12.906797,77.595902,12,0.6737,-32,1,3997955968,$
#,ASI-ROCKETRY-050,24,0,29.00,1013.25,1879.0,-66.77,-1.62,-1.05,-3.57,903.15,12.906797,77.595902,12,1.0379,-32,1,4050251523,$
#,ASI-ROCKETRY-050,24,0,29.00,1013.25,1884.0,-66.54,-1.62,-0.99,-4.61,903.15,12.906797,77.595902,12,0.1418,-32,1,481067682,$
#,ASI-ROCKETRY-050,24,0,29.00,1013.25,1894.0,-62.34,-1.63,-1.02,-4.64,903.15,12.906797,77.595902,12,1.5376,-32,1,3842893708,$
#,ASI-ROCKETRY-050,24,0,29.00,1013.25,1894.0,-62.34,-1.59,-1.02,-3.75,903.15,12.906797,77.595902,12,0.1483,-32,1,719827637,$
#,ASI-ROCKETRY-050,24,0,29.00,1013.25,1889.0,-74.28,-1.63,-1.02,-3.51,903.15,12.906797,77.595902,12,1.5811,-32,1,2033218391,$
#,ASI-ROCKETRY-050,25,0,29.00,1013.25,1889.0,-74.28,-1.66,-1.06,-3.34,903.15,12.906797,77.595902,12,0.1708,-32,1,2523341731,$
#,ASI-ROCKETRY-050,25,0,29.00,1013.25,1899.0,-63.04,-1.64,-1.01,-3.90,903.15,12.906797,77.595902,12,0.0145,-32,1,2716065383,$
#,ASI-ROCKETRY-050,25,0,29.00,1013.25,1899.0,-63.04,-1.62,-1.04,-3.51,903.15,12.906797,77.595902,12,1.5747,-32,1,1509421021,$
#,ASI-ROCKETRY-050,25,0,29.00,1013.25,1904.0,-74.61,-1.66,-1.06,-3.00,903.15,12.906797,77.595902,12,0.0000,-32,1,3270065038,$
#,ASI-ROCKETRY-050,25,0,29.00,1013.25,1904.0,-74.61,-1.60,-0.98,-2.91,903.15,12.906797,77.595902,12,0.1628,-32,1,2582249627,$
#,ASI-ROCKETRY-050,25,0,29.00,1013.25,1914.0,-68.35,-1.67,-1.05,-3.46,903.15,12.906797,77.595902,12,0.3771,-32,1,2648611675,$
#,ASI-ROCKETRY-050,25,0,29.00,1013.25,1909.0,-68.35,-1.61,-1.05,-3.53,903.15,12.906797,77.595902,12,1.5682,-32,1,1442459662,$
#,ASI-ROCKETRY-050,25,0,29.00,1013.25,1909.0,-68.35,-1.62,-1.05,-2.90,903.15,12.906797,77.595902,12,0.1837,-32,1,3468147094,$
#,ASI-ROCKETRY-050,25,0,29.00,1013.25,1919.0,-70.48,-1.58,-1.01,-3.92,903.15,12.906797,77.595902,12,1.5311,-32,1,2714383705,$
#,ASI-ROCKETRY-050,25,0,29.00,1013.25,1919.0,-70.48,-1.61,-0.99,-3.54,903.15,12.906797,77.595902,12,0.1708,-32,1,1162823639,$
#,ASI-ROCKETRY-050,25,0,29.00,1013.25,1924.0,-61.12,-1.60,-1.04,-3.63,903.15,12.906797,77.595902,12,1.3812,-32,1,2222963935,$
#,ASI-ROCKETRY-050,25,0,29.00,1013.25,1924.0,-61.12,-1.55,-1.00,-3.65,903.15,12.906797,77.595902,12,0.5190,-32,1,965012060,$
#,ASI-ROCKETRY-050,25,0,29.00,1013.25,1934.0,-67.74,-1.60,-1.04,-2.92,903.15,12.906797,77.595902,12,0.1741,-32,1,517851146,$
#,ASI-ROCKETRY-050,25,0,29.00,1013.25,1934.0,-67.74,-1.56,-1.05,-3.50,903.15,12.906797,77.595902,12,0.6157,-32,1,47520007,$
#,ASI-ROCKETRY-050,25,0,29.00,1013.25,1929.0,-64.15,-1.61,-1.08,-3.39,903.15,12.906797,77.595902,12,1.5392,-32,1,3853919396,$
#,ASI-ROCKETRY-050,25,0,29.00,1013.25,1929.0,-64.15,-1.62,-1.03,-3.11,903.15,12.906797,77.595902,12,0.0935,-32,1,3291306746,$
#,ASI-ROCKETRY-050,25,0,29.00,1013.25,1939.0,-65.02,-1.60,-1.04,-3.94,903.15,12.906797,77.595902,12,0.1499,-32,1,3372386533,$
#,ASI-ROCKETRY-050,25,0,29.00,1013.25,1944.0,-71.22,-1.61,-1.07,-4.01,903.15,12.906797,77.595902,12,0.3223,-32,1,3968206313,$
#,ASI-ROCKETRY-050,26,0,29.00,1013.25,1944.0,-71.22,-1.59,-1.06,-3.48,903.15,12.906797,77.595902,12,0.0258,-32,1,4176877317,$
#,ASI-ROCKETRY-050,26,0,29.00,1013.25,1954.0,-61.6,-1.59,-1.02,-3.74,903.15,12.906797,77.595902,12,0.3256,-32,1,2589810870,$
#,ASI-ROCKETRY-050,26,0,29.00,1013.25,1954.0,-61.6,-1.56,-1.00,-3.48,903.15,12.906797,77.595902,12,0.1241,-32,1,3853386985,$
#,ASI-ROCKETRY-050,26,0,29.00,1013.25,1949.0,-65.75,-1.64,-1.08,-3.54,903.15,12.906797,77.595902,12,0.0000,-32,1,4014965396,$
#,ASI-ROCKETRY-050,26,0,29.00,1013.25,1949.0,-65.75,-1.54,-1.00,-4.28,903.15,12.906797,77.595902,12,1.5456,-32,1,213910666,$
#,ASI-ROCKETRY-050,26,0,29.00,1013.25,1959.0,-70.41,-1.60,-1.00,-3.71,903.15,12.906797,77.595902,12,0.0000,-32,1,813384100,$
#,ASI-ROCKETRY-050,26,0,29.00,1013.25,1959.0,-70.41,-1.63,-1.05,-3.65,903.15,12.906797,77.595902,12,0.0741,-32,1,2731057256,$
#,ASI-ROCKETRY-050,26,0,29.00,1013.25,1964.0,-64.24,-1.63,-1.02,-3.54,903.15,12.906797,77.595902,12,1.5505,-32,1,3907284482,$
#,ASI-ROCKETRY-050,26,0,29.00,1013.25,1964.0,-64.24,-1.66,-1.02,-3.53,903.15,12.906797,77.595902,12,1.1282,-32,1,775254831,$
#,ASI-ROCKETRY-050,26,0,29.00,1013.25,1974.0,-62.79,-1.59,-1.02,-3.17,903.15,12.906797,77.595902,12,0.1338,-32,1,3855793354,$
#,ASI-ROCKETRY-050,26,0,29.00,1013.25,1969.0,-66.59,-1.66,-0.99,-3.09,903.15,12.906797,77.595902,12,0.0161,-32,1,1162668878,$
#,ASI-ROCKETRY-050,26,0,29.00,1013.25,1969.0,-66.59,-1.67,-1.01,-4.18,903.15,12.906797,77.595902,12,0.9010,-32,1,4205836776,$
#,ASI-ROCKETRY-050,26,0,29.00,1013.25,1979.0,-61.53,-1.65,-1.01,-3.88,903.15,12.906797,77.595902,12,0.0000,-32,1,384077761,$
#,ASI-ROCKETRY-050,26,0,29.00,1013.25,1979.0,-61.53,-1.63,-1.04,-3.49,903.15,12.906797,77.595902,12,1.0621,-32,1,2064935135,$
#,ASI-ROCKETRY-050,26,0,29.00,1013.25,1984.0,-72.93,-1.68,-1.06,-4.45,903.15,12.906797,77.595902,12,0.1531,-32,1,2303994804,$
#,ASI-ROCKETRY-050,26,0,29.00,1013.25,1984.0,-72.93,-1.64,-1.03,-3.49,903.15,12.906797,77.595902,12,0.0113,-32,1,1792323683,$
#,ASI-ROCKETRY-050,26,0,29.00,1013.25,1994.0,-64.9,-1.64,-1.07,-3.23,903.15,12.906797,77.595902,12,1.4779,-32,1,3213777971,$
#,ASI-ROCKETRY-050,26,0,29.00,1013.25,1994.0,-64.9,-1.64,-1.03,-3.53,903.15,12.906797,77.595902,12,0.1563,-32,1,628692015,$
#,ASI-ROCKETRY-050,27,0,29.00,1013.25,1989.0,-64.47,-1.65,-1.07,-3.27,903.15,12.906797,77.595902,12,0.0145,-32,1,849371424,$
#,ASI-ROCKETRY-050,27,0,29.00,1013.25,1989.0,-64.47,-1.61,-1.09,-3.39,903.15,12.906797,77.595902,12,1.5779,-32,1,2196849585,$
#,ASI-ROCKETRY-050,27,0,29.00,1013.25,1999.0,-63.72,-1.69,-1.03,-3.47,903.15,12.906797,77.595902,12,1.4908,-32,1,249181805,$
#,ASI-ROCKETRY-050,27,0,29.00,1013.25,2004.0,-63.81,-1.58,-1.08,-3.78,903.15,12.906797,77.595902,12,0.1015,-32,1,1660654275,$
#,ASI-ROCKETRY-050,27,0,29.00,1013.25,2004.0,-63.81,-1.61,-0.96,-3.79,903.15,12.906797,77.595902,12,0.1418,-32,1,2875466507,$
#,ASI-ROCKETRY-050,27,0,29.00,1013.25,2014.0,-66.73,-1.60,-1.02,-3.27,903.15,12.906797,77.595902,12,0.0000,-32,1,2483615299,$
#,ASI-ROCKETRY-050,27,0,29.00,1013.25,2014.0,-66.73,-1.60,-1.02,-3.27,903.15,12.906797,77.595902,12,1.5666,-32,1,1059140703,$
#,ASI-ROCKETRY-050,27,0,29.00,1013.25,2009.0,-72.84,-1.64,-1.11,-3.79,903.15,12.906797,77.595902,12,0.0000,-32,1,2541923527,$
#,ASI-ROCKETRY-050,27,0,29.00,1013.25,2009.0,-72.84,-1.56,-1.03,-3.26,903.15,12.906797,77.595902,12,0.1644,-32,1,1813179496,$
#,ASI-ROCKETRY-050,27,0,29.00,1013.25,2019.0,-72.63,-1.56,-1.03,-3.26,903.15,12.906797,77.595902,12,0.6785,-32,1,2719295301,$
#,ASI-ROCKETRY-050,27,0,29.00,1013.25,2019.0,-72.63,-1.65,-1.03,-3.25,903.15,12.906797,77.595902,12,1.5440,-32,1,2678447223,$
#,ASI-ROCKETRY-050,27,0,29.00,1013.25,2024.0,-91.17,-1.58,-1.02,-3.60,903.15,12.906797,77.595902,12,0.8397,-32,1,15913854,$
#,ASI-ROCKETRY-050,27,0,29.00,1013.25,2034.0,-69.05,-1.67,-1.06,-3.58,903.15,12.906797,77.595902,12,0.1515,-32,1,120493096,$
#,ASI-ROCKETRY-050,27,0,29.00,1013.25,2034.0,-69.05,-1.66,-1.05,-3.77,903.15,12.906797,77.595902,12,0.2579,-32,1,1741965819,$
#,ASI-ROCKETRY-050,27,0,29.00,1013.25,2029.0,-63.75,-1.58,-1.03,-4.11,903.15,12.906797,77.595902,12,0.0081,-32,1,9970473,$
#,ASI-ROCKETRY-050,27,0,29.00,1013.25,2029.0,-63.75,-1.59,-0.99,-4.13,903.15,12.906797,77.595902,12,0.1370,-32,1,2589729147,$
