<TEAM_ID>,<MISSION_TIME>,<PACKET_COUNT>,<3TEMP>,<4PRESSURE>,<5FREQ>,<6RSSI>,<7ROLL>,<8PITCH>,<9YAW>,<10GNSS_ALT>,<11GNSS_LAT>,<12GNSS_LONG>,<13GNSS_SAT>,<14VOLTAGE>,<15CURRENT>,<16STATE>,<17CHECKSUM>
#,ASI-ROCKETRY-050,0,0,29.00,1013.25,434.000,-72,-0.80,0.29,-8.28,903.15,12.906797,77.595902,12,1.5601,-32,1,889367757,$
#,ASI-ROCKETRY-050,0,0,29.00,1013.25,434.000,-72,-0.75,0.29,-8.82,903.15,12.906797,77.595902,12,0.3997,-32,1,1208637699,$
#,ASI-ROCKETRY-050,1,0,29.00,1013.25,434.000,-72,-0.81,0.28,-8.01,903.15,12.906797,77.595902,12,1.5875,-32,1,4244715222,$
#,ASI-ROCKETRY-050,2,0,29.00,1013.25,434.000,-72,-0.77,0.29,-8.01,903.15,12.906797,77.595902,12,0.1048,-32,1,1676738156,$
#,ASI-ROCKETRY-050,3,0,29.00,1013.25,434.000,-72,-0.76,0.29,-8.44,903.15,12.906797,77.595902,12,0.2482,-32,1,25752291,$
#,ASI-ROCKETRY-050,4,0,29.00,1013.25,434.000,-72,-0.77,0.26,-8.17,903.15,12.906797,77.595902,12,0.1338,-32,1,1560117914,$
#,ASI-ROCKETRY-050,5,0,29.00,1013.25,434.000,-72,-2.10,-33.19,-7.04,903.15,12.906797,77.595902,12,1.2023,-32,1,2674309752,$
#,ASI-ROCKETRY-050,6,0,29.00,1013.25,434.000,-72,-0.58,0.32,-8.20,903.15,12.906797,77.595902,12,0.0338,-32,1,997317508,$
#,ASI-ROCKETRY-050,7,0,29.00,1013.25,434.000,-72,-0.79,0.24,-8.86,903.15,12.906797,77.595902,12,0.2643,-32,1,418764582,$
#,ASI-ROCKETRY-050,8,0,29.00,1013.25,434.000,-72,-0.76,0.25,-8.08,903.15,12.906797,77.595902,12,1.3796,-32,1,157295491,$
#,ASI-ROCKETRY-050,9,0,29.00,1013.25,434.000,-72,-0.80,0.24,-8.66,903.15,12.906797,77.595902,12,0.8252,-32,1,440627899,$
#,ASI-ROCKETRY-050,10,0,29.00,1013.25,434.000,-72,-0.92,0.24,-8.31,903.15,12.906797,77.595902,12,0.2031,-32,1,1613175631,$
#,ASI-ROCKETRY-050,11,0,29.00,1013.25,434.000,-72,-0.73,0.34,-8.20,903.15,12.906797,77.595902,12,0.0258,-32,1,3183109327,$
#,ASI-ROCKETRY-050,12,0,29.00,1013.25,434.000,-72,-0.74,0.27,-8.58,903.15,12.906797,77.595902,12,1.5569,-32,1,97378916,$
#,ASI-ROCKETRY-050,13,0,29.00,1013.25,434.000,-72,-0.72,0.36,-8.61,903.15,12.906797,77.595902,12,0.4287,-32,1,697790399,$
#,ASI-ROCKETRY-050,14,0,29.00,1013.25,434.000,-72,-0.86,0.27,-8.42,903.15,12.906797,77.595902,12,0.2434,-32,1,1152564096,$
#,ASI-ROCKETRY-050,15,0,29.00,1013.25,434.000,-72,-0.77,0.34,-8.65,903.15,12.906797,77.595902,12,0.0177,-32,1,2459378086,$
#,ASI-ROCKETRY-050,16,0,29.00,1013.25,434.000,-72,-0.78,0.35,-8.41,903.15,12.906797,77.595902,12,1.5795,-32,1,670712725,$
#,ASI-ROCKETRY-050,17,0,29.00,1013.25,434.000,-72,-0.84,0.32,-8.74,903.15,12.906797,77.595902,12,0.0951,-32,1,1031738062,$
#,ASI-ROCKETRY-050,18,0,29.00,1013.25,434.000,-72,-0.75,0.28,-9.07,903.15,12.906797,77.595902,12,0.2837,-32,1,1296650272,$
#,ASI-ROCKETRY-050,19,0,29.00,1013.25,434.000,-72,-0.77,0.34,-8.40,903.15,12.906797,77.595902,12,0.0000,-32,1,2296012258,$
#,ASI-ROCKETRY-050,20,0,29.00,1013.25,434.000,-72,-0.79,0.25,-8.38,903.15,12.906797,77.595902,12,1.5924,-32,1,4253078402,$
#,ASI-ROCKETRY-050,21,0,29.00,1013.25,434.000,-72,-0.73,0.29,-9.16,903.15,12.906797,77.595902,12,0.0419,-32,1,1901198876,$
#,ASI-ROCKETRY-050,22,0,29.00,1013.25,434.000,-72,-0.82,0.26,-8.63,903.15,12.906797,77.595902,12,0.2772,-32,1,1567568702,$
#,ASI-ROCKETRY-050,23,0,29.00,1013.25,434.000,-72,-0.69,0.32,-9.02,903.15,12.906797,77.595902,12,0.1451,-32,1,523512210,$
#,ASI-ROCKETRY-050,24,0,29.00,1013.25,434.000,-72,-0.80,0.24,-7.89,903.15,12.906797,77.595902,12,0.0548,-32,1,3428569874,$
#,ASI-ROCKETRY-050,25,0,29.00,1013.25,434.000,-72,-0.76,0.28,-9.02,903.15,12.906797,77.595902,12,1.5408,-32,1,143289625,$
#,ASI-ROCKETRY-050,26,0,29.00,1013.25,434.000,-72,5.15,-36.69,-7.82,903.15,12.906797,77.595902,12,0.3514,-32,1,3455912344,$
#,ASI-ROCKETRY-050,27,0,29.00,1013.25,434.000,-72,-24.34,-15.22,6.82,903.15,12.906797,77.595902,12,0.0161,-32,1,1082226185,$
#,ASI-ROCKETRY-050,28,0,29.00,1013.25,434.000,-72,13.39,5.20,-8.38,903.15,12.906797,77.595902,12,0.2111,-32,1,3666952395,$
#,ASI-ROCKETRY-050,29,0,29.00,1013.25,434.000,-72,35.20,2.53,-8.41,903.15,12.906797,77.595902,12,0.1773,-32,1,2811897360,$
